2025-07-03 12:43:27,642 - [SERIAL] $HCHDT,172.7,T*2A
2025-07-03 12:43:27,645 - [SERIAL] $GPMDA,30.229,I,1.0237,B,,C,,C,,,,C,,T,,M,,N,,M*00
2025-07-03 12:43:27,647 - [SERIAL] $IIMMB,30.229,I,1.0237,B*44
2025-07-03 12:43:27,847 - [SERIAL] $GPRMC,104327,A,4805.81104,N,00142.51808,W,000.0,360.0,030725,,,A*61
2025-07-03 12:43:27,857 - [SERIAL] $GPGGA,104327,4805.81104,N,00142.51808,W,1,05,,70.000,M,,M,,*57
2025-07-03 12:43:27,884 - [SERIAL] $HCHDG,172.0,,,000.8,E*25
2025-07-03 12:43:27,886 - [SERIAL] $HCHDT,172.7,T*2A
2025-07-03 12:43:27,888 - [SERIAL] $GPMDA,30.23,I,1.0237,B,,C,,C,,,,C,,T,,M,,N,,M*38
2025-07-03 12:43:27,889 - [SERIAL] $IIMMB,30.23,I,1.0237,B*7C
2025-07-03 12:43:28,113 - [SERIAL] $GPRMC,104328,A,4805.81105,N,00142.51806,W,000.0,360.0,030725,,,A*61
2025-07-03 12:43:28,123 - [SERIAL] $GPGGA,104328,4805.81105,N,00142.51806,W,1,05,,70.000,M,,M,,*57
2025-07-03 12:43:28,154 - [SERIAL] $HCHDG,172.0,,,000.8,E*25
2025-07-03 12:43:28,156 - [SERIAL] $HCHDT,172.7,T*2A
2025-07-03 12:43:28,158 - [SERIAL] $GPMDA,30.229,I,1.0237,B,,C,,C,,,,C,,T,,M,,N,,M*00
2025-07-03 12:43:28,160 - [SERIAL] $IIMMB,30.229,I,1.0237,B*44
2025-07-03 12:43:28,472 - [SERIAL] $GPRMC,104328,A,4805.81105,N,00142.51806,W,000.0,360.0,030725,,,A*61
2025-07-03 12:43:28,488 - [SERIAL] $GPGGA,104328,4805.81105,N,00142.51806,W,1,05,,70.000,M,,M,,*57
2025-07-03 12:43:28,525 - [SERIAL] $HCHDG,172.0,,,000.8,E*25
2025-07-03 12:43:28,526 - [SERIAL] $HCHDT,172.7,T*2A
2025-07-03 12:43:28,529 - [SERIAL] $GPMDA,30.229,I,1.0237,B,,C,,C,,,,C,,T,,M,,N,,M*00
2025-07-03 12:43:28,530 - [SERIAL] $IIMMB,30.229,I,1.0237,B*44
2025-07-03 12:43:28,629 - [SERIAL] $GPRMC,104328,A,4805.81105,N,00142.51806,W,000.0,360.0,030725,,,A*61
2025-07-03 12:43:28,643 - [SERIAL] $GPGGA,104328,4805.81105,N,00142.51806,W,1,05,,70.000,M,,M,,*57
2025-07-03 12:43:28,681 - [SERIAL] $HCHDG,172.0,,,000.8,E*25
2025-07-03 12:43:28,682 - [SERIAL] $HCHDT,172.7,T*2A
2025-07-03 12:43:28,685 - [SERIAL] $GPMDA,30.229,I,1.0237,B,,C,,C,,,,C,,T,,M,,N,,M*00
2025-07-03 12:43:28,687 - [SERIAL] $IIMMB,30.229,I,1.0237,B*44
2025-07-03 12:43:28,880 - [SERIAL] $GPRMC,104328,A,4805.81105,N,00142.51806,W,000.0,360.0,030725,,,A*61
2025-07-03 12:43:28,886 - [SERIAL] $GPGGA,104328,4805.81105,N,00142.51806,W,1,05,,70.000,M,,M,,*57
2025-07-03 12:43:28,927 - [SERIAL] $HCHDG,172.0,,,000.8,E*25
2025-07-03 12:43:28,929 - [SERIAL] $HCHDT,172.7,T*2A
2025-07-03 12:43:28,934 - [SERIAL] $GPMDA,30.229,I,1.0237,B,,C,,C,,,,C,,T,,M,,N,,M*00
2025-07-03 12:43:28,937 - [SERIAL] $IIMMB,30.229,I,1.0237,B*44
2025-07-03 12:43:29,142 - [SERIAL] $GPRMC,104329,A,4805.81107,N,00142.51798,W,000.0,360.0,030725,,,A*6A
2025-07-03 12:43:29,151 - [SERIAL] $GPGGA,104329,4805.81107,N,00142.51798,W,1,05,,70.000,M,,M,,*5C
2025-07-03 12:43:29,189 - [SERIAL] $HCHDG,172.0,,,000.8,E*25
2025-07-03 12:43:29,191 - [SERIAL] $HCHDT,172.7,T*2A
2025-07-03 12:43:29,194 - [SERIAL] $GPMDA,30.229,I,1.0237,B,,C,,C,,,,C,,T,,M,,N,,M*00
2025-07-03 12:43:29,196 - [SERIAL] $IIMMB,30.229,I,1.0237,B*44
2025-07-03 12:43:29,412 - [SERIAL] $GPRMC,104329,A,4805.81107,N,00142.51798,W,000.0,360.0,030725,,,A*6A
2025-07-03 12:43:29,425 - [SERIAL] $GPGGA,104329,4805.81107,N,00142.51798,W,1,05,,70.000,M,,M,,*5C
2025-07-03 12:43:29,466 - [SERIAL] $HCHDG,172.0,,,000.8,E*25
2025-07-03 12:43:29,469 - [SERIAL] $HCHDT,172.7,T*2A
2025-07-03 12:43:29,474 - [SERIAL] $GPMDA,30.229,I,1.0237,B,,C,,C,,,,C,,T,,M,,N,,M*00
2025-07-03 12:43:29,477 - [SERIAL] $IIMMB,30.229,I,1.0237,B*44
2025-07-03 12:43:29,666 - [SERIAL] $GPRMC,104329,A,4805.81107,N,00142.51798,W,000.0,360.0,030725,,,A*6A
2025-07-03 12:43:29,683 - [SERIAL] $GPGGA,104329,4805.81107,N,00142.51798,W,1,05,,70.000,M,,M,,*5C
2025-07-03 12:43:29,722 - [SERIAL] $HCHDG,172.0,,,000.8,E*25
2025-07-03 12:43:29,725 - [SERIAL] $HCHDT,172.7,T*2A
2025-07-03 12:43:29,728 - [SERIAL] $GPMDA,30.229,I,1.0237,B,,C,,C,,,,C,,T,,M,,N,,M*00
2025-07-03 12:43:29,730 - [SERIAL] $IIMMB,30.229,I,1.0237,B*44
2025-07-03 12:43:29,927 - [SERIAL] $GPRMC,104329,A,4805.81107,N,00142.51798,W,000.0,360.0,030725,,,A*6A
2025-07-03 12:43:29,942 - [SERIAL] $GPGGA,104329,4805.81107,N,00142.51798,W,1,05,,70.000,M,,M,,*5C
2025-07-03 12:43:29,978 - [SERIAL] $HCHDG,172.0,,,000.8,E*25
2025-07-03 12:43:29,980 - [SERIAL] $HCHDT,172.7,T*2A
2025-07-03 12:43:29,982 - [SERIAL] $GPMDA,30.229,I,1.0237,B,,C,,C,,,,C,,T,,M,,N,,M*00
2025-07-03 12:43:29,984 - [SERIAL] $IIMMB,30.229,I,1.0237,B*44
2025-07-03 12:43:30,173 - [SERIAL] $GPRMC,104330,A,4805.81086,N,00142.51799,W,000.1,360.0,030725,,,A*6A
2025-07-03 12:43:30,182 - [SERIAL] $GPGGA,104330,4805.81086,N,00142.51799,W,1,05,,70.000,M,,M,,*5D
2025-07-03 12:43:30,206 - [SERIAL] $HCHDG,172.0,,,000.8,E*25
2025-07-03 12:43:30,208 - [SERIAL] $HCHDT,172.7,T*2A
2025-07-03 12:43:30,212 - [SERIAL] $GPMDA,30.229,I,1.0237,B,,C,,C,,,,C,,T,,M,,N,,M*00
2025-07-03 12:43:30,214 - [SERIAL] $IIMMB,30.229,I,1.0237,B*44
2025-07-03 12:43:30,443 - [SERIAL] $GPRMC,104330,A,4805.81086,N,00142.51799,W,000.1,360.0,030725,,,A*6A
2025-07-03 12:43:30,458 - [SERIAL] $GPGGA,104330,4805.81086,N,00142.51799,W,1,05,,70.000,M,,M,,*5D
2025-07-03 12:43:30,495 - [SERIAL] $HCHDG,172.0,,,000.8,E*25
2025-07-03 12:43:30,496 - [SERIAL] $HCHDT,172.7,T*2A
2025-07-03 12:43:30,499 - [SERIAL] $GPMDA,30.229,I,1.0237,B,,C,,C,,,,C,,T,,M,,N,,M*00
2025-07-03 12:43:30,501 - [SERIAL] $IIMMB,30.229,I,1.0237,B*44
2025-07-03 12:43:30,709 - [SERIAL] $GPRMC,104330,A,4805.81086,N,00142.51799,W,000.1,360.0,030725,,,A*6A
2025-07-03 12:43:30,724 - [SERIAL] $GPGGA,104330,4805.81086,N,00142.51799,W,1,05,,70.000,M,,M,,*5D
2025-07-03 12:43:30,759 - [SERIAL] $HCHDG,172.0,,,000.8,E*25
2025-07-03 12:43:30,761 - [SERIAL] $HCHDT,172.7,T*2A
2025-07-03 12:43:30,763 - [SERIAL] $GPMDA,30.229,I,1.0237,B,,C,,C,,,,C,,T,,M,,N,,M*00
2025-07-03 12:43:30,765 - [SERIAL] $IIMMB,30.229,I,1.0237,B*44
2025-07-03 12:43:30,972 - [SERIAL] $GPRMC,104330,A,4805.81086,N,00142.51799,W,000.1,360.0,030725,,,A*6A
2025-07-03 12:43:30,987 - [SERIAL] $GPGGA,104330,4805.81086,N,00142.51799,W,1,05,,70.000,M,,M,,*5D
2025-07-03 12:43:31,028 - [SERIAL] $HCHDG,172.0,,,000.8,E*25
2025-07-03 12:43:31,030 - [SERIAL] $HCHDT,172.7,T*2A
2025-07-03 12:43:31,033 - [SERIAL] $GPMDA,30.229,I,1.0237,B,,C,,C,,,,C,,T,,M,,N,,M*00
2025-07-03 12:43:31,035 - [SERIAL] $IIMMB,30.229,I,1.0237,B*44
2025-07-03 12:43:31,235 - [SERIAL] $GPRMC,104331,A,4805.81084,N,00142.51771,W,000.1,360.0,030725,,,A*6F
2025-07-03 12:43:31,252 - [SERIAL] $GPGGA,104331,4805.81084,N,00142.51771,W,1,05,,70.000,M,,M,,*58
2025-07-03 12:43:31,289 - [SERIAL] $HCHDG,172.0,,,000.8,E*25
2025-07-03 12:43:31,290 - [SERIAL] $HCHDT,172.7,T*2A
2025-07-03 12:43:31,294 - [SERIAL] $GPMDA,30.229,I,1.0237,B,,C,,C,,,,C,,T,,M,,N,,M*00
2025-07-03 12:43:31,296 - [SERIAL] $IIMMB,30.229,I,1.0237,B*44
2025-07-03 12:43:31,492 - [SERIAL] $GPRMC,104331,A,4805.81084,N,00142.51771,W,000.1,360.0,030725,,,A*6F
2025-07-03 12:43:31,510 - [SERIAL] $GPGGA,104331,4805.81084,N,00142.51771,W,1,05,,70.000,M,,M,,*58
2025-07-03 12:43:31,550 - [SERIAL] $HCHDG,172.0,,,000.8,E*25
2025-07-03 12:43:31,551 - [SERIAL] $HCHDT,172.7,T*2A
2025-07-03 12:43:31,554 - [SERIAL] $GPMDA,30.229,I,1.0237,B,,C,,C,,,,C,,T,,M,,N,,M*00
2025-07-03 12:43:31,555 - [SERIAL] $IIMMB,30.229,I,1.0237,B*44
2025-07-03 12:43:31,756 - [SERIAL] $GPRMC,104331,A,4805.81084,N,00142.51771,W,000.1,360.0,030725,,,A*6F
2025-07-03 12:43:31,773 - [SERIAL] $GPGGA,104331,4805.81084,N,00142.51771,W,1,05,,70.000,M,,M,,*58
2025-07-03 12:43:31,809 - [SERIAL] $HCHDG,172.0,,,000.8,E*25
2025-07-03 12:43:31,811 - [SERIAL] $HCHDT,172.7,T*2A
2025-07-03 12:43:31,815 - [SERIAL] $GPMDA,30.229,I,1.0237,B,,C,,C,,,,C,,T,,M,,N,,M*00
2025-07-03 12:43:31,817 - [SERIAL] $IIMMB,30.229,I,1.0237,B*44
2025-07-03 12:43:32,014 - [SERIAL] $GPRMC,104331,A,4805.81084,N,00142.51771,W,000.1,360.0,030725,,,A*6F
2025-07-03 12:43:32,030 - [SERIAL] $GPGGA,104331,4805.81084,N,00142.51771,W,1,05,,70.000,M,,M,,*58
2025-07-03 12:43:32,068 - [SERIAL] $HCHDG,172.0,,,000.8,E*25
2025-07-03 12:43:32,070 - [SERIAL] $HCHDT,172.7,T*2A
2025-07-03 12:43:32,073 - [SERIAL] $GPMDA,30.229,I,1.0237,B,,C,,C,,,,C,,T,,M,,N,,M*00
2025-07-03 12:43:32,075 - [SERIAL] $IIMMB,30.229,I,1.0237,B*44
2025-07-03 12:43:32,300 - [SERIAL] $GPRMC,104332,A,4805.81076,N,00142.51749,W,000.1,360.0,030725,,,A*6A
2025-07-03 12:43:32,314 - [SERIAL] $GPGGA,104332,4805.81076,N,00142.51749,W,1,05,,70.000,M,,M,,*5D
2025-07-03 12:43:32,337 - [SERIAL] $HCHDG,172.0,,,000.8,E*25
2025-07-03 12:43:32,338 - [SERIAL] $HCHDT,172.7,T*2A
2025-07-03 12:43:32,342 - [SERIAL] $GPMDA,30.229,I,1.0237,B,,C,,C,,,,C,,T,,M,,N,,M*00
2025-07-03 12:43:32,345 - [SERIAL] $IIMMB,30.229,I,1.0237,B*44
2025-07-03 12:43:32,530 - [SERIAL] $GPRMC,104332,A,4805.81076,N,00142.51749,W,000.1,360.0,030725,,,A*6A
2025-07-03 12:43:32,546 - [SERIAL] $GPGGA,104332,4805.81076,N,00142.51749,W,1,05,,70.000,M,,M,,*5D
2025-07-03 12:43:32,582 - [SERIAL] $HCHDG,172.0,,,000.8,E*25
2025-07-03 12:43:32,584 - [SERIAL] $HCHDT,172.7,T*2A
2025-07-03 12:43:32,587 - [SERIAL] $GPMDA,30.229,I,1.0237,B,,C,,C,,,,C,,T,,M,,N,,M*00
2025-07-03 12:43:32,588 - [SERIAL] $IIMMB,30.229,I,1.0237,B*44
2025-07-03 12:43:32,789 - [SERIAL] $GPRMC,104332,A,4805.81076,N,00142.51749,W,000.1,360.0,030725,,,A*6A
2025-07-03 12:43:32,807 - [SERIAL] $GPGGA,104332,4805.81076,N,00142.51749,W,1,05,,70.000,M,,M,,*5D
2025-07-03 12:43:32,843 - [SERIAL] $HCHDG,172.0,,,000.8,E*25
2025-07-03 12:43:32,844 - [SERIAL] $HCHDT,172.7,T*2A
2025-07-03 12:43:32,848 - [SERIAL] $GPMDA,30.229,I,1.0237,B,,C,,C,,,,C,,T,,M,,N,,M*00
2025-07-03 12:43:32,850 - [SERIAL] $IIMMB,30.229,I,1.0237,B*44
2025-07-03 12:43:33,040 - [SERIAL] $GPRMC,104332,A,4805.81076,N,00142.51749,W,000.1,360.0,030725,,,A*6A
2025-07-03 12:43:33,051 - [SERIAL] $GPGGA,104332,4805.81076,N,00142.51749,W,1,05,,70.000,M,,M,,*5D
2025-07-03 12:43:33,091 - [SERIAL] $HCHDG,172.0,,,000.8,E*25
2025-07-03 12:43:33,092 - [SERIAL] $HCHDT,172.7,T*2A
2025-07-03 12:43:33,095 - [SERIAL] $GPMDA,30.229,I,1.0237,B,,C,,C,,,,C,,T,,M,,N,,M*00
2025-07-03 12:43:33,096 - [SERIAL] $IIMMB,30.229,I,1.0237,B*44
2025-07-03 12:43:33,310 - [SERIAL] $GPRMC,104333,A,4805.81071,N,00142.51733,W,000.1,360.0,030725,,,A*61
2025-07-03 12:43:33,328 - [SERIAL] $GPGGA,104333,4805.81071,N,00142.51733,W,1,05,,70.000,M,,M,,*56
2025-07-03 12:43:33,364 - [SERIAL] $HCHDG,172.0,,,000.8,E*25
2025-07-03 12:43:33,366 - [SERIAL] $HCHDT,172.7,T*2A
2025-07-03 12:43:33,369 - [SERIAL] $GPMDA,30.229,I,1.0237,B,,C,,C,,,,C,,T,,M,,N,,M*00
2025-07-03 12:43:33,370 - [SERIAL] $IIMMB,30.229,I,1.0237,B*44
2025-07-03 12:43:33,573 - [SERIAL] $GPRMC,104333,A,4805.81071,N,00142.51733,W,000.1,360.0,030725,,,A*61
2025-07-03 12:43:33,591 - [SERIAL] $GPGGA,104333,4805.81071,N,00142.51733,W,1,05,,70.000,M,,M,,*56
2025-07-03 12:43:33,626 - [SERIAL] $HCHDG,171.9,,,000.8,E*2F
2025-07-03 12:43:33,628 - [SERIAL] $HCHDT,172.7,T*2A
2025-07-03 12:43:33,630 - [SERIAL] $GPMDA,30.229,I,1.0237,B,,C,,C,,,,C,,T,,M,,N,,M*00
2025-07-03 12:43:33,632 - [SERIAL] $IIMMB,30.229,I,1.0237,B*44
2025-07-03 12:43:33,828 - [SERIAL] $GPRMC,104333,A,4805.81071,N,00142.51733,W,000.1,360.0,030725,,,A*61
2025-07-03 12:43:33,845 - [SERIAL] $GPGGA,104333,4805.81071,N,00142.51733,W,1,05,,70.000,M,,M,,*56
2025-07-03 12:43:33,881 - [SERIAL] $HCHDG,172.0,,,000.8,E*25
2025-07-03 12:43:33,883 - [SERIAL] $HCHDT,172.7,T*2A
2025-07-03 12:43:33,887 - [SERIAL] $GPMDA,30.229,I,1.0237,B,,C,,C,,,,C,,T,,M,,N,,M*00
2025-07-03 12:43:33,889 - [SERIAL] $IIMMB,30.229,I,1.0237,B*44
2025-07-03 12:43:34,197 - [SERIAL] $GPRMC,104333,A,4805.81071,N,00142.51733,W,000.1,360.0,030725,,,A*61
2025-07-03 12:43:34,214 - [SERIAL] $GPGGA,104333,4805.81071,N,00142.51733,W,1,07,,70.000,M,,M,,*54
2025-07-03 12:43:34,252 - [SERIAL] $HCHDG,172.0,,,000.8,E*25
2025-07-03 12:43:34,253 - [SERIAL] $HCHDT,172.7,T*2A
2025-07-03 12:43:34,256 - [SERIAL] $GPMDA,30.23,I,1.0237,B,,C,,C,,,,C,,T,,M,,N,,M*38
2025-07-03 12:43:34,258 - [SERIAL] $IIMMB,30.23,I,1.0237,B*7C
2025-07-03 12:43:34,338 - [SERIAL] $GPRMC,104334,A,4805.81065,N,00142.51722,W,000.1,360.0,030725,,,A*63
2025-07-03 12:43:34,351 - [SERIAL] $GPGGA,104334,4805.81065,N,00142.51722,W,1,07,,71.000,M,,M,,*57
2025-07-03 12:43:34,392 - [SERIAL] $HCHDG,172.0,,,000.8,E*25
2025-07-03 12:43:34,393 - [SERIAL] $HCHDT,172.7,T*2A
2025-07-03 12:43:34,396 - [SERIAL] $GPMDA,30.23,I,1.0237,B,,C,,C,,,,C,,T,,M,,N,,M*38
2025-07-03 12:43:34,398 - [SERIAL] $IIMMB,30.23,I,1.0237,B*7C
2025-07-03 12:43:34,607 - [SERIAL] $GPRMC,104334,A,4805.81065,N,00142.51722,W,000.1,360.0,030725,,,A*63
2025-07-03 12:43:34,624 - [SERIAL] $GPGGA,104334,4805.81065,N,00142.51722,W,1,07,,71.000,M,,M,,*57
2025-07-03 12:43:34,665 - [SERIAL] $HCHDG,172.0,,,000.8,E*25
2025-07-03 12:43:34,666 - [SERIAL] $HCHDT,172.7,T*2A
2025-07-03 12:43:34,669 - [SERIAL] $GPMDA,30.23,I,1.0237,B,,C,,C,,,,C,,T,,M,,N,,M*38
2025-07-03 12:43:34,670 - [SERIAL] $IIMMB,30.23,I,1.0237,B*7C
2025-07-03 12:43:34,869 - [SERIAL] $GPRMC,104334,A,4805.81065,N,00142.51722,W,000.1,360.0,030725,,,A*63
2025-07-03 12:43:34,886 - [SERIAL] $GPGGA,104334,4805.81065,N,00142.51722,W,1,07,,71.000,M,,M,,*57
2025-07-03 12:43:34,923 - [SERIAL] $HCHDG,172.0,,,000.8,E*25
2025-07-03 12:43:34,925 - [SERIAL] $HCHDT,172.7,T*2A
2025-07-03 12:43:34,928 - [SERIAL] $GPMDA,30.23,I,1.0237,B,,C,,C,,,,C,,T,,M,,N,,M*38
2025-07-03 12:43:34,930 - [SERIAL] $IIMMB,30.23,I,1.0237,B*7C
2025-07-03 12:43:35,128 - [SERIAL] $GPRMC,104335,A,4805.81064,N,00142.51726,W,000.0,360.0,030725,,,A*66
2025-07-03 12:43:35,143 - [SERIAL] $GPGGA,104335,4805.81064,N,00142.51726,W,1,07,,71.000,M,,M,,*53
2025-07-03 12:43:35,183 - [SERIAL] $HCHDG,172.0,,,000.8,E*25
2025-07-03 12:43:35,185 - [SERIAL] $HCHDT,172.7,T*2A
2025-07-03 12:43:35,187 - [SERIAL] $GPMDA,30.23,I,1.0237,B,,C,,C,,,,C,,T,,M,,N,,M*38
2025-07-03 12:43:35,189 - [SERIAL] $IIMMB,30.23,I,1.0237,B*7C
2025-07-03 12:43:35,390 - [SERIAL] $GPRMC,104335,A,4805.81064,N,00142.51726,W,000.0,360.0,030725,,,A*66
2025-07-03 12:43:35,407 - [SERIAL] $GPGGA,104335,4805.81064,N,00142.51726,W,1,07,,71.000,M,,M,,*53
2025-07-03 12:43:35,444 - [SERIAL] $HCHDG,172.0,,,000.8,E*25
2025-07-03 12:43:35,445 - [SERIAL] $HCHDT,172.7,T*2A
2025-07-03 12:43:35,448 - [SERIAL] $GPMDA,30.23,I,1.0237,B,,C,,C,,,,C,,T,,M,,N,,M*38
2025-07-03 12:43:35,450 - [SERIAL] $IIMMB,30.23,I,1.0237,B*7C
2025-07-03 12:43:35,650 - [SERIAL] $GPRMC,104335,A,4805.81064,N,00142.51726,W,000.0,360.0,030725,,,A*66
2025-07-03 12:43:35,670 - [SERIAL] $GPGGA,104335,4805.81064,N,00142.51726,W,1,07,,71.000,M,,M,,*53
2025-07-03 12:43:35,704 - [SERIAL] $HCHDG,172.0,,,000.8,E*25
2025-07-03 12:43:35,705 - [SERIAL] $HCHDT,172.7,T*2A
2025-07-03 12:43:35,708 - [SERIAL] $GPMDA,30.23,I,1.0237,B,,C,,C,,,,C,,T,,M,,N,,M*38
2025-07-03 12:43:35,710 - [SERIAL] $IIMMB,30.23,I,1.0237,B*7C
2025-07-03 12:43:35,958 - [SERIAL] $GPRMC,104335,A,4805.81064,N,00142.51726,W,000.0,360.0,030725,,,A*66
2025-07-03 12:43:35,971 - [SERIAL] $GPGGA,104335,4805.81064,N,00142.51726,W,1,07,,71.000,M,,M,,*53
2025-07-03 12:43:36,003 - [SERIAL] $HCHDG,172.0,,,000.8,E*25
2025-07-03 12:43:36,005 - [SERIAL] $HCHDT,172.7,T*2A
2025-07-03 12:43:36,009 - [SERIAL] $GPMDA,30.23,I,1.0237,B,,C,,C,,,,C,,T,,M,,N,,M*38
2025-07-03 12:43:36,011 - [SERIAL] $IIMMB,30.23,I,1.0237,B*7C
2025-07-03 12:43:36,171 - [SERIAL] $GPRMC,104336,A,4805.8107,N,00142.51711,W,000.0,360.0,030725,,,A*54
2025-07-03 12:43:36,188 - [SERIAL] $GPGGA,104336,4805.8107,N,00142.51711,W,1,07,,71.000,M,,M,,*61
2025-07-03 12:43:36,224 - [SERIAL] $HCHDG,172.0,,,000.8,E*25
2025-07-03 12:43:36,225 - [SERIAL] $HCHDT,172.7,T*2A
2025-07-03 12:43:36,228 - [SERIAL] $GPMDA,30.23,I,1.0237,B,,C,,C,,,,C,,T,,M,,N,,M*38
2025-07-03 12:43:36,230 - [SERIAL] $IIMMB,30.23,I,1.0237,B*7C
2025-07-03 12:43:36,430 - [SERIAL] $GPRMC,104336,A,4805.8107,N,00142.51711,W,000.0,360.0,030725,,,A*54
2025-07-03 12:43:36,450 - [SERIAL] $GPGGA,104336,4805.8107,N,00142.51711,W,1,07,,71.000,M,,M,,*61
2025-07-03 12:43:36,494 - [SERIAL] $HCHDG,172.0,,,000.8,E*25
2025-07-03 12:43:36,495 - [SERIAL] $HCHDT,172.7,T*2A
2025-07-03 12:43:36,497 - [SERIAL] $GPMDA,30.23,I,1.0237,B,,C,,C,,,,C,,T,,M,,N,,M*38
2025-07-03 12:43:36,499 - [SERIAL] $IIMMB,30.23,I,1.0237,B*7C
2025-07-03 12:43:36,689 - [SERIAL] $GPRMC,104336,A,4805.8107,N,00142.51711,W,000.0,360.0,030725,,,A*54
2025-07-03 12:43:36,705 - [SERIAL] $GPGGA,104336,4805.8107,N,00142.51711,W,1,07,,71.000,M,,M,,*61
2025-07-03 12:43:36,743 - [SERIAL] $HCHDG,172.0,,,000.8,E*25
2025-07-03 12:43:36,744 - [SERIAL] $HCHDT,172.7,T*2A
2025-07-03 12:43:36,746 - [SERIAL] $GPMDA,30.23,I,1.0237,B,,C,,C,,,,C,,T,,M,,N,,M*38
2025-07-03 12:43:36,748 - [SERIAL] $IIMMB,30.23,I,1.0237,B*7C
2025-07-03 12:43:36,948 - [SERIAL] $GPRMC,104336,A,4805.8107,N,00142.51711,W,000.0,360.0,030725,,,A*54
2025-07-03 12:43:36,965 - [SERIAL] $GPGGA,104336,4805.8107,N,00142.51711,W,1,07,,71.000,M,,M,,*61
2025-07-03 12:43:37,004 - [SERIAL] $HCHDG,172.0,,,000.8,E*25
2025-07-03 12:43:37,006 - [SERIAL] $HCHDT,172.7,T*2A
2025-07-03 12:43:37,009 - [SERIAL] $GPMDA,30.23,I,1.0237,B,,C,,C,,,,C,,T,,M,,N,,M*38
2025-07-03 12:43:37,011 - [SERIAL] $IIMMB,30.23,I,1.0237,B*7C
2025-07-03 12:43:37,202 - [SERIAL] $GPRMC,104337,A,4805.8108,N,00142.51692,W,000.1,360.0,030725,,,A*51
2025-07-03 12:43:37,211 - [SERIAL] $GPGGA,104337,4805.8108,N,00142.51692,W,1,07,,71.000,M,,M,,*65
2025-07-03 12:43:37,236 - [SERIAL] $HCHDG,172.0,,,000.8,E*25
2025-07-03 12:43:37,238 - [SERIAL] $HCHDT,172.7,T*2A
2025-07-03 12:43:37,243 - [SERIAL] $GPMDA,30.23,I,1.0237,B,,C,,C,,,,C,,T,,M,,N,,M*38
2025-07-03 12:43:37,246 - [SERIAL] $IIMMB,30.23,I,1.0237,B*7C
2025-07-03 12:43:37,460 - [SERIAL] $GPRMC,104337,A,4805.8108,N,00142.51692,W,000.1,360.0,030725,,,A*51
2025-07-03 12:43:37,467 - [SERIAL] $GPGGA,104337,4805.8108,N,00142.51692,W,1,07,,71.000,M,,M,,*65
2025-07-03 12:43:37,494 - [SERIAL] $HCHDG,172.0,,,000.8,E*25
2025-07-03 12:43:37,496 - [SERIAL] $HCHDT,172.7,T*2A
2025-07-03 12:43:37,500 - [SERIAL] $GPMDA,30.23,I,1.0237,B,,C,,C,,,,C,,T,,M,,N,,M*38
2025-07-03 12:43:37,502 - [SERIAL] $IIMMB,30.23,I,1.0237,B*7C
2025-07-03 12:43:37,726 - [SERIAL] $GPRMC,104337,A,4805.8108,N,00142.51692,W,000.1,360.0,030725,,,A*51
2025-07-03 12:43:37,770 - [SERIAL] $GPGGA,104337,4805.8108,N,00142.51692,W,1,07,,71.000,M,,M,,*65
2025-07-03 12:43:37,812 - [SERIAL] $HCHDG,172.0,,,000.8,E*25
2025-07-03 12:43:37,814 - [SERIAL] $HCHDT,172.7,T*2A
2025-07-03 12:43:37,817 - [SERIAL] $GPMDA,30.23,I,1.0237,B,,C,,C,,,,C,,T,,M,,N,,M*38
2025-07-03 12:43:37,819 - [SERIAL] $IIMMB,30.23,I,1.0237,B*7C
2025-07-03 12:43:37,975 - [SERIAL] $GPRMC,104337,A,4805.8108,N,00142.51692,W,000.1,360.0,030725,,,A*51
2025-07-03 12:43:37,981 - [SERIAL] $GPGGA,104337,4805.8108,N,00142.51692,W,1,07,,71.000,M,,M,,*65
2025-07-03 12:43:38,028 - [SERIAL] $HCHDG,172.0,,,000.8,E*25
2025-07-03 12:43:38,029 - [SERIAL] $HCHDT,172.7,T*2A
2025-07-03 12:43:38,032 - [SERIAL] $GPMDA,30.23,I,1.0237,B,,C,,C,,,,C,,T,,M,,N,,M*38
2025-07-03 12:43:38,033 - [SERIAL] $IIMMB,30.23,I,1.0237,B*7C
2025-07-03 12:43:38,248 - [SERIAL] $GPRMC,104338,A,4805.81079,N,00142.51693,W,000.0,360.0,030725,,,A*68
2025-07-03 12:43:38,262 - [SERIAL] $GPGGA,104338,4805.81079,N,00142.51693,W,1,07,,71.000,M,,M,,*5D
2025-07-03 12:43:38,298 - [SERIAL] $HCHDG,172.0,,,000.8,E*25
2025-07-03 12:43:38,299 - [SERIAL] $HCHDT,172.7,T*2A
2025-07-03 12:43:38,302 - [SERIAL] $GPMDA,30.23,I,1.0237,B,,C,,C,,,,C,,T,,M,,N,,M*38
2025-07-03 12:43:38,303 - [SERIAL] $IIMMB,30.23,I,1.0237,B*7C
2025-07-03 12:43:38,509 - [SERIAL] $GPRMC,104338,A,4805.81079,N,00142.51693,W,000.0,360.0,030725,,,A*68
2025-07-03 12:43:38,525 - [SERIAL] $GPGGA,104338,4805.81079,N,00142.51693,W,1,07,,71.000,M,,M,,*5D
2025-07-03 12:43:38,562 - [SERIAL] $HCHDG,172.0,,,000.8,E*25
2025-07-03 12:43:38,563 - [SERIAL] $HCHDT,172.7,T*2A
2025-07-03 12:43:38,565 - [SERIAL] $GPMDA,30.23,I,1.0237,B,,C,,C,,,,C,,T,,M,,N,,M*38
2025-07-03 12:43:38,567 - [SERIAL] $IIMMB,30.23,I,1.0237,B*7C
2025-07-03 12:43:38,756 - [SERIAL] $GPRMC,104338,A,4805.81079,N,00142.51693,W,000.0,360.0,030725,,,A*68
2025-07-03 12:43:38,766 - [SERIAL] $GPGGA,104338,4805.81079,N,00142.51693,W,1,07,,71.000,M,,M,,*5D
2025-07-03 12:43:38,790 - [SERIAL] $HCHDG,172.0,,,000.8,E*25
2025-07-03 12:43:38,792 - [SERIAL] $HCHDT,172.7,T*2A
2025-07-03 12:43:38,796 - [SERIAL] $GPMDA,30.23,I,1.0237,B,,C,,C,,,,C,,T,,M,,N,,M*38
2025-07-03 12:43:38,798 - [SERIAL] $IIMMB,30.23,I,1.0237,B*7C
2025-07-03 12:43:39,026 - [SERIAL] $GPRMC,104338,A,4805.81079,N,00142.51693,W,000.0,360.0,030725,,,A*68
2025-07-03 12:43:39,043 - [SERIAL] $GPGGA,104338,4805.81079,N,00142.51693,W,1,07,,71.000,M,,M,,*5D
2025-07-03 12:43:39,085 - [SERIAL] $HCHDG,172.0,,,000.8,E*25
2025-07-03 12:43:39,086 - [SERIAL] $HCHDT,172.7,T*2A
2025-07-03 12:43:39,089 - [SERIAL] $GPMDA,30.23,I,1.0237,B,,C,,C,,,,C,,T,,M,,N,,M*38
2025-07-03 12:43:39,091 - [SERIAL] $IIMMB,30.23,I,1.0237,B*7C
2025-07-03 12:43:39,297 - [SERIAL] $GPRMC,104339,A,4805.81084,N,00142.517,W,000.0,360.0,030725,,,A*60
2025-07-03 12:43:39,313 - [SERIAL] $GPGGA,104339,4805.81084,N,00142.517,W,1,07,,70.000,M,,M,,*54
2025-07-03 12:43:39,349 - [SERIAL] $HCHDG,172.0,,,000.8,E*25
2025-07-03 12:43:39,350 - [SERIAL] $HCHDT,172.7,T*2A
2025-07-03 12:43:39,354 - [SERIAL] $GPMDA,30.23,I,1.0237,B,,C,,C,,,,C,,T,,M,,N,,M*38
2025-07-03 12:43:39,356 - [SERIAL] $IIMMB,30.23,I,1.0237,B*7C
2025-07-03 12:43:39,556 - [SERIAL] $GPRMC,104339,A,4805.81084,N,00142.517,W,000.0,360.0,030725,,,A*60
2025-07-03 12:43:39,571 - [SERIAL] $GPGGA,104339,4805.81084,N,00142.517,W,1,07,,70.000,M,,M,,*54
2025-07-03 12:43:39,611 - [SERIAL] $HCHDG,172.0,,,000.8,E*25
2025-07-03 12:43:39,613 - [SERIAL] $HCHDT,172.7,T*2A
2025-07-03 12:43:39,615 - [SERIAL] $GPMDA,30.23,I,1.0237,B,,C,,C,,,,C,,T,,M,,N,,M*38
2025-07-03 12:43:39,617 - [SERIAL] $IIMMB,30.23,I,1.0237,B*7C
2025-07-03 12:43:39,837 - [SERIAL] $GPRMC,104339,A,4805.81084,N,00142.517,W,000.0,360.0,030725,,,A*60
2025-07-03 12:43:39,852 - [SERIAL] $GPGGA,104339,4805.81084,N,00142.517,W,1,07,,70.000,M,,M,,*54
2025-07-03 12:43:39,890 - [SERIAL] $HCHDG,172.0,,,000.8,E*25
2025-07-03 12:43:39,891 - [SERIAL] $HCHDT,172.7,T*2A
2025-07-03 12:43:39,893 - [SERIAL] $GPMDA,30.23,I,1.0237,B,,C,,C,,,,C,,T,,M,,N,,M*38
2025-07-03 12:43:39,895 - [SERIAL] $IIMMB,30.23,I,1.0237,B*7C
2025-07-03 12:43:40,074 - [SERIAL] $GPRMC,104339,A,4805.81084,N,00142.517,W,000.0,360.0,030725,,,A*60
2025-07-03 12:43:40,090 - [SERIAL] $GPGGA,104339,4805.81084,N,00142.517,W,1,07,,70.000,M,,M,,*54
2025-07-03 12:43:40,129 - [SERIAL] $HCHDG,172.0,,,000.8,E*25
2025-07-03 12:43:40,130 - [SERIAL] $HCHDT,172.7,T*2A
2025-07-03 12:43:40,133 - [SERIAL] $GPMDA,30.23,I,1.0237,B,,C,,C,,,,C,,T,,M,,N,,M*38
2025-07-03 12:43:40,135 - [SERIAL] $IIMMB,30.23,I,1.0237,B*7C
2025-07-03 12:43:40,347 - [SERIAL] $GPRMC,104340,A,4805.81085,N,00142.51708,W,000.1,360.0,030725,,,A*66
2025-07-03 12:43:40,365 - [SERIAL] $GPGGA,104340,4805.81085,N,00142.51708,W,1,06,,70.000,M,,M,,*52
2025-07-03 12:43:40,403 - [SERIAL] $HCHDG,172.0,,,000.8,E*25
2025-07-03 12:43:40,405 - [SERIAL] $HCHDT,172.7,T*2A
2025-07-03 12:43:40,408 - [SERIAL] $GPMDA,30.23,I,1.0237,B,,C,,C,,,,C,,T,,M,,N,,M*38
2025-07-03 12:43:40,409 - [SERIAL] $IIMMB,30.23,I,1.0237,B*7C
2025-07-03 12:43:40,602 - [SERIAL] $GPRMC,104340,A,4805.81085,N,00142.51708,W,000.1,360.0,030725,,,A*66
2025-07-03 12:43:40,636 - [SERIAL] $GPGGA,104340,4805.81085,N,00142.51708,W,1,06,,70.000,M,,M,,*52
2025-07-03 12:43:40,672 - [SERIAL] $HCHDG,172.0,,,000.8,E*25
2025-07-03 12:43:40,673 - [SERIAL] $HCHDT,172.7,T*2A
2025-07-03 12:43:40,676 - [SERIAL] $GPMDA,30.23,I,1.0237,B,,C,,C,,,,C,,T,,M,,N,,M*38
2025-07-03 12:43:40,677 - [SERIAL] $IIMMB,30.23,I,1.0237,B*7C
2025-07-03 12:43:40,863 - [SERIAL] $GPRMC,104340,A,4805.81085,N,00142.51708,W,000.1,360.0,030725,,,A*66
2025-07-03 12:43:40,878 - [SERIAL] $GPGGA,104340,4805.81085,N,00142.51708,W,1,06,,70.000,M,,M,,*52
2025-07-03 12:43:40,917 - [SERIAL] $HCHDG,172.0,,,000.8,E*25
2025-07-03 12:43:40,918 - [SERIAL] $HCHDT,172.7,T*2A
2025-07-03 12:43:40,920 - [SERIAL] $GPMDA,30.23,I,1.0237,B,,C,,C,,,,C,,T,,M,,N,,M*38
2025-07-03 12:43:40,922 - [SERIAL] $IIMMB,30.23,I,1.0237,B*7C
2025-07-03 12:43:41,121 - [SERIAL] $GPRMC,104341,A,4805.81079,N,00142.51702,W,000.2,172.7,030725,,,A*6B
2025-07-03 12:43:41,136 - [SERIAL] $GPGGA,104341,4805.81079,N,00142.51702,W,1,06,,70.000,M,,M,,*5A
2025-07-03 12:43:41,178 - [SERIAL] $HCHDG,172.0,,,000.8,E*25
2025-07-03 12:43:41,179 - [SERIAL] $HCHDT,172.7,T*2A
2025-07-03 12:43:41,182 - [SERIAL] $GPMDA,30.23,I,1.0237,B,,C,,C,,,,C,,T,,M,,N,,M*38
2025-07-03 12:43:41,183 - [SERIAL] $IIMMB,30.23,I,1.0237,B*7C
2025-07-03 12:43:41,376 - [SERIAL] $GPRMC,104341,A,4805.81079,N,00142.51702,W,000.2,172.7,030725,,,A*6B
2025-07-03 12:43:41,392 - [SERIAL] $GPGGA,104341,4805.81079,N,00142.51702,W,1,06,,70.000,M,,M,,*5A
2025-07-03 12:43:41,433 - [SERIAL] $HCHDG,172.0,,,000.8,E*25
2025-07-03 12:43:41,434 - [SERIAL] $HCHDT,172.7,T*2A
2025-07-03 12:43:41,437 - [SERIAL] $GPMDA,30.23,I,1.0237,B,,C,,C,,,,C,,T,,M,,N,,M*38
2025-07-03 12:43:41,438 - [SERIAL] $IIMMB,30.23,I,1.0237,B*7C
2025-07-03 12:43:41,679 - [SERIAL] $GPRMC,104341,A,4805.81079,N,00142.51702,W,000.2,172.7,030725,,,A*6B
2025-07-03 12:43:41,695 - [SERIAL] $GPGGA,104341,4805.81079,N,00142.51702,W,1,06,,70.000,M,,M,,*5A
2025-07-03 12:43:41,736 - [SERIAL] $HCHDG,172.0,,,000.8,E*25
2025-07-03 12:43:41,737 - [SERIAL] $HCHDT,172.7,T*2A
2025-07-03 12:43:41,740 - [SERIAL] $GPMDA,30.23,I,1.0237,B,,C,,C,,,,C,,T,,M,,N,,M*38
2025-07-03 12:43:41,742 - [SERIAL] $IIMMB,30.23,I,1.0237,B*7C
2025-07-03 12:43:41,913 - [SERIAL] $GPRMC,104341,A,4805.81079,N,00142.51702,W,000.2,172.7,030725,,,A*6B
2025-07-03 12:43:41,931 - [SERIAL] $GPGGA,104341,4805.81079,N,00142.51702,W,1,06,,70.000,M,,M,,*5A
2025-07-03 12:43:41,973 - [SERIAL] $HCHDG,172.0,,,000.8,E*25
2025-07-03 12:43:41,975 - [SERIAL] $HCHDT,172.7,T*2A
2025-07-03 12:43:41,977 - [SERIAL] $GPMDA,30.23,I,1.0237,B,,C,,C,,,,C,,T,,M,,N,,M*38
2025-07-03 12:43:41,979 - [SERIAL] $IIMMB,30.23,I,1.0237,B*7C
2025-07-03 12:43:42,148 - [SERIAL] $GPRMC,104342,A,4805.81083,N,00142.51717,W,000.2,172.7,030725,,,A*69
2025-07-03 12:43:42,163 - [SERIAL] $GPGGA,104342,4805.81083,N,00142.51717,W,1,06,,70.000,M,,M,,*58
2025-07-03 12:43:42,204 - [SERIAL] $HCHDG,172.0,,,000.8,E*25
2025-07-03 12:43:42,205 - [SERIAL] $HCHDT,172.7,T*2A
2025-07-03 12:43:42,208 - [SERIAL] $GPMDA,30.23,I,1.0237,B,,C,,C,,,,C,,T,,M,,N,,M*38
2025-07-03 12:43:42,210 - [SERIAL] $IIMMB,30.23,I,1.0237,B*7C
2025-07-03 12:43:42,407 - [SERIAL] $GPRMC,104342,A,4805.81083,N,00142.51717,W,000.2,172.7,030725,,,A*69
2025-07-03 12:43:42,422 - [SERIAL] $GPGGA,104342,4805.81083,N,00142.51717,W,1,06,,70.000,M,,M,,*58
2025-07-03 12:43:42,461 - [SERIAL] $HCHDG,172.0,,,000.8,E*25
2025-07-03 12:43:42,462 - [SERIAL] $HCHDT,172.7,T*2A
2025-07-03 12:43:42,465 - [SERIAL] $GPMDA,30.23,I,1.0237,B,,C,,C,,,,C,,T,,M,,N,,M*38
2025-07-03 12:43:42,467 - [SERIAL] $IIMMB,30.23,I,1.0237,B*7C
2025-07-03 12:43:42,666 - [SERIAL] $GPRMC,104342,A,4805.81083,N,00142.51717,W,000.2,172.7,030725,,,A*69
2025-07-03 12:43:42,688 - [SERIAL] $GPGGA,104342,4805.81083,N,00142.51717,W,1,06,,70.000,M,,M,,*58
2025-07-03 12:43:42,725 - [SERIAL] $HCHDG,172.0,,,000.8,E*25
2025-07-03 12:43:42,726 - [SERIAL] $HCHDT,172.7,T*2A
2025-07-03 12:43:42,728 - [SERIAL] $GPMDA,30.23,I,1.0237,B,,C,,C,,,,C,,T,,M,,N,,M*38
2025-07-03 12:43:42,730 - [SERIAL] $IIMMB,30.23,I,1.0237,B*7C
2025-07-03 12:43:42,927 - [SERIAL] $GPRMC,104342,A,4805.81083,N,00142.51717,W,000.2,172.7,030725,,,A*69
2025-07-03 12:43:42,942 - [SERIAL] $GPGGA,104342,4805.81083,N,00142.51717,W,1,06,,70.000,M,,M,,*58
2025-07-03 12:43:42,984 - [SERIAL] $HCHDG,172.0,,,000.8,E*25
2025-07-03 12:43:42,985 - [SERIAL] $HCHDT,172.7,T*2A
2025-07-03 12:43:42,988 - [SERIAL] $GPMDA,30.23,I,1.0237,B,,C,,C,,,,C,,T,,M,,N,,M*38
2025-07-03 12:43:42,990 - [SERIAL] $IIMMB,30.23,I,1.0237,B*7C
2025-07-03 12:43:43,195 - [SERIAL] $GPRMC,104343,A,4805.81072,N,00142.51717,W,000.2,172.7,030725,,,A*66
2025-07-03 12:43:43,213 - [SERIAL] $GPGGA,104343,4805.81072,N,00142.51717,W,1,06,,71.000,M,,M,,*56
2025-07-03 12:43:43,250 - [SERIAL] $HCHDG,172.0,,,000.8,E*25
2025-07-03 12:43:43,251 - [SERIAL] $HCHDT,172.7,T*2A
2025-07-03 12:43:43,255 - [SERIAL] $GPMDA,30.23,I,1.0237,B,,C,,C,,,,C,,T,,M,,N,,M*38
2025-07-03 12:43:43,257 - [SERIAL] $IIMMB,30.23,I,1.0237,B*7C
2025-07-03 12:43:43,457 - [SERIAL] $GPRMC,104343,A,4805.81072,N,00142.51717,W,000.2,172.7,030725,,,A*66
2025-07-03 12:43:43,467 - [SERIAL] $GPGGA,104343,4805.81072,N,00142.51717,W,1,06,,71.000,M,,M,,*56
2025-07-03 12:43:43,501 - [SERIAL] $HCHDG,171.9,,,000.8,E*2F
2025-07-03 12:43:43,503 - [SERIAL] $HCHDT,172.7,T*2A
2025-07-03 12:43:43,506 - [SERIAL] $GPMDA,30.23,I,1.0237,B,,C,,C,,,,C,,T,,M,,N,,M*38
2025-07-03 12:43:43,508 - [SERIAL] $IIMMB,30.23,I,1.0237,B*7C
2025-07-03 12:43:43,706 - [SERIAL] $GPRMC,104343,A,4805.81072,N,00142.51717,W,000.2,172.7,030725,,,A*66
2025-07-03 12:43:43,723 - [SERIAL] $GPGGA,104343,4805.81072,N,00142.51717,W,1,06,,71.000,M,,M,,*56
2025-07-03 12:43:43,764 - [SERIAL] $HCHDG,172.0,,,000.8,E*25
2025-07-03 12:43:43,765 - [SERIAL] $HCHDT,172.7,T*2A
2025-07-03 12:43:43,768 - [SERIAL] $GPMDA,30.23,I,1.0237,B,,C,,C,,,,C,,T,,M,,N,,M*38
2025-07-03 12:43:43,770 - [SERIAL] $IIMMB,30.23,I,1.0237,B*7C
2025-07-03 12:43:43,970 - [SERIAL] $GPRMC,104343,A,4805.81072,N,00142.51717,W,000.2,172.7,030725,,,A*66
2025-07-03 12:43:43,988 - [SERIAL] $GPGGA,104343,4805.81072,N,00142.51717,W,1,06,,71.000,M,,M,,*56
2025-07-03 12:43:44,028 - [SERIAL] $HCHDG,172.0,,,000.8,E*25
2025-07-03 12:43:44,030 - [SERIAL] $HCHDT,172.7,T*2A
2025-07-03 12:43:44,032 - [SERIAL] $GPMDA,30.23,I,1.0237,B,,C,,C,,,,C,,T,,M,,N,,M*38
2025-07-03 12:43:44,034 - [SERIAL] $IIMMB,30.23,I,1.0237,B*7C
2025-07-03 12:43:44,227 - [SERIAL] $GPRMC,104344,A,4805.81075,N,00142.51721,W,000.1,172.7,030725,,,A*60
2025-07-03 12:43:44,245 - [SERIAL] $GPGGA,104344,4805.81075,N,00142.51721,W,1,06,,71.000,M,,M,,*53
2025-07-03 12:43:44,283 - [SERIAL] $HCHDG,172.0,,,000.8,E*25
2025-07-03 12:43:44,284 - [SERIAL] $HCHDT,172.7,T*2A
2025-07-03 12:43:44,287 - [SERIAL] $GPMDA,30.23,I,1.0237,B,,C,,C,,,,C,,T,,M,,N,,M*38
2025-07-03 12:43:44,289 - [SERIAL] $IIMMB,30.23,I,1.0237,B*7C
2025-07-03 12:43:44,484 - [SERIAL] $GPRMC,104344,A,4805.81075,N,00142.51721,W,000.1,172.7,030725,,,A*60
2025-07-03 12:43:44,498 - [SERIAL] $GPGGA,104344,4805.81075,N,00142.51721,W,1,06,,71.000,M,,M,,*53
2025-07-03 12:43:44,540 - [SERIAL] $HCHDG,172.0,,,000.8,E*25
2025-07-03 12:43:44,541 - [SERIAL] $HCHDT,172.7,T*2A
2025-07-03 12:43:44,544 - [SERIAL] $GPMDA,30.23,I,1.0237,B,,C,,C,,,,C,,T,,M,,N,,M*38
2025-07-03 12:43:44,546 - [SERIAL] $IIMMB,30.23,I,1.0237,B*7C
2025-07-03 12:43:44,749 - [SERIAL] $GPRMC,104344,A,4805.81075,N,00142.51721,W,000.1,172.7,030725,,,A*60
2025-07-03 12:43:44,765 - [SERIAL] $GPGGA,104344,4805.81075,N,00142.51721,W,1,06,,71.000,M,,M,,*53
2025-07-03 12:43:44,806 - [SERIAL] $HCHDG,171.9,,,000.8,E*2F
2025-07-03 12:43:44,807 - [SERIAL] $HCHDT,172.7,T*2A
2025-07-03 12:43:44,810 - [SERIAL] $GPMDA,30.23,I,1.0237,B,,C,,C,,,,C,,T,,M,,N,,M*38
2025-07-03 12:43:44,812 - [SERIAL] $IIMMB,30.23,I,1.0237,B*7C
2025-07-03 12:43:45,012 - [SERIAL] $GPRMC,104344,A,4805.81075,N,00142.51721,W,000.1,172.7,030725,,,A*60
2025-07-03 12:43:45,029 - [SERIAL] $GPGGA,104344,4805.81075,N,00142.51721,W,1,06,,71.000,M,,M,,*53
2025-07-03 12:43:45,066 - [SERIAL] $HCHDG,172.0,,,000.8,E*25
2025-07-03 12:43:45,067 - [SERIAL] $HCHDT,172.7,T*2A
2025-07-03 12:43:45,070 - [SERIAL] $GPMDA,30.23,I,1.0237,B,,C,,C,,,,C,,T,,M,,N,,M*38
2025-07-03 12:43:45,072 - [SERIAL] $IIMMB,30.23,I,1.0237,B*7C
2025-07-03 12:43:45,273 - [SERIAL] $GPRMC,104345,A,4805.81073,N,00142.51715,W,000.1,172.7,030725,,,A*60
2025-07-03 12:43:45,309 - [SERIAL] $GPGGA,104345,4805.81073,N,00142.51715,W,1,06,,71.000,M,,M,,*53
2025-07-03 12:43:45,344 - [SERIAL] $HCHDG,172.0,,,000.8,E*25
2025-07-03 12:43:45,346 - [SERIAL] $HCHDT,172.7,T*2A
2025-07-03 12:43:45,348 - [SERIAL] $GPMDA,30.23,I,1.0237,B,,C,,C,,,,C,,T,,M,,N,,M*38
2025-07-03 12:43:45,350 - [SERIAL] $IIMMB,30.23,I,1.0237,B*7C
2025-07-03 12:43:45,527 - [SERIAL] $GPRMC,104345,A,4805.81073,N,00142.51715,W,000.1,172.7,030725,,,A*60
2025-07-03 12:43:45,545 - [SERIAL] $GPGGA,104345,4805.81073,N,00142.51715,W,1,06,,71.000,M,,M,,*53
2025-07-03 12:43:45,585 - [SERIAL] $HCHDG,172.0,,,000.8,E*25
2025-07-03 12:43:45,586 - [SERIAL] $HCHDT,172.7,T*2A
2025-07-03 12:43:45,588 - [SERIAL] $GPMDA,30.23,I,1.0237,B,,C,,C,,,,C,,T,,M,,N,,M*38
2025-07-03 12:43:45,590 - [SERIAL] $IIMMB,30.23,I,1.0237,B*7C
2025-07-03 12:43:45,790 - [SERIAL] $GPRMC,104345,A,4805.81073,N,00142.51715,W,000.1,172.7,030725,,,A*60
2025-07-03 12:43:45,806 - [SERIAL] $GPGGA,104345,4805.81073,N,00142.51715,W,1,06,,71.000,M,,M,,*53
2025-07-03 12:43:45,847 - [SERIAL] $HCHDG,172.0,,,000.8,E*25
2025-07-03 12:43:45,848 - [SERIAL] $HCHDT,172.7,T*2A
2025-07-03 12:43:45,851 - [SERIAL] $GPMDA,30.23,I,1.0237,B,,C,,C,,,,C,,T,,M,,N,,M*38
2025-07-03 12:43:45,852 - [SERIAL] $IIMMB,30.23,I,1.0237,B*7C
2025-07-03 12:43:46,056 - [SERIAL] $GPRMC,104345,A,4805.81073,N,00142.51715,W,000.1,172.7,030725,,,A*60
2025-07-03 12:43:46,074 - [SERIAL] $GPGGA,104345,4805.81073,N,00142.51715,W,1,06,,71.000,M,,M,,*53
2025-07-03 12:43:46,113 - [SERIAL] $HCHDG,172.0,,,000.8,E*25
2025-07-03 12:43:46,115 - [SERIAL] $HCHDT,172.7,T*2A
2025-07-03 12:43:46,117 - [SERIAL] $GPMDA,30.23,I,1.0237,B,,C,,C,,,,C,,T,,M,,N,,M*38
2025-07-03 12:43:46,119 - [SERIAL] $IIMMB,30.23,I,1.0237,B*7C
2025-07-03 12:43:46,315 - [SERIAL] $GPRMC,104346,A,4805.81079,N,00142.51703,W,000.1,172.7,030725,,,A*6E
2025-07-03 12:43:46,331 - [SERIAL] $GPGGA,104346,4805.81079,N,00142.51703,W,1,06,,71.000,M,,M,,*5D
2025-07-03 12:43:46,368 - [SERIAL] $HCHDG,172.0,,,000.8,E*25
2025-07-03 12:43:46,370 - [SERIAL] $HCHDT,172.7,T*2A
2025-07-03 12:43:46,372 - [SERIAL] $GPMDA,30.23,I,1.0237,B,,C,,C,,,,C,,T,,M,,N,,M*38
2025-07-03 12:43:46,374 - [SERIAL] $IIMMB,30.23,I,1.0237,B*7C
2025-07-03 12:43:46,570 - [SERIAL] $GPRMC,104346,A,4805.81079,N,00142.51703,W,000.1,172.7,030725,,,A*6E
2025-07-03 12:43:46,586 - [SERIAL] $GPGGA,104346,4805.81079,N,00142.51703,W,1,06,,71.000,M,,M,,*5D
2025-07-03 12:43:46,628 - [SERIAL] $HCHDG,172.0,,,000.8,E*25
2025-07-03 12:43:46,630 - [SERIAL] $HCHDT,172.7,T*2A
2025-07-03 12:43:46,633 - [SERIAL] $GPMDA,30.23,I,1.0237,B,,C,,C,,,,C,,T,,M,,N,,M*38
2025-07-03 12:43:46,635 - [SERIAL] $IIMMB,30.23,I,1.0237,B*7C
2025-07-03 12:43:46,834 - [SERIAL] $GPRMC,104346,A,4805.81079,N,00142.51703,W,000.1,172.7,030725,,,A*6E
2025-07-03 12:43:46,852 - [SERIAL] $GPGGA,104346,4805.81079,N,00142.51703,W,1,06,,71.000,M,,M,,*5D
2025-07-03 12:43:46,890 - [SERIAL] $HCHDG,172.0,,,000.8,E*25
2025-07-03 12:43:46,891 - [SERIAL] $HCHDT,172.7,T*2A
2025-07-03 12:43:46,894 - [SERIAL] $GPMDA,30.23,I,1.0237,B,,C,,C,,,,C,,T,,M,,N,,M*38
2025-07-03 12:43:46,895 - [SERIAL] $IIMMB,30.23,I,1.0237,B*7C
2025-07-03 12:43:47,118 - [SERIAL] $GPRMC,104347,A,4805.81076,N,00142.51695,W,000.0,172.7,030725,,,A*6F
2025-07-03 12:43:47,135 - [SERIAL] $GPGGA,104347,4805.81076,N,00142.51695,W,1,06,,71.000,M,,M,,*5D
2025-07-03 12:43:47,174 - [SERIAL] $HCHDG,172.0,,,000.8,E*25
2025-07-03 12:43:47,175 - [SERIAL] $HCHDT,172.7,T*2A
2025-07-03 12:43:47,178 - [SERIAL] $GPMDA,30.23,I,1.0237,B,,C,,C,,,,C,,T,,M,,N,,M*38
2025-07-03 12:43:47,180 - [SERIAL] $IIMMB,30.23,I,1.0237,B*7C
2025-07-03 12:43:47,358 - [SERIAL] $GPRMC,104347,A,4805.81076,N,00142.51695,W,000.0,172.7,030725,,,A*6F
2025-07-03 12:43:47,375 - [SERIAL] $GPGGA,104347,4805.81076,N,00142.51695,W,1,06,,71.000,M,,M,,*5D
2025-07-03 12:43:47,410 - [SERIAL] $HCHDG,172.0,,,000.8,E*25
2025-07-03 12:43:47,412 - [SERIAL] $HCHDT,172.7,T*2A
2025-07-03 12:43:47,414 - [SERIAL] $GPMDA,30.23,I,1.0237,B,,C,,C,,,,C,,T,,M,,N,,M*38
2025-07-03 12:43:47,416 - [SERIAL] $IIMMB,30.23,I,1.0237,B*7C
2025-07-03 12:43:47,615 - [SERIAL] $GPRMC,104347,A,4805.81076,N,00142.51695,W,000.0,172.7,030725,,,A*6F
2025-07-03 12:43:47,637 - [SERIAL] $GPGGA,104347,4805.81076,N,00142.51695,W,1,06,,71.000,M,,M,,*5D
2025-07-03 12:43:47,673 - [SERIAL] $HCHDG,172.0,,,000.8,E*25
2025-07-03 12:43:47,675 - [SERIAL] $HCHDT,172.7,T*2A
2025-07-03 12:43:47,678 - [SERIAL] $GPMDA,30.23,I,1.0237,B,,C,,C,,,,C,,T,,M,,N,,M*38
2025-07-03 12:43:47,679 - [SERIAL] $IIMMB,30.23,I,1.0237,B*7C
2025-07-03 12:43:47,875 - [SERIAL] $GPRMC,104347,A,4805.81076,N,00142.51695,W,000.0,172.7,030725,,,A*6F
2025-07-03 12:43:47,891 - [SERIAL] $GPGGA,104347,4805.81076,N,00142.51695,W,1,06,,71.000,M,,M,,*5D
2025-07-03 12:43:47,926 - [SERIAL] $HCHDG,172.0,,,000.8,E*25
2025-07-03 12:43:47,928 - [SERIAL] $HCHDT,172.7,T*2A
2025-07-03 12:43:47,931 - [SERIAL] $GPMDA,30.23,I,1.0237,B,,C,,C,,,,C,,T,,M,,N,,M*38
2025-07-03 12:43:47,933 - [SERIAL] $IIMMB,30.23,I,1.0237,B*7C
2025-07-03 12:43:48,135 - [SERIAL] $GPRMC,104348,A,4805.8108,N,00142.51688,W,000.0,172.7,030725,,,A*55
2025-07-03 12:43:48,153 - [SERIAL] $GPGGA,104348,4805.8108,N,00142.51688,W,1,06,,71.000,M,,M,,*67
2025-07-03 12:43:48,188 - [SERIAL] $HCHDG,172.0,,,000.8,E*25
2025-07-03 12:43:48,190 - [SERIAL] $HCHDT,172.7,T*2A
2025-07-03 12:43:48,193 - [SERIAL] $GPMDA,30.23,I,1.0237,B,,C,,C,,,,C,,T,,M,,N,,M*38
2025-07-03 12:43:48,195 - [SERIAL] $IIMMB,30.23,I,1.0237,B*7C
2025-07-03 12:43:48,392 - [SERIAL] $GPRMC,104348,A,4805.8108,N,00142.51688,W,000.0,172.7,030725,,,A*55
2025-07-03 12:43:48,407 - [SERIAL] $GPGGA,104348,4805.8108,N,00142.51688,W,1,06,,71.000,M,,M,,*67
2025-07-03 12:43:48,444 - [SERIAL] $HCHDG,171.9,,,000.8,E*2F
2025-07-03 12:43:48,445 - [SERIAL] $HCHDT,172.7,T*2A
2025-07-03 12:43:48,449 - [SERIAL] $GPMDA,30.23,I,1.0237,B,,C,,C,,,,C,,T,,M,,N,,M*38
2025-07-03 12:43:48,451 - [SERIAL] $IIMMB,30.23,I,1.0237,B*7C
2025-07-03 12:43:48,648 - [SERIAL] $GPRMC,104348,A,4805.8108,N,00142.51688,W,000.0,172.7,030725,,,A*55
2025-07-03 12:43:48,664 - [SERIAL] $GPGGA,104348,4805.8108,N,00142.51688,W,1,06,,71.000,M,,M,,*67
2025-07-03 12:43:48,701 - [SERIAL] $HCHDG,172.0,,,000.8,E*25
2025-07-03 12:43:48,703 - [SERIAL] $HCHDT,172.7,T*2A
2025-07-03 12:43:48,706 - [SERIAL] $GPMDA,30.23,I,1.0237,B,,C,,C,,,,C,,T,,M,,N,,M*38
2025-07-03 12:43:48,708 - [SERIAL] $IIMMB,30.23,I,1.0237,B*7C
2025-07-03 12:43:48,903 - [SERIAL] $GPRMC,104348,A,4805.8108,N,00142.51688,W,000.0,172.7,030725,,,A*55
2025-07-03 12:43:48,918 - [SERIAL] $GPGGA,104348,4805.8108,N,00142.51688,W,1,06,,71.000,M,,M,,*67
2025-07-03 12:43:48,956 - [SERIAL] $HCHDG,172.0,,,000.8,E*25
2025-07-03 12:43:48,957 - [SERIAL] $HCHDT,172.7,T*2A
2025-07-03 12:43:48,962 - [SERIAL] $GPMDA,30.23,I,1.0237,B,,C,,C,,,,C,,T,,M,,N,,M*38
2025-07-03 12:43:48,964 - [SERIAL] $IIMMB,30.23,I,1.0237,B*7C
2025-07-03 12:43:49,198 - [SERIAL] $GPRMC,104349,A,4805.81081,N,00142.51673,W,000.0,172.7,030725,,,A*61
2025-07-03 12:43:49,214 - [SERIAL] $GPGGA,104349,4805.81081,N,00142.51673,W,1,06,,71.000,M,,M,,*53
2025-07-03 12:43:49,251 - [SERIAL] $HCHDG,172.0,,,000.8,E*25
2025-07-03 12:43:49,253 - [SERIAL] $HCHDT,172.7,T*2A
2025-07-03 12:43:49,255 - [SERIAL] $GPMDA,30.23,I,1.0237,B,,C,,C,,,,C,,T,,M,,N,,M*38
2025-07-03 12:43:49,257 - [SERIAL] $IIMMB,30.23,I,1.0237,B*7C
2025-07-03 12:43:49,408 - [SERIAL] $GPRMC,104349,A,4805.81081,N,00142.51673,W,000.0,172.7,030725,,,A*61
2025-07-03 12:43:49,426 - [SERIAL] $GPGGA,104349,4805.81081,N,00142.51673,W,1,06,,71.000,M,,M,,*53
2025-07-03 12:43:49,462 - [SERIAL] $HCHDG,172.0,,,000.8,E*25
2025-07-03 12:43:49,464 - [SERIAL] $HCHDT,172.7,T*2A
2025-07-03 12:43:49,467 - [SERIAL] $GPMDA,30.23,I,1.0237,B,,C,,C,,,,C,,T,,M,,N,,M*38
2025-07-03 12:43:49,469 - [SERIAL] $IIMMB,30.23,I,1.0237,B*7C
2025-07-03 12:43:49,661 - [SERIAL] $GPRMC,104349,A,4805.81081,N,00142.51673,W,000.0,172.7,030725,,,A*61
2025-07-03 12:43:49,679 - [SERIAL] $GPGGA,104349,4805.81081,N,00142.51673,W,1,06,,71.000,M,,M,,*53
2025-07-03 12:43:49,719 - [SERIAL] $HCHDG,172.0,,,000.8,E*25
2025-07-03 12:43:49,721 - [SERIAL] $HCHDT,172.7,T*2A
2025-07-03 12:43:49,725 - [SERIAL] $GPMDA,30.23,I,1.0237,B,,C,,C,,,,C,,T,,M,,N,,M*38
2025-07-03 12:43:49,727 - [SERIAL] $IIMMB,30.23,I,1.0237,B*7C
2025-07-03 12:43:49,915 - [SERIAL] $GPRMC,104349,A,4805.81081,N,00142.51673,W,000.0,172.7,030725,,,A*61
2025-07-03 12:43:49,930 - [SERIAL] $GPGGA,104349,4805.81081,N,00142.51673,W,1,06,,71.000,M,,M,,*53
2025-07-03 12:43:49,965 - [SERIAL] $HCHDG,172.0,,,000.8,E*25
2025-07-03 12:43:49,966 - [SERIAL] $HCHDT,172.7,T*2A
2025-07-03 12:43:49,969 - [SERIAL] $GPMDA,30.23,I,1.0237,B,,C,,C,,,,C,,T,,M,,N,,M*38
2025-07-03 12:43:49,970 - [SERIAL] $IIMMB,30.23,I,1.0237,B*7C
2025-07-03 12:43:50,168 - [SERIAL] $GPRMC,104350,A,4805.81078,N,00142.51666,W,000.1,172.7,030725,,,A*6A
2025-07-03 12:43:50,184 - [SERIAL] $GPGGA,104350,4805.81078,N,00142.51666,W,1,06,,72.000,M,,M,,*5A
2025-07-03 12:43:50,222 - [SERIAL] $HCHDG,172.0,,,000.8,E*25
2025-07-03 12:43:50,224 - [SERIAL] $HCHDT,172.7,T*2A
2025-07-03 12:43:50,227 - [SERIAL] $GPMDA,30.23,I,1.0237,B,,C,,C,,,,C,,T,,M,,N,,M*38
2025-07-03 12:43:50,229 - [SERIAL] $IIMMB,30.23,I,1.0237,B*7C
2025-07-03 12:43:50,419 - [SERIAL] $GPRMC,104350,A,4805.81078,N,00142.51666,W,000.1,172.7,030725,,,A*6A
2025-07-03 12:43:50,433 - [SERIAL] $GPGGA,104350,4805.81078,N,00142.51666,W,1,06,,72.000,M,,M,,*5A
2025-07-03 12:43:50,470 - [SERIAL] $HCHDG,172.0,,,000.8,E*25
2025-07-03 12:43:50,471 - [SERIAL] $HCHDT,172.7,T*2A
2025-07-03 12:43:50,473 - [SERIAL] $GPMDA,30.23,I,1.0237,B,,C,,C,,,,C,,T,,M,,N,,M*38
2025-07-03 12:43:50,475 - [SERIAL] $IIMMB,30.23,I,1.0237,B*7C
2025-07-03 12:43:50,672 - [SERIAL] $GPRMC,104350,A,4805.81078,N,00142.51666,W,000.1,172.7,030725,,,A*6A
2025-07-03 12:43:50,690 - [SERIAL] $GPGGA,104350,4805.81078,N,00142.51666,W,1,06,,72.000,M,,M,,*5A
2025-07-03 12:43:50,727 - [SERIAL] $HCHDG,172.0,,,000.8,E*25
2025-07-03 12:43:50,728 - [SERIAL] $HCHDT,172.7,T*2A
2025-07-03 12:43:50,731 - [SERIAL] $GPMDA,30.23,I,1.0237,B,,C,,C,,,,C,,T,,M,,N,,M*38
2025-07-03 12:43:50,732 - [SERIAL] $IIMMB,30.23,I,1.0237,B*7C
2025-07-03 12:43:50,925 - [SERIAL] $GPRMC,104350,A,4805.81078,N,00142.51666,W,000.1,172.7,030725,,,A*6A
2025-07-03 12:43:50,941 - [SERIAL] $GPGGA,104350,4805.81078,N,00142.51666,W,1,06,,72.000,M,,M,,*5A
2025-07-03 12:43:50,979 - [SERIAL] $HCHDG,172.0,,,000.8,E*25
2025-07-03 12:43:50,981 - [SERIAL] $HCHDT,172.7,T*2A
2025-07-03 12:43:50,983 - [SERIAL] $GPMDA,30.23,I,1.0237,B,,C,,C,,,,C,,T,,M,,N,,M*38
2025-07-03 12:43:50,985 - [SERIAL] $IIMMB,30.23,I,1.0237,B*7C
2025-07-03 12:43:51,172 - [SERIAL] $GPRMC,104351,A,4805.81074,N,00142.51652,W,000.1,172.7,030725,,,A*60
2025-07-03 12:43:51,176 - [SERIAL] $GPGGA,104351,4805.81074,N,00142.51652,W,1,06,,72.000,M,,M,,*50
2025-07-03 12:43:51,201 - [SERIAL] $HCHDG,172.0,,,000.8,E*25
2025-07-03 12:43:51,202 - [SERIAL] $HCHDT,172.7,T*2A
2025-07-03 12:43:51,206 - [SERIAL] $GPMDA,30.23,I,1.0237,B,,C,,C,,,,C,,T,,M,,N,,M*38
2025-07-03 12:43:51,208 - [SERIAL] $IIMMB,30.23,I,1.0237,B*7C
2025-07-03 12:43:51,426 - [SERIAL] $GPRMC,104351,A,4805.81074,N,00142.51652,W,000.1,172.7,030725,,,A*60
2025-07-03 12:43:51,429 - [SERIAL] $GPGGA,104351,4805.81074,N,00142.51652,W,1,06,,72.000,M,,M,,*50
2025-07-03 12:43:51,455 - [SERIAL] $HCHDG,172.0,,,000.8,E*25
2025-07-03 12:43:51,457 - [SERIAL] $HCHDT,172.7,T*2A
2025-07-03 12:43:51,460 - [SERIAL] $GPMDA,30.23,I,1.0237,B,,C,,C,,,,C,,T,,M,,N,,M*38
2025-07-03 12:43:51,462 - [SERIAL] $IIMMB,30.23,I,1.0237,B*7C
2025-07-03 12:43:51,693 - [SERIAL] $GPRMC,104351,A,4805.81074,N,00142.51652,W,000.1,172.7,030725,,,A*60
2025-07-03 12:43:51,709 - [SERIAL] $GPGGA,104351,4805.81074,N,00142.51652,W,1,06,,72.000,M,,M,,*50
2025-07-03 12:43:51,747 - [SERIAL] $HCHDG,172.0,,,000.8,E*25
2025-07-03 12:43:51,748 - [SERIAL] $HCHDT,172.7,T*2A
2025-07-03 12:43:51,751 - [SERIAL] $GPMDA,30.23,I,1.0237,B,,C,,C,,,,C,,T,,M,,N,,M*38
2025-07-03 12:43:51,753 - [SERIAL] $IIMMB,30.23,I,1.0237,B*7C
2025-07-03 12:43:51,944 - [SERIAL] $GPRMC,104351,A,4805.81074,N,00142.51652,W,000.1,172.7,030725,,,A*60
2025-07-03 12:43:51,962 - [SERIAL] $GPGGA,104351,4805.81074,N,00142.51652,W,1,06,,72.000,M,,M,,*50
2025-07-03 12:43:51,997 - [SERIAL] $HCHDG,171.9,,,000.8,E*2F
2025-07-03 12:43:51,999 - [SERIAL] $HCHDT,172.7,T*2A
2025-07-03 12:43:52,002 - [SERIAL] $GPMDA,30.23,I,1.0237,B,,C,,C,,,,C,,T,,M,,N,,M*38
2025-07-03 12:43:52,005 - [SERIAL] $IIMMB,30.23,I,1.0237,B*7C
2025-07-03 12:43:52,196 - [SERIAL] $GPRMC,104352,A,4805.8107,N,00142.51633,W,000.1,172.7,030725,,,A*50
2025-07-03 12:43:52,212 - [SERIAL] $GPGGA,104352,4805.8107,N,00142.51633,W,1,06,,72.000,M,,M,,*60
2025-07-03 12:43:52,248 - [SERIAL] $HCHDG,172.0,,,000.8,E*25
2025-07-03 12:43:52,249 - [SERIAL] $HCHDT,172.7,T*2A
2025-07-03 12:43:52,253 - [SERIAL] $GPMDA,30.23,I,1.0237,B,,C,,C,,,,C,,T,,M,,N,,M*38
2025-07-03 12:43:52,255 - [SERIAL] $IIMMB,30.23,I,1.0237,B*7C
2025-07-03 12:43:52,453 - [SERIAL] $GPRMC,104352,A,4805.8107,N,00142.51633,W,000.1,172.7,030725,,,A*50
2025-07-03 12:43:52,468 - [SERIAL] $GPGGA,104352,4805.8107,N,00142.51633,W,1,06,,72.000,M,,M,,*60
2025-07-03 12:43:52,505 - [SERIAL] $HCHDG,172.0,,,000.8,E*25
2025-07-03 12:43:52,506 - [SERIAL] $HCHDT,172.7,T*2A
2025-07-03 12:43:52,509 - [SERIAL] $GPMDA,30.23,I,1.0237,B,,C,,C,,,,C,,T,,M,,N,,M*38
2025-07-03 12:43:52,511 - [SERIAL] $IIMMB,30.23,I,1.0237,B*7C
2025-07-03 12:43:52,702 - [SERIAL] $GPRMC,104352,A,4805.8107,N,00142.51633,W,000.1,172.7,030725,,,A*50
2025-07-03 12:43:52,721 - [SERIAL] $GPGGA,104352,4805.8107,N,00142.51633,W,1,06,,72.000,M,,M,,*60
2025-07-03 12:43:52,757 - [SERIAL] $HCHDG,172.0,,,000.8,E*25
2025-07-03 12:43:52,759 - [SERIAL] $HCHDT,172.7,T*2A
2025-07-03 12:43:52,761 - [SERIAL] $GPMDA,30.23,I,1.0237,B,,C,,C,,,,C,,T,,M,,N,,M*38
2025-07-03 12:43:52,763 - [SERIAL] $IIMMB,30.23,I,1.0237,B*7C
2025-07-03 12:43:52,956 - [SERIAL] $GPRMC,104352,A,4805.8107,N,00142.51633,W,000.1,172.7,030725,,,A*50
2025-07-03 12:43:52,974 - [SERIAL] $GPGGA,104352,4805.8107,N,00142.51633,W,1,06,,72.000,M,,M,,*60
2025-07-03 12:43:53,013 - [SERIAL] $HCHDG,172.0,,,000.8,E*25
2025-07-03 12:43:53,015 - [SERIAL] $HCHDT,172.7,T*2A
2025-07-03 12:43:53,018 - [SERIAL] $GPMDA,30.23,I,1.0237,B,,C,,C,,,,C,,T,,M,,N,,M*38
2025-07-03 12:43:53,019 - [SERIAL] $IIMMB,30.23,I,1.0237,B*7C
2025-07-03 12:43:53,209 - [SERIAL] $GPRMC,104353,A,4805.81063,N,00142.51619,W,000.0,172.7,030725,,,A*6A
2025-07-03 12:43:53,226 - [SERIAL] $GPGGA,104353,4805.81063,N,00142.51619,W,1,06,,72.000,M,,M,,*5B
2025-07-03 12:43:53,263 - [SERIAL] $HCHDG,172.0,,,000.8,E*25
2025-07-03 12:43:53,264 - [SERIAL] $HCHDT,172.7,T*2A
2025-07-03 12:43:53,267 - [SERIAL] $GPMDA,30.23,I,1.0237,B,,C,,C,,,,C,,T,,M,,N,,M*38
2025-07-03 12:43:53,269 - [SERIAL] $IIMMB,30.23,I,1.0237,B*7C
2025-07-03 12:43:53,462 - [SERIAL] $GPRMC,104353,A,4805.81063,N,00142.51619,W,000.0,172.7,030725,,,A*6A
2025-07-03 12:43:53,481 - [SERIAL] $GPGGA,104353,4805.81063,N,00142.51619,W,1,06,,72.000,M,,M,,*5B
2025-07-03 12:43:53,517 - [SERIAL] $HCHDG,172.0,,,000.8,E*25
2025-07-03 12:43:53,519 - [SERIAL] $HCHDT,172.7,T*2A
2025-07-03 12:43:53,522 - [SERIAL] $GPMDA,30.23,I,1.0237,B,,C,,C,,,,C,,T,,M,,N,,M*38
2025-07-03 12:43:53,524 - [SERIAL] $IIMMB,30.23,I,1.0237,B*7C
2025-07-03 12:43:53,713 - [SERIAL] $GPRMC,104353,A,4805.81063,N,00142.51619,W,000.0,172.7,030725,,,A*6A
2025-07-03 12:43:53,732 - [SERIAL] $GPGGA,104353,4805.81063,N,00142.51619,W,1,06,,72.000,M,,M,,*5B
2025-07-03 12:43:53,768 - [SERIAL] $HCHDG,172.0,,,000.8,E*25
2025-07-03 12:43:53,769 - [SERIAL] $HCHDT,172.7,T*2A
2025-07-03 12:43:53,772 - [SERIAL] $GPMDA,30.23,I,1.0237,B,,C,,C,,,,C,,T,,M,,N,,M*38
2025-07-03 12:43:53,774 - [SERIAL] $IIMMB,30.23,I,1.0237,B*7C
2025-07-03 12:43:53,966 - [SERIAL] $GPRMC,104353,A,4805.81063,N,00142.51619,W,000.0,172.7,030725,,,A*6A
2025-07-03 12:43:53,984 - [SERIAL] $GPGGA,104353,4805.81063,N,00142.51619,W,1,06,,72.000,M,,M,,*5B
2025-07-03 12:43:54,020 - [SERIAL] $HCHDG,172.0,,,000.8,E*25
2025-07-03 12:43:54,021 - [SERIAL] $HCHDT,172.7,T*2A
2025-07-03 12:43:54,024 - [SERIAL] $GPMDA,30.229,I,1.0237,B,,C,,C,,,,C,,T,,M,,N,,M*00
2025-07-03 12:43:54,027 - [SERIAL] $IIMMB,30.229,I,1.0237,B*44
2025-07-03 12:43:54,220 - [SERIAL] $GPRMC,104354,A,4805.81065,N,00142.51617,W,000.0,172.7,030725,,,A*65
2025-07-03 12:43:54,237 - [SERIAL] $GPGGA,104354,4805.81065,N,00142.51617,W,1,06,,72.000,M,,M,,*54
2025-07-03 12:43:54,274 - [SERIAL] $HCHDG,172.0,,,000.8,E*25
2025-07-03 12:43:54,276 - [SERIAL] $HCHDT,172.7,T*2A
2025-07-03 12:43:54,279 - [SERIAL] $GPMDA,30.23,I,1.0237,B,,C,,C,,,,C,,T,,M,,N,,M*38
2025-07-03 12:43:54,281 - [SERIAL] $IIMMB,30.23,I,1.0237,B*7C
2025-07-03 12:43:54,491 - [SERIAL] $GPRMC,104354,A,4805.81065,N,00142.51617,W,000.0,172.7,030725,,,A*65
2025-07-03 12:43:54,507 - [SERIAL] $GPGGA,104354,4805.81065,N,00142.51617,W,1,06,,72.000,M,,M,,*54
2025-07-03 12:43:54,546 - [SERIAL] $HCHDG,172.0,,,000.8,E*25
2025-07-03 12:43:54,547 - [SERIAL] $HCHDT,172.7,T*2A
2025-07-03 12:43:54,550 - [SERIAL] $GPMDA,30.23,I,1.0237,B,,C,,C,,,,C,,T,,M,,N,,M*38
2025-07-03 12:43:54,552 - [SERIAL] $IIMMB,30.23,I,1.0237,B*7C
2025-07-03 12:43:54,725 - [SERIAL] $GPRMC,104354,A,4805.81065,N,00142.51617,W,000.0,172.7,030725,,,A*65
2025-07-03 12:43:54,741 - [SERIAL] $GPGGA,104354,4805.81065,N,00142.51617,W,1,06,,72.000,M,,M,,*54
2025-07-03 12:43:54,778 - [SERIAL] $HCHDG,172.0,,,000.8,E*25
2025-07-03 12:43:54,780 - [SERIAL] $HCHDT,172.7,T*2A
2025-07-03 12:43:54,784 - [SERIAL] $GPMDA,30.23,I,1.0237,B,,C,,C,,,,C,,T,,M,,N,,M*38
2025-07-03 12:43:54,786 - [SERIAL] $IIMMB,30.23,I,1.0237,B*7C
2025-07-03 12:43:54,979 - [SERIAL] $GPRMC,104354,A,4805.81065,N,00142.51617,W,000.0,172.7,030725,,,A*65
2025-07-03 12:43:54,994 - [SERIAL] $GPGGA,104354,4805.81065,N,00142.51617,W,1,06,,72.000,M,,M,,*54
2025-07-03 12:43:55,033 - [SERIAL] $HCHDG,171.9,,,000.8,E*2F
2025-07-03 12:43:55,034 - [SERIAL] $HCHDT,172.7,T*2A
2025-07-03 12:43:55,036 - [SERIAL] $GPMDA,30.23,I,1.0237,B,,C,,C,,,,C,,T,,M,,N,,M*38
2025-07-03 12:43:55,038 - [SERIAL] $IIMMB,30.23,I,1.0237,B*7C
2025-07-03 12:43:55,232 - [SERIAL] $GPRMC,104355,A,4805.81073,N,00142.51617,W,000.1,172.7,030725,,,A*62
2025-07-03 12:43:55,248 - [SERIAL] $GPGGA,104355,4805.81073,N,00142.51617,W,1,06,,73.000,M,,M,,*53
2025-07-03 12:43:55,284 - [SERIAL] $HCHDG,172.0,,,000.8,E*25
2025-07-03 12:43:55,286 - [SERIAL] $HCHDT,172.7,T*2A
2025-07-03 12:43:55,290 - [SERIAL] $GPMDA,30.23,I,1.0237,B,,C,,C,,,,C,,T,,M,,N,,M*38
2025-07-03 12:43:55,292 - [SERIAL] $IIMMB,30.23,I,1.0237,B*7C
2025-07-03 12:43:55,488 - [SERIAL] $GPRMC,104355,A,4805.81073,N,00142.51617,W,000.1,176.9,030725,,,A*68
2025-07-03 12:43:55,504 - [SERIAL] $GPGGA,104355,4805.81073,N,00142.51617,W,1,06,,73.000,M,,M,,*53
2025-07-03 12:43:55,539 - [SERIAL] $HCHDG,176.2,,,000.8,E*23
2025-07-03 12:43:55,541 - [SERIAL] $HCHDT,176.9,T*20
2025-07-03 12:43:55,543 - [SERIAL] $GPMDA,30.23,I,1.0237,B,,C,,C,,,,C,,T,,M,,N,,M*38
2025-07-03 12:43:55,545 - [SERIAL] $IIMMB,30.23,I,1.0237,B*7C
2025-07-03 12:43:56,504 - [SERIAL] $GPRMC,104356,A,4805.81069,N,00142.51609,W,000.1,177.5,030725,,,A*62
2025-07-03 12:43:56,514 - [SERIAL] $GPGGA,104356,4805.81069,N,00142.51609,W,1,06,,73.000,M,,M,,*54
2025-07-03 12:43:56,540 - [SERIAL] $HCHDG,176.8,,,000.8,E*29
2025-07-03 12:43:56,541 - [SERIAL] $HCHDT,177.5,T*2D
2025-07-03 12:43:56,545 - [SERIAL] $GPMDA,30.229,I,1.0237,B,,C,,C,,,,C,,T,,M,,N,,M*00
2025-07-03 12:43:56,547 - [SERIAL] $IIMMB,30.229,I,1.0237,B*44
2025-07-03 12:43:57,501 - [SERIAL] $GPRMC,104357,A,4805.81068,N,00142.51599,W,000.1,177.5,030725,,,A*68
2025-07-03 12:43:57,511 - [SERIAL] $GPGGA,104357,4805.81068,N,00142.51599,W,1,06,,73.000,M,,M,,*5E
2025-07-03 12:43:57,534 - [SERIAL] $HCHDG,176.8,,,000.8,E*29
2025-07-03 12:43:57,535 - [SERIAL] $HCHDT,177.5,T*2D
2025-07-03 12:43:57,537 - [SERIAL] $GPMDA,30.229,I,1.0237,B,,C,,C,,,,C,,T,,M,,N,,M*00
2025-07-03 12:43:57,539 - [SERIAL] $IIMMB,30.229,I,1.0237,B*44
2025-07-03 12:43:58,501 - [SERIAL] $GPRMC,104358,A,4805.81069,N,00142.5159,W,000.2,177.5,030725,,,A*5C
2025-07-03 12:43:58,506 - [SERIAL] $GPGGA,104358,4805.81069,N,00142.5159,W,1,06,,74.000,M,,M,,*6E
2025-07-03 12:43:58,531 - [SERIAL] $HCHDG,176.8,,,000.8,E*29
2025-07-03 12:43:58,533 - [SERIAL] $HCHDT,177.5,T*2D
2025-07-03 12:43:58,537 - [SERIAL] $GPMDA,30.229,I,1.0237,B,,C,,C,,,,C,,T,,M,,N,,M*00
2025-07-03 12:43:58,539 - [SERIAL] $IIMMB,30.229,I,1.0237,B*44
2025-07-03 12:43:59,512 - [SERIAL] $GPRMC,104359,A,4805.81066,N,00142.51585,W,000.1,177.5,030725,,,A*65
2025-07-03 12:43:59,530 - [SERIAL] $GPGGA,104359,4805.81066,N,00142.51585,W,1,04,,74.000,M,,M,,*56
2025-07-03 12:43:59,564 - [SERIAL] $HCHDG,176.8,,,000.8,E*29
2025-07-03 12:43:59,566 - [SERIAL] $HCHDT,177.5,T*2D
2025-07-03 12:43:59,568 - [SERIAL] $GPMDA,30.229,I,1.0237,B,,C,,C,,,,C,,T,,M,,N,,M*00
2025-07-03 12:43:59,570 - [SERIAL] $IIMMB,30.229,I,1.0237,B*44
2025-07-03 12:44:00,513 - [SERIAL] $GPRMC,104400,A,4805.81067,N,00142.51583,W,000.0,177.4,030725,,,A*69
2025-07-03 12:44:00,530 - [SERIAL] $GPGGA,104400,4805.81067,N,00142.51583,W,1,03,,74.000,M,,M,,*5D
2025-07-03 12:44:00,561 - [SERIAL] $HCHDG,176.7,,,000.8,E*26
2025-07-03 12:44:00,563 - [SERIAL] $HCHDT,177.4,T*2C
2025-07-03 12:44:00,566 - [SERIAL] $GPMDA,30.229,I,1.0237,B,,C,,C,,,,C,,T,,M,,N,,M*00
2025-07-03 12:44:00,568 - [SERIAL] $IIMMB,30.229,I,1.0237,B*44
2025-07-03 12:44:01,518 - [SERIAL] $GPRMC,104401,A,4805.81067,N,00142.51583,W,000.0,177.4,030725,,,A*68
2025-07-03 12:44:01,532 - [SERIAL] $GPGGA,104401,4805.81067,N,00142.51583,W,1,03,,74.000,M,,M,,*5C
2025-07-03 12:44:01,564 - [SERIAL] $HCHDG,176.6,,,000.8,E*27
2025-07-03 12:44:01,566 - [SERIAL] $HCHDT,177.4,T*2C
2025-07-03 12:44:01,570 - [SERIAL] $GPMDA,30.229,I,1.0237,B,,C,,C,,,,C,,T,,M,,N,,M*00
2025-07-03 12:44:01,572 - [SERIAL] $IIMMB,30.229,I,1.0237,B*44
2025-07-03 12:44:02,515 - [SERIAL] $GPRMC,104402,A,4805.81067,N,00142.51583,W,000.0,177.4,030725,,,A*6B
2025-07-03 12:44:02,519 - [SERIAL] $GPGGA,104402,4805.81067,N,00142.51583,W,1,03,,74.000,M,,M,,*5F
2025-07-03 12:44:02,535 - [SERIAL] $HCHDG,176.6,,,000.8,E*27
2025-07-03 12:44:02,537 - [SERIAL] $HCHDT,177.4,T*2C
2025-07-03 12:44:02,540 - [SERIAL] $GPMDA,30.229,I,1.0237,B,,C,,C,,,,C,,T,,M,,N,,M*00
2025-07-03 12:44:02,542 - [SERIAL] $IIMMB,30.229,I,1.0237,B*44
2025-07-03 12:44:03,515 - [SERIAL] $GPRMC,104403,A,4805.81067,N,00142.51583,W,000.0,177.4,030725,,,A*6A
2025-07-03 12:44:03,523 - [SERIAL] $GPGGA,104403,4805.81067,N,00142.51583,W,1,03,,74.000,M,,M,,*5E
2025-07-03 12:44:03,554 - [SERIAL] $HCHDG,176.6,,,000.8,E*27
2025-07-03 12:44:03,556 - [SERIAL] $HCHDT,177.4,T*2C
2025-07-03 12:44:03,561 - [SERIAL] $GPMDA,30.229,I,1.0237,B,,C,,C,,,,C,,T,,M,,N,,M*00
2025-07-03 12:44:03,565 - [SERIAL] $IIMMB,30.229,I,1.0237,B*44
2025-07-03 12:44:04,528 - [SERIAL] $GPRMC,104404,A,4805.81067,N,00142.51583,W,000.0,177.4,030725,,,A*6D
2025-07-03 12:44:04,537 - [SERIAL] $GPGGA,104404,4805.81067,N,00142.51583,W,1,04,,74.000,M,,M,,*5E
2025-07-03 12:44:04,555 - [SERIAL] $HCHDG,176.6,,,000.8,E*27
2025-07-03 12:44:04,556 - [SERIAL] $HCHDT,177.4,T*2C
2025-07-03 12:44:04,559 - [SERIAL] $GPMDA,30.229,I,1.0237,B,,C,,C,,,,C,,T,,M,,N,,M*00
2025-07-03 12:44:04,560 - [SERIAL] $IIMMB,30.229,I,1.0237,B*44
2025-07-03 12:44:05,530 - [SERIAL] $GPRMC,104405,A,4805.81067,N,00142.51583,W,000.0,177.4,030725,,,A*6C
2025-07-03 12:44:05,545 - [SERIAL] $GPGGA,104405,4805.81067,N,00142.51583,W,1,04,,74.000,M,,M,,*5F
2025-07-03 12:44:05,577 - [SERIAL] $HCHDG,176.6,,,000.8,E*27
2025-07-03 12:44:05,579 - [SERIAL] $HCHDT,177.4,T*2C
2025-07-03 12:44:05,582 - [SERIAL] $GPMDA,30.229,I,1.0237,B,,C,,C,,,,C,,T,,M,,N,,M*00
2025-07-03 12:44:05,584 - [SERIAL] $IIMMB,30.229,I,1.0237,B*44
2025-07-03 12:44:06,532 - [SERIAL] $GPRMC,104406,A,4805.81067,N,00142.51583,W,000.0,177.4,030725,,,A*6F
2025-07-03 12:44:06,548 - [SERIAL] $GPGGA,104406,4805.81067,N,00142.51583,W,1,04,,74.000,M,,M,,*5C
2025-07-03 12:44:06,581 - [SERIAL] $HCHDG,176.6,,,000.8,E*27
2025-07-03 12:44:06,583 - [SERIAL] $HCHDT,177.4,T*2C
2025-07-03 12:44:06,585 - [SERIAL] $GPMDA,30.229,I,1.0237,B,,C,,C,,,,C,,T,,M,,N,,M*00
2025-07-03 12:44:06,587 - [SERIAL] $IIMMB,30.229,I,1.0237,B*44
2025-07-03 12:44:07,635 - [SERIAL] $GPRMC,104407,A,4805.81067,N,00142.51583,W,000.0,177.4,030725,,,A*6E
2025-07-03 12:44:07,650 - [SERIAL] $GPGGA,104407,4805.81067,N,00142.51583,W,1,04,,74.000,M,,M,,*5D
2025-07-03 12:44:07,694 - [SERIAL] $HCHDG,176.7,,,000.8,E*26
2025-07-03 12:44:07,696 - [SERIAL] $HCHDT,177.4,T*2C
2025-07-03 12:44:07,698 - [SERIAL] $GPMDA,30.23,I,1.0237,B,,C,,C,,,,C,,T,,M,,N,,M*38
2025-07-03 12:44:07,700 - [SERIAL] $IIMMB,30.23,I,1.0237,B*7C
2025-07-03 12:44:08,538 - [SERIAL] $GPRMC,104408,A,4805.81067,N,00142.51583,W,000.0,177.4,030725,,,A*61
2025-07-03 12:44:08,552 - [SERIAL] $GPGGA,104408,4805.81067,N,00142.51583,W,1,04,,74.000,M,,M,,*52
2025-07-03 12:44:08,586 - [SERIAL] $HCHDG,176.6,,,000.8,E*27
2025-07-03 12:44:08,588 - [SERIAL] $HCHDT,177.4,T*2C
2025-07-03 12:44:08,591 - [SERIAL] $GPMDA,30.23,I,1.0237,B,,C,,C,,,,C,,T,,M,,N,,M*38
2025-07-03 12:44:08,592 - [SERIAL] $IIMMB,30.23,I,1.0237,B*7C
2025-07-03 12:44:09,560 - [SERIAL] $GPRMC,104409,A,4805.81067,N,00142.51583,W,000.0,177.4,030725,,,A*60
2025-07-03 12:44:09,574 - [SERIAL] $GPGGA,104409,4805.81067,N,00142.51583,W,1,04,,74.000,M,,M,,*53
2025-07-03 12:44:09,607 - [SERIAL] $HCHDG,176.6,,,000.8,E*27
2025-07-03 12:44:09,608 - [SERIAL] $HCHDT,177.4,T*2C
2025-07-03 12:44:09,611 - [SERIAL] $GPMDA,30.23,I,1.0237,B,,C,,C,,,,C,,T,,M,,N,,M*38
2025-07-03 12:44:09,613 - [SERIAL] $IIMMB,30.23,I,1.0237,B*7C
2025-07-03 12:44:10,558 - [SERIAL] $GPRMC,104410,A,4805.81067,N,00142.51583,W,000.0,177.4,030725,,,A*68
2025-07-03 12:44:10,571 - [SERIAL] $GPGGA,104410,4805.81067,N,00142.51583,W,1,04,,74.000,M,,M,,*5B
2025-07-03 12:44:10,602 - [SERIAL] $HCHDG,176.6,,,000.8,E*27
2025-07-03 12:44:10,603 - [SERIAL] $HCHDT,177.4,T*2C
2025-07-03 12:44:10,606 - [SERIAL] $GPMDA,30.229,I,1.0237,B,,C,,C,,,,C,,T,,M,,N,,M*00
2025-07-03 12:44:10,607 - [SERIAL] $IIMMB,30.229,I,1.0237,B*44
2025-07-03 12:44:11,567 - [SERIAL] $GPRMC,104411,A,4805.81067,N,00142.51583,W,000.0,177.4,030725,,,A*69
2025-07-03 12:44:11,576 - [SERIAL] $GPGGA,104411,4805.81067,N,00142.51583,W,1,05,,74.000,M,,M,,*5B
2025-07-03 12:44:11,605 - [SERIAL] $HCHDG,176.7,,,000.8,E*26
2025-07-03 12:44:11,607 - [SERIAL] $HCHDT,177.4,T*2C
2025-07-03 12:44:11,611 - [SERIAL] $GPMDA,30.229,I,1.0237,B,,C,,C,,,,C,,T,,M,,N,,M*00
2025-07-03 12:44:11,613 - [SERIAL] $IIMMB,30.229,I,1.0237,B*44
2025-07-03 12:44:12,588 - [SERIAL] $GPRMC,104412,A,4805.81067,N,00142.51583,W,000.0,177.4,030725,,,A*6A
2025-07-03 12:44:12,603 - [SERIAL] $GPGGA,104412,4805.81067,N,00142.51583,W,1,05,,74.000,M,,M,,*58
2025-07-03 12:44:12,634 - [SERIAL] $HCHDG,176.6,,,000.8,E*27
2025-07-03 12:44:12,635 - [SERIAL] $HCHDT,177.4,T*2C
2025-07-03 12:44:12,638 - [SERIAL] $GPMDA,30.229,I,1.0237,B,,C,,C,,,,C,,T,,M,,N,,M*00
2025-07-03 12:44:12,639 - [SERIAL] $IIMMB,30.229,I,1.0237,B*44
2025-07-03 12:44:13,593 - [SERIAL] $GPRMC,104413,A,4805.81067,N,00142.51583,W,000.0,177.4,030725,,,A*6B
2025-07-03 12:44:13,608 - [SERIAL] $GPGGA,104413,4805.81067,N,00142.51583,W,1,05,,74.000,M,,M,,*59
2025-07-03 12:44:13,634 - [SERIAL] $HCHDG,176.6,,,000.8,E*27
2025-07-03 12:44:13,636 - [SERIAL] $HCHDT,177.4,T*2C
2025-07-03 12:44:13,641 - [SERIAL] $GPMDA,30.229,I,1.0237,B,,C,,C,,,,C,,T,,M,,N,,M*00
2025-07-03 12:44:13,644 - [SERIAL] $IIMMB,30.229,I,1.0237,B*44
2025-07-03 12:44:14,618 - [SERIAL] $GPRMC,104414,A,4805.81067,N,00142.51583,W,000.0,177.4,030725,,,A*6C
2025-07-03 12:44:14,631 - [SERIAL] $GPGGA,104414,4805.81067,N,00142.51583,W,1,05,,74.000,M,,M,,*5E
2025-07-03 12:44:14,661 - [SERIAL] $HCHDG,176.7,,,000.8,E*26
2025-07-03 12:44:14,662 - [SERIAL] $HCHDT,177.4,T*2C
2025-07-03 12:44:14,665 - [SERIAL] $GPMDA,30.229,I,1.0237,B,,C,,C,,,,C,,T,,M,,N,,M*00
2025-07-03 12:44:14,666 - [SERIAL] $IIMMB,30.229,I,1.0237,B*44
2025-07-03 12:44:15,621 - [SERIAL] $GPRMC,104415,A,4805.81067,N,00142.51583,W,000.0,177.4,030725,,,A*6D
2025-07-03 12:44:15,635 - [SERIAL] $GPGGA,104415,4805.81067,N,00142.51583,W,1,05,,74.000,M,,M,,*5F
2025-07-03 12:44:15,671 - [SERIAL] $HCHDG,176.6,,,000.8,E*27
2025-07-03 12:44:15,672 - [SERIAL] $HCHDT,177.4,T*2C
2025-07-03 12:44:15,674 - [SERIAL] $GPMDA,30.229,I,1.0237,B,,C,,C,,,,C,,T,,M,,N,,M*00
2025-07-03 12:44:15,676 - [SERIAL] $IIMMB,30.229,I,1.0237,B*44
2025-07-03 12:44:16,619 - [SERIAL] $GPRMC,104416,A,4805.81067,N,00142.51583,W,000.0,177.4,030725,,,A*6E
2025-07-03 12:44:16,622 - [SERIAL] $GPGGA,104416,4805.81067,N,00142.51583,W,1,05,,74.000,M,,M,,*5C
2025-07-03 12:44:16,648 - [SERIAL] $HCHDG,176.6,,,000.8,E*27
2025-07-03 12:44:16,649 - [SERIAL] $HCHDT,177.4,T*2C
