2025-07-03 12:14:06,151 - [NMEA][UDP] $GNRMC,101406.000,A,4805.8103,N,00142.5152,W,0.0,,030725,,,A*4A
2025-07-03 12:14:06,152 - [NMEA][UDP] $GNRMC,101406.000,A,4805.8103,N,00142.5152,W,0.0,,030725,,,A*4A
2025-07-03 12:14:06,433 - [SERIAL] $GPRMC,083935,A,4805.8117,N,00142.52219,W,000.0,,030725,,,A*77
2025-07-03 12:14:06,441 - [SERIAL] $GPGGA,083935,4805.8117,N,00142.52219,W,1,00,,83.000,M,,M,,*63
2025-07-03 12:14:06,442 - [SERIAL] $HCHDG,132.9,,,000.8,E*28
2025-07-03 12:14:06,443 - [SERIAL] $HCHDT,133.7,T*2F
2025-07-03 12:14:06,443 - [SERIAL] $GPMDA,30.229,I,1.0237,B,,C,,C,,,,C,,T,,M,,N,,M*00
2025-07-03 12:14:06,444 - [SERIAL] $IIMMB,30.229,I,1.0237,B*44
2025-07-03 12:14:07,162 - [NMEA][UDP] $GNGGA,101407.000,4805.8103,N,00142.5152,W,1,18,0.6,31.7,M,48.3,M,,*61
2025-07-03 12:14:07,163 - [NMEA][UDP] $GNGGA,101407.000,4805.8103,N,00142.5152,W,1,18,0.6,31.7,M,48.3,M,,*61
2025-07-03 12:14:07,163 - [NMEA][UDP] $GNGGA,101407.000,4805.8103,N,00142.5152,W,1,18,0.6,31.7,M,48.3,M,,*61
2025-07-03 12:14:07,163 - [NMEA][UDP] $GNGGA,101407.000,4805.8103,N,00142.5152,W,1,18,0.6,31.7,M,48.3,M,,*61
2025-07-03 12:14:07,164 - [NMEA][UDP] $GNGGA,101407.000,4805.8103,N,00142.5152,W,1,18,0.6,31.7,M,48.3,M,,*61
2025-07-03 12:14:07,164 - [NMEA][UDP] $GNGGA,101407.000,4805.8103,N,00142.5152,W,1,18,0.6,31.7,M,48.3,M,,*61
2025-07-03 12:14:07,164 - [NMEA][UDP] $GNGGA,101407.000,4805.8103,N,00142.5152,W,1,18,0.6,31.7,M,48.3,M,,*61
2025-07-03 12:14:07,164 - [NMEA][UDP] $GNGGA,101407.000,4805.8103,N,00142.5152,W,1,18,0.6,31.7,M,48.3,M,,*61
2025-07-03 12:14:07,165 - [NMEA][UDP] $GNGLL,4805.8103,N,00142.5152,W,101407.000,A,A*51
2025-07-03 12:14:07,165 - [NMEA][UDP] $GNGLL,4805.8103,N,00142.5152,W,101407.000,A,A*51
2025-07-03 12:14:07,165 - [NMEA][UDP] $GNGLL,4805.8103,N,00142.5152,W,101407.000,A,A*51
2025-07-03 12:14:07,165 - [NMEA][UDP] $GNGLL,4805.8103,N,00142.5152,W,101407.000,A,A*51
2025-07-03 12:14:07,165 - [NMEA][UDP] $GNGLL,4805.8103,N,00142.5152,W,101407.000,A,A*51
2025-07-03 12:14:07,165 - [NMEA][UDP] $GNGLL,4805.8103,N,00142.5152,W,101407.000,A,A*51
2025-07-03 12:14:07,166 - [NMEA][UDP] $GNGLL,4805.8103,N,00142.5152,W,101407.000,A,A*51
2025-07-03 12:14:07,166 - [NMEA][UDP] $GNGLL,4805.8103,N,00142.5152,W,101407.000,A,A*51
2025-07-03 12:14:07,166 - [NMEA][UDP] $GNVTG,305.1,T,,M,0.0,N,0.0,K,A*14
2025-07-03 12:14:07,166 - [NMEA][UDP] $GNVTG,305.1,T,,M,0.0,N,0.0,K,A*14
2025-07-03 12:14:07,166 - [NMEA][UDP] $GNVTG,305.1,T,,M,0.0,N,0.0,K,A*14
2025-07-03 12:14:07,166 - [NMEA][UDP] $GNVTG,305.1,T,,M,0.0,N,0.0,K,A*14
2025-07-03 12:14:07,166 - [NMEA][UDP] $GNVTG,305.1,T,,M,0.0,N,0.0,K,A*14
2025-07-03 12:14:07,167 - [NMEA][UDP] $GNVTG,305.1,T,,M,0.0,N,0.0,K,A*14
2025-07-03 12:14:07,167 - [NMEA][UDP] $GNVTG,305.1,T,,M,0.0,N,0.0,K,A*14
2025-07-03 12:14:07,167 - [NMEA][UDP] $GNVTG,305.1,T,,M,0.0,N,0.0,K,A*14
2025-07-03 12:14:07,169 - [NMEA][UDP] $GNRMC,101407.000,A,4805.8103,N,00142.5152,W,0.0,,030725,,,A*4B
2025-07-03 12:14:07,169 - [NMEA][UDP] $GNRMC,101407.000,A,4805.8103,N,00142.5152,W,0.0,,030725,,,A*4B
2025-07-03 12:14:07,170 - [NMEA][UDP] $GNRMC,101407.000,A,4805.8103,N,00142.5152,W,0.0,,030725,,,A*4B
2025-07-03 12:14:07,170 - [NMEA][UDP] $GNRMC,101407.000,A,4805.8103,N,00142.5152,W,0.0,,030725,,,A*4B
2025-07-03 12:14:07,170 - [NMEA][UDP] $GNRMC,101407.000,A,4805.8103,N,00142.5152,W,0.0,,030725,,,A*4B
2025-07-03 12:14:07,170 - [NMEA][UDP] $GNRMC,101407.000,A,4805.8103,N,00142.5152,W,0.0,,030725,,,A*4B
2025-07-03 12:14:07,170 - [NMEA][UDP] $GNRMC,101407.000,A,4805.8103,N,00142.5152,W,0.0,,030725,,,A*4B
2025-07-03 12:14:07,170 - [NMEA][UDP] $GNRMC,101407.000,A,4805.8103,N,00142.5152,W,0.0,,030725,,,A*4B
2025-07-03 12:14:07,440 - [SERIAL] $GPRMC,083935,A,4805.8117,N,00142.52219,W,000.0,,030725,,,A*77
2025-07-03 12:14:07,452 - [SERIAL] $GPGGA,083935,4805.8117,N,00142.52219,W,1,00,,83.000,M,,M,,*63
2025-07-03 12:14:07,457 - [SERIAL] $HCHDG,132.9,,,000.8,E*28
2025-07-03 12:14:07,457 - [SERIAL] $HCHDT,133.7,T*2F
2025-07-03 12:14:07,458 - [SERIAL] $GPMDA,30.229,I,1.0237,B,,C,,C,,,,C,,T,,M,,N,,M*00
2025-07-03 12:14:07,458 - [SERIAL] $IIMMB,30.229,I,1.0237,B*44
2025-07-03 12:14:08,102 - [NMEA][UDP] $GNGGA,101408.000,4805.8103,N,00142.5152,W,1,18,0.6,31.7,M,48.3,M,,*6E
2025-07-03 12:14:08,102 - [NMEA][UDP] $GNGGA,101408.000,4805.8103,N,00142.5152,W,1,18,0.6,31.7,M,48.3,M,,*6E
2025-07-03 12:14:08,102 - [NMEA][UDP] $GNGGA,101408.000,4805.8103,N,00142.5152,W,1,18,0.6,31.7,M,48.3,M,,*6E
2025-07-03 12:14:08,103 - [NMEA][UDP] $GNGGA,101408.000,4805.8103,N,00142.5152,W,1,18,0.6,31.7,M,48.3,M,,*6E
2025-07-03 12:14:08,103 - [NMEA][UDP] $GNGGA,101408.000,4805.8103,N,00142.5152,W,1,18,0.6,31.7,M,48.3,M,,*6E
2025-07-03 12:14:08,103 - [NMEA][UDP] $GNGGA,101408.000,4805.8103,N,00142.5152,W,1,18,0.6,31.7,M,48.3,M,,*6E
2025-07-03 12:14:08,103 - [NMEA][UDP] $GNGGA,101408.000,4805.8103,N,00142.5152,W,1,18,0.6,31.7,M,48.3,M,,*6E
2025-07-03 12:14:08,103 - [NMEA][UDP] $GNGGA,101408.000,4805.8103,N,00142.5152,W,1,18,0.6,31.7,M,48.3,M,,*6E
2025-07-03 12:14:08,104 - [NMEA][UDP] $GNGLL,4805.8103,N,00142.5152,W,101408.000,A,A*5E
2025-07-03 12:14:08,104 - [NMEA][UDP] $GNGLL,4805.8103,N,00142.5152,W,101408.000,A,A*5E
2025-07-03 12:14:08,104 - [NMEA][UDP] $GNGLL,4805.8103,N,00142.5152,W,101408.000,A,A*5E
2025-07-03 12:14:08,105 - [NMEA][UDP] $GNGLL,4805.8103,N,00142.5152,W,101408.000,A,A*5E
2025-07-03 12:14:08,105 - [NMEA][UDP] $GNGLL,4805.8103,N,00142.5152,W,101408.000,A,A*5E
2025-07-03 12:14:08,105 - [NMEA][UDP] $GNGLL,4805.8103,N,00142.5152,W,101408.000,A,A*5E
2025-07-03 12:14:08,105 - [NMEA][UDP] $GNGLL,4805.8103,N,00142.5152,W,101408.000,A,A*5E
2025-07-03 12:14:08,106 - [NMEA][UDP] $GNGLL,4805.8103,N,00142.5152,W,101408.000,A,A*5E
2025-07-03 12:14:08,106 - [NMEA][UDP] $GNVTG,305.1,T,,M,0.0,N,0.0,K,A*14
2025-07-03 12:14:08,106 - [NMEA][UDP] $GNVTG,305.1,T,,M,0.0,N,0.0,K,A*14
2025-07-03 12:14:08,106 - [NMEA][UDP] $GNVTG,305.1,T,,M,0.0,N,0.0,K,A*14
2025-07-03 12:14:08,106 - [NMEA][UDP] $GNVTG,305.1,T,,M,0.0,N,0.0,K,A*14
2025-07-03 12:14:08,107 - [NMEA][UDP] $GNVTG,305.1,T,,M,0.0,N,0.0,K,A*14
2025-07-03 12:14:08,107 - [NMEA][UDP] $GNVTG,305.1,T,,M,0.0,N,0.0,K,A*14
2025-07-03 12:14:08,107 - [NMEA][UDP] $GNVTG,305.1,T,,M,0.0,N,0.0,K,A*14
2025-07-03 12:14:08,107 - [NMEA][UDP] $GNVTG,305.1,T,,M,0.0,N,0.0,K,A*14
2025-07-03 12:14:08,147 - [NMEA][UDP] $GNRMC,101408.000,A,4805.8103,N,00142.5152,W,0.0,,030725,,,A*44
2025-07-03 12:14:08,147 - [NMEA][UDP] $GNRMC,101408.000,A,4805.8103,N,00142.5152,W,0.0,,030725,,,A*44
2025-07-03 12:14:08,148 - [NMEA][UDP] $GNRMC,101408.000,A,4805.8103,N,00142.5152,W,0.0,,030725,,,A*44
2025-07-03 12:14:08,148 - [NMEA][UDP] $GNRMC,101408.000,A,4805.8103,N,00142.5152,W,0.0,,030725,,,A*44
2025-07-03 12:14:08,148 - [NMEA][UDP] $GNRMC,101408.000,A,4805.8103,N,00142.5152,W,0.0,,030725,,,A*44
2025-07-03 12:14:08,148 - [NMEA][UDP] $GNRMC,101408.000,A,4805.8103,N,00142.5152,W,0.0,,030725,,,A*44
2025-07-03 12:14:08,149 - [NMEA][UDP] $GNRMC,101408.000,A,4805.8103,N,00142.5152,W,0.0,,030725,,,A*44
2025-07-03 12:14:08,149 - [NMEA][UDP] $GNRMC,101408.000,A,4805.8103,N,00142.5152,W,0.0,,030725,,,A*44
2025-07-03 12:14:08,457 - [SERIAL] $GPRMC,083935,A,4805.8117,N,00142.52219,W,000.0,,030725,,,A*77
2025-07-03 12:14:08,467 - [SERIAL] $GPGGA,083935,4805.8117,N,00142.52219,W,1,00,,83.000,M,,M,,*63
2025-07-03 12:14:08,471 - [SERIAL] $HCHDG,132.9,,,000.8,E*28
2025-07-03 12:14:08,473 - [SERIAL] $HCHDT,133.7,T*2F
2025-07-03 12:14:08,475 - [SERIAL] $GPMDA,30.229,I,1.0237,B,,C,,C,,,,C,,T,,M,,N,,M*00
2025-07-03 12:14:08,476 - [SERIAL] $IIMMB,30.229,I,1.0237,B*44
2025-07-03 12:14:09,212 - [NMEA][UDP] $GNGGA,101409.000,4805.8103,N,00142.5152,W,1,17,0.8,31.7,M,48.3,M,,*6E
2025-07-03 12:14:09,213 - [NMEA][UDP] $GNGGA,101409.000,4805.8103,N,00142.5152,W,1,17,0.8,31.7,M,48.3,M,,*6E
2025-07-03 12:14:09,213 - [NMEA][UDP] $GNGGA,101409.000,4805.8103,N,00142.5152,W,1,17,0.8,31.7,M,48.3,M,,*6E
2025-07-03 12:14:09,214 - [NMEA][UDP] $GNGGA,101409.000,4805.8103,N,00142.5152,W,1,17,0.8,31.7,M,48.3,M,,*6E
2025-07-03 12:14:09,214 - [NMEA][UDP] $GNGGA,101409.000,4805.8103,N,00142.5152,W,1,17,0.8,31.7,M,48.3,M,,*6E
2025-07-03 12:14:09,215 - [NMEA][UDP] $GNGGA,101409.000,4805.8103,N,00142.5152,W,1,17,0.8,31.7,M,48.3,M,,*6E
2025-07-03 12:14:09,216 - [NMEA][UDP] $GNGGA,101409.000,4805.8103,N,00142.5152,W,1,17,0.8,31.7,M,48.3,M,,*6E
2025-07-03 12:14:09,217 - [NMEA][UDP] $GNGGA,101409.000,4805.8103,N,00142.5152,W,1,17,0.8,31.7,M,48.3,M,,*6E
2025-07-03 12:14:09,218 - [NMEA][UDP] $GNGLL,4805.8103,N,00142.5152,W,101409.000,A,A*5F
2025-07-03 12:14:09,219 - [NMEA][UDP] $GNGLL,4805.8103,N,00142.5152,W,101409.000,A,A*5F
2025-07-03 12:14:09,219 - [NMEA][UDP] $GNGLL,4805.8103,N,00142.5152,W,101409.000,A,A*5F
2025-07-03 12:14:09,220 - [NMEA][UDP] $GNGLL,4805.8103,N,00142.5152,W,101409.000,A,A*5F
2025-07-03 12:14:09,221 - [NMEA][UDP] $GNGLL,4805.8103,N,00142.5152,W,101409.000,A,A*5F
2025-07-03 12:14:09,221 - [NMEA][UDP] $GNGLL,4805.8103,N,00142.5152,W,101409.000,A,A*5F
2025-07-03 12:14:09,222 - [NMEA][UDP] $GNGLL,4805.8103,N,00142.5152,W,101409.000,A,A*5F
2025-07-03 12:14:09,222 - [NMEA][UDP] $GNGLL,4805.8103,N,00142.5152,W,101409.000,A,A*5F
2025-07-03 12:14:09,222 - [NMEA][UDP] $GNVTG,305.1,T,,M,0.0,N,0.0,K,A*14
2025-07-03 12:14:09,223 - [NMEA][UDP] $GNVTG,305.1,T,,M,0.0,N,0.0,K,A*14
2025-07-03 12:14:09,223 - [NMEA][UDP] $GNVTG,305.1,T,,M,0.0,N,0.0,K,A*14
2025-07-03 12:14:09,224 - [NMEA][UDP] $GNVTG,305.1,T,,M,0.0,N,0.0,K,A*14
2025-07-03 12:14:09,224 - [NMEA][UDP] $GNVTG,305.1,T,,M,0.0,N,0.0,K,A*14
2025-07-03 12:14:09,225 - [NMEA][UDP] $GNVTG,305.1,T,,M,0.0,N,0.0,K,A*14
2025-07-03 12:14:09,225 - [NMEA][UDP] $GNVTG,305.1,T,,M,0.0,N,0.0,K,A*14
2025-07-03 12:14:09,226 - [NMEA][UDP] $GNVTG,305.1,T,,M,0.0,N,0.0,K,A*14
2025-07-03 12:14:09,228 - [NMEA][UDP] $GNRMC,101409.000,A,4805.8103,N,00142.5152,W,0.0,,030725,,,A*45
2025-07-03 12:14:09,228 - [NMEA][UDP] $GNRMC,101409.000,A,4805.8103,N,00142.5152,W,0.0,,030725,,,A*45
2025-07-03 12:14:09,229 - [NMEA][UDP] $GNRMC,101409.000,A,4805.8103,N,00142.5152,W,0.0,,030725,,,A*45
2025-07-03 12:14:09,229 - [NMEA][UDP] $GNRMC,101409.000,A,4805.8103,N,00142.5152,W,0.0,,030725,,,A*45
2025-07-03 12:14:09,230 - [NMEA][UDP] $GNRMC,101409.000,A,4805.8103,N,00142.5152,W,0.0,,030725,,,A*45
2025-07-03 12:14:09,230 - [NMEA][UDP] $GNRMC,101409.000,A,4805.8103,N,00142.5152,W,0.0,,030725,,,A*45
2025-07-03 12:14:09,230 - [NMEA][UDP] $GNRMC,101409.000,A,4805.8103,N,00142.5152,W,0.0,,030725,,,A*45
2025-07-03 12:14:09,230 - [NMEA][UDP] $GNRMC,101409.000,A,4805.8103,N,00142.5152,W,0.0,,030725,,,A*45
2025-07-03 12:14:09,462 - [SERIAL] $GPRMC,083935,A,4805.8117,N,00142.52219,W,000.0,,030725,,,A*77
2025-07-03 12:14:09,472 - [SERIAL] $GPGGA,083935,4805.8117,N,00142.52219,W,1,00,,83.000,M,,M,,*63
2025-07-03 12:14:09,475 - [SERIAL] $HCHDG,132.9,,,000.8,E*28
2025-07-03 12:14:09,476 - [SERIAL] $HCHDT,133.7,T*2F
2025-07-03 12:14:09,478 - [SERIAL] $GPMDA,30.229,I,1.0237,B,,C,,C,,,,C,,T,,M,,N,,M*00
2025-07-03 12:14:09,479 - [SERIAL] $IIMMB,30.229,I,1.0237,B*44
2025-07-03 12:14:10,237 - [NMEA][UDP] $GNGGA,101410.000,4805.8103,N,00142.5152,W,1,17,0.8,31.7,M,48.3,M,,*66
2025-07-03 12:14:10,238 - [NMEA][UDP] $GNGGA,101410.000,4805.8103,N,00142.5152,W,1,17,0.8,31.7,M,48.3,M,,*66
2025-07-03 12:14:10,238 - [NMEA][UDP] $GNGGA,101410.000,4805.8103,N,00142.5152,W,1,17,0.8,31.7,M,48.3,M,,*66
2025-07-03 12:14:10,238 - [NMEA][UDP] $GNGGA,101410.000,4805.8103,N,00142.5152,W,1,17,0.8,31.7,M,48.3,M,,*66
2025-07-03 12:14:10,239 - [NMEA][UDP] $GNGGA,101410.000,4805.8103,N,00142.5152,W,1,17,0.8,31.7,M,48.3,M,,*66
2025-07-03 12:14:10,239 - [NMEA][UDP] $GNGGA,101410.000,4805.8103,N,00142.5152,W,1,17,0.8,31.7,M,48.3,M,,*66
2025-07-03 12:14:10,239 - [NMEA][UDP] $GNGGA,101410.000,4805.8103,N,00142.5152,W,1,17,0.8,31.7,M,48.3,M,,*66
2025-07-03 12:14:10,240 - [NMEA][UDP] $GNGGA,101410.000,4805.8103,N,00142.5152,W,1,17,0.8,31.7,M,48.3,M,,*66
2025-07-03 12:14:10,240 - [NMEA][UDP] $GNGLL,4805.8103,N,00142.5152,W,101410.000,A,A*57
2025-07-03 12:14:10,240 - [NMEA][UDP] $GNGLL,4805.8103,N,00142.5152,W,101410.000,A,A*57
2025-07-03 12:14:10,241 - [NMEA][UDP] $GNGLL,4805.8103,N,00142.5152,W,101410.000,A,A*57
2025-07-03 12:14:10,241 - [NMEA][UDP] $GNGLL,4805.8103,N,00142.5152,W,101410.000,A,A*57
2025-07-03 12:14:10,241 - [NMEA][UDP] $GNGLL,4805.8103,N,00142.5152,W,101410.000,A,A*57
2025-07-03 12:14:10,241 - [NMEA][UDP] $GNGLL,4805.8103,N,00142.5152,W,101410.000,A,A*57
2025-07-03 12:14:10,241 - [NMEA][UDP] $GNGLL,4805.8103,N,00142.5152,W,101410.000,A,A*57
2025-07-03 12:14:10,242 - [NMEA][UDP] $GNGLL,4805.8103,N,00142.5152,W,101410.000,A,A*57
2025-07-03 12:14:10,242 - [NMEA][UDP] $GNVTG,305.1,T,,M,0.0,N,0.0,K,A*14
2025-07-03 12:14:10,243 - [NMEA][UDP] $GNVTG,305.1,T,,M,0.0,N,0.0,K,A*14
2025-07-03 12:14:10,243 - [NMEA][UDP] $GNVTG,305.1,T,,M,0.0,N,0.0,K,A*14
2025-07-03 12:14:10,243 - [NMEA][UDP] $GNVTG,305.1,T,,M,0.0,N,0.0,K,A*14
2025-07-03 12:14:10,243 - [NMEA][UDP] $GNVTG,305.1,T,,M,0.0,N,0.0,K,A*14
2025-07-03 12:14:10,243 - [NMEA][UDP] $GNVTG,305.1,T,,M,0.0,N,0.0,K,A*14
2025-07-03 12:14:10,243 - [NMEA][UDP] $GNVTG,305.1,T,,M,0.0,N,0.0,K,A*14
2025-07-03 12:14:10,244 - [NMEA][UDP] $GNVTG,305.1,T,,M,0.0,N,0.0,K,A*14
2025-07-03 12:14:10,250 - [NMEA][UDP] $GNRMC,101410.000,A,4805.8103,N,00142.5152,W,0.0,,030725,,,A*4D
2025-07-03 12:14:10,250 - [NMEA][UDP] $GNRMC,101410.000,A,4805.8103,N,00142.5152,W,0.0,,030725,,,A*4D
2025-07-03 12:14:10,251 - [NMEA][UDP] $GNRMC,101410.000,A,4805.8103,N,00142.5152,W,0.0,,030725,,,A*4D
2025-07-03 12:14:10,251 - [NMEA][UDP] $GNRMC,101410.000,A,4805.8103,N,00142.5152,W,0.0,,030725,,,A*4D
2025-07-03 12:14:10,251 - [NMEA][UDP] $GNRMC,101410.000,A,4805.8103,N,00142.5152,W,0.0,,030725,,,A*4D
2025-07-03 12:14:10,251 - [NMEA][UDP] $GNRMC,101410.000,A,4805.8103,N,00142.5152,W,0.0,,030725,,,A*4D
2025-07-03 12:14:10,252 - [NMEA][UDP] $GNRMC,101410.000,A,4805.8103,N,00142.5152,W,0.0,,030725,,,A*4D
2025-07-03 12:14:10,252 - [NMEA][UDP] $GNRMC,101410.000,A,4805.8103,N,00142.5152,W,0.0,,030725,,,A*4D
2025-07-03 12:14:10,469 - [SERIAL] $GPRMC,083935,A,4805.8117,N,00142.52219,W,000.0,,030725,,,A*77
2025-07-03 12:14:10,473 - [SERIAL] $GPGGA,083935,4805.8117,N,00142.52219,W,1,00,,83.000,M,,M,,*63
2025-07-03 12:14:10,479 - [SERIAL] $HCHDG,132.9,,,000.8,E*28
2025-07-03 12:14:10,480 - [SERIAL] $HCHDT,133.7,T*2F
2025-07-03 12:14:10,482 - [SERIAL] $GPMDA,30.229,I,1.0237,B,,C,,C,,,,C,,T,,M,,N,,M*00
2025-07-03 12:14:10,484 - [SERIAL] $IIMMB,30.229,I,1.0237,B*44
2025-07-03 12:14:11,126 - [NMEA][UDP] $GNGGA,101411.000,4805.8103,N,00142.5152,W,1,17,0.8,31.7,M,48.3,M,,*67
2025-07-03 12:14:11,126 - [NMEA][UDP] $GNGGA,101411.000,4805.8103,N,00142.5152,W,1,17,0.8,31.7,M,48.3,M,,*67
2025-07-03 12:14:11,126 - [NMEA][UDP] $GNGGA,101411.000,4805.8103,N,00142.5152,W,1,17,0.8,31.7,M,48.3,M,,*67
2025-07-03 12:14:11,126 - [NMEA][UDP] $GNGGA,101411.000,4805.8103,N,00142.5152,W,1,17,0.8,31.7,M,48.3,M,,*67
2025-07-03 12:14:11,127 - [NMEA][UDP] $GNGGA,101411.000,4805.8103,N,00142.5152,W,1,17,0.8,31.7,M,48.3,M,,*67
2025-07-03 12:14:11,127 - [NMEA][UDP] $GNGGA,101411.000,4805.8103,N,00142.5152,W,1,17,0.8,31.7,M,48.3,M,,*67
2025-07-03 12:14:11,127 - [NMEA][UDP] $GNGGA,101411.000,4805.8103,N,00142.5152,W,1,17,0.8,31.7,M,48.3,M,,*67
2025-07-03 12:14:11,127 - [NMEA][UDP] $GNGGA,101411.000,4805.8103,N,00142.5152,W,1,17,0.8,31.7,M,48.3,M,,*67
2025-07-03 12:14:11,128 - [NMEA][UDP] $GNGLL,4805.8103,N,00142.5152,W,101411.000,A,A*56
2025-07-03 12:14:11,128 - [NMEA][UDP] $GNGLL,4805.8103,N,00142.5152,W,101411.000,A,A*56
2025-07-03 12:14:11,128 - [NMEA][UDP] $GNGLL,4805.8103,N,00142.5152,W,101411.000,A,A*56
2025-07-03 12:14:11,128 - [NMEA][UDP] $GNGLL,4805.8103,N,00142.5152,W,101411.000,A,A*56
2025-07-03 12:14:11,128 - [NMEA][UDP] $GNGLL,4805.8103,N,00142.5152,W,101411.000,A,A*56
2025-07-03 12:14:11,128 - [NMEA][UDP] $GNGLL,4805.8103,N,00142.5152,W,101411.000,A,A*56
2025-07-03 12:14:11,128 - [NMEA][UDP] $GNGLL,4805.8103,N,00142.5152,W,101411.000,A,A*56
2025-07-03 12:14:11,128 - [NMEA][UDP] $GNGLL,4805.8103,N,00142.5152,W,101411.000,A,A*56
2025-07-03 12:14:11,128 - [NMEA][UDP] $GNVTG,305.1,T,,M,0.0,N,0.0,K,A*14
2025-07-03 12:14:11,129 - [NMEA][UDP] $GNVTG,305.1,T,,M,0.0,N,0.0,K,A*14
2025-07-03 12:14:11,129 - [NMEA][UDP] $GNVTG,305.1,T,,M,0.0,N,0.0,K,A*14
2025-07-03 12:14:11,129 - [NMEA][UDP] $GNVTG,305.1,T,,M,0.0,N,0.0,K,A*14
2025-07-03 12:14:11,129 - [NMEA][UDP] $GNVTG,305.1,T,,M,0.0,N,0.0,K,A*14
2025-07-03 12:14:11,129 - [NMEA][UDP] $GNVTG,305.1,T,,M,0.0,N,0.0,K,A*14
2025-07-03 12:14:11,129 - [NMEA][UDP] $GNVTG,305.1,T,,M,0.0,N,0.0,K,A*14
2025-07-03 12:14:11,129 - [NMEA][UDP] $GNVTG,305.1,T,,M,0.0,N,0.0,K,A*14
2025-07-03 12:14:11,133 - [NMEA][UDP] $GNRMC,101411.000,A,4805.8103,N,00142.5152,W,0.0,,030725,,,A*4C
2025-07-03 12:14:11,133 - [NMEA][UDP] $GNRMC,101411.000,A,4805.8103,N,00142.5152,W,0.0,,030725,,,A*4C
2025-07-03 12:14:11,133 - [NMEA][UDP] $GNRMC,101411.000,A,4805.8103,N,00142.5152,W,0.0,,030725,,,A*4C
2025-07-03 12:14:11,134 - [NMEA][UDP] $GNRMC,101411.000,A,4805.8103,N,00142.5152,W,0.0,,030725,,,A*4C
2025-07-03 12:14:11,134 - [NMEA][UDP] $GNRMC,101411.000,A,4805.8103,N,00142.5152,W,0.0,,030725,,,A*4C
2025-07-03 12:14:11,134 - [NMEA][UDP] $GNRMC,101411.000,A,4805.8103,N,00142.5152,W,0.0,,030725,,,A*4C
2025-07-03 12:14:11,134 - [NMEA][UDP] $GNRMC,101411.000,A,4805.8103,N,00142.5152,W,0.0,,030725,,,A*4C
2025-07-03 12:14:11,134 - [NMEA][UDP] $GNRMC,101411.000,A,4805.8103,N,00142.5152,W,0.0,,030725,,,A*4C
2025-07-03 12:14:11,481 - [SERIAL] $GPRMC,083935,A,4805.8117,N,00142.52219,W,000.0,,030725,,,A*77
2025-07-03 12:14:11,481 - [SERIAL] $GPGGA,083935,4805.8117,N,00142.52219,W,1,00,,83.000,M,,M,,*63
2025-07-03 12:14:11,482 - [SERIAL] $HCHDG,132.9,,,000.8,E*28
2025-07-03 12:14:11,482 - [SERIAL] $HCHDT,133.7,T*2F
2025-07-03 12:14:11,483 - [SERIAL] $GPMDA,30.229,I,1.0237,B,,C,,C,,,,C,,T,,M,,N,,M*00
2025-07-03 12:14:11,483 - [SERIAL] $IIMMB,30.229,I,1.0237,B*44
2025-07-03 12:14:12,241 - [NMEA][UDP] $GNGGA,101412.000,4805.8103,N,00142.5152,W,1,17,0.8,31.7,M,48.3,M,,*64
2025-07-03 12:14:12,242 - [NMEA][UDP] $GNGGA,101412.000,4805.8103,N,00142.5152,W,1,17,0.8,31.7,M,48.3,M,,*64
2025-07-03 12:14:12,242 - [NMEA][UDP] $GNGGA,101412.000,4805.8103,N,00142.5152,W,1,17,0.8,31.7,M,48.3,M,,*64
2025-07-03 12:14:12,242 - [NMEA][UDP] $GNGGA,101412.000,4805.8103,N,00142.5152,W,1,17,0.8,31.7,M,48.3,M,,*64
2025-07-03 12:14:12,242 - [NMEA][UDP] $GNGGA,101412.000,4805.8103,N,00142.5152,W,1,17,0.8,31.7,M,48.3,M,,*64
2025-07-03 12:14:12,242 - [NMEA][UDP] $GNGGA,101412.000,4805.8103,N,00142.5152,W,1,17,0.8,31.7,M,48.3,M,,*64
2025-07-03 12:14:12,242 - [NMEA][UDP] $GNGGA,101412.000,4805.8103,N,00142.5152,W,1,17,0.8,31.7,M,48.3,M,,*64
2025-07-03 12:14:12,242 - [NMEA][UDP] $GNGGA,101412.000,4805.8103,N,00142.5152,W,1,17,0.8,31.7,M,48.3,M,,*64
2025-07-03 12:14:12,243 - [NMEA][UDP] $GNGLL,4805.8103,N,00142.5152,W,101412.000,A,A*55
2025-07-03 12:14:12,243 - [NMEA][UDP] $GNGLL,4805.8103,N,00142.5152,W,101412.000,A,A*55
2025-07-03 12:14:12,243 - [NMEA][UDP] $GNGLL,4805.8103,N,00142.5152,W,101412.000,A,A*55
2025-07-03 12:14:12,243 - [NMEA][UDP] $GNGLL,4805.8103,N,00142.5152,W,101412.000,A,A*55
2025-07-03 12:14:12,244 - [NMEA][UDP] $GNGLL,4805.8103,N,00142.5152,W,101412.000,A,A*55
2025-07-03 12:14:12,244 - [NMEA][UDP] $GNGLL,4805.8103,N,00142.5152,W,101412.000,A,A*55
2025-07-03 12:14:12,244 - [NMEA][UDP] $GNGLL,4805.8103,N,00142.5152,W,101412.000,A,A*55
2025-07-03 12:14:12,244 - [NMEA][UDP] $GNGLL,4805.8103,N,00142.5152,W,101412.000,A,A*55
2025-07-03 12:14:12,244 - [NMEA][UDP] $GNVTG,305.1,T,,M,0.0,N,0.0,K,A*14
2025-07-03 12:14:12,244 - [NMEA][UDP] $GNVTG,305.1,T,,M,0.0,N,0.0,K,A*14
2025-07-03 12:14:12,244 - [NMEA][UDP] $GNVTG,305.1,T,,M,0.0,N,0.0,K,A*14
2025-07-03 12:14:12,244 - [NMEA][UDP] $GNVTG,305.1,T,,M,0.0,N,0.0,K,A*14
2025-07-03 12:14:12,244 - [NMEA][UDP] $GNVTG,305.1,T,,M,0.0,N,0.0,K,A*14
2025-07-03 12:14:12,244 - [NMEA][UDP] $GNVTG,305.1,T,,M,0.0,N,0.0,K,A*14
2025-07-03 12:14:12,245 - [NMEA][UDP] $GNVTG,305.1,T,,M,0.0,N,0.0,K,A*14
2025-07-03 12:14:12,245 - [NMEA][UDP] $GNVTG,305.1,T,,M,0.0,N,0.0,K,A*14
2025-07-03 12:14:12,249 - [NMEA][UDP] $GNRMC,101412.000,A,4805.8103,N,00142.5152,W,0.0,,030725,,,A*4F
2025-07-03 12:14:12,250 - [NMEA][UDP] $GNRMC,101412.000,A,4805.8103,N,00142.5152,W,0.0,,030725,,,A*4F
2025-07-03 12:14:12,250 - [NMEA][UDP] $GNRMC,101412.000,A,4805.8103,N,00142.5152,W,0.0,,030725,,,A*4F
2025-07-03 12:14:12,250 - [NMEA][UDP] $GNRMC,101412.000,A,4805.8103,N,00142.5152,W,0.0,,030725,,,A*4F
2025-07-03 12:14:12,250 - [NMEA][UDP] $GNRMC,101412.000,A,4805.8103,N,00142.5152,W,0.0,,030725,,,A*4F
2025-07-03 12:14:12,250 - [NMEA][UDP] $GNRMC,101412.000,A,4805.8103,N,00142.5152,W,0.0,,030725,,,A*4F
2025-07-03 12:14:12,251 - [NMEA][UDP] $GNRMC,101412.000,A,4805.8103,N,00142.5152,W,0.0,,030725,,,A*4F
2025-07-03 12:14:12,251 - [NMEA][UDP] $GNRMC,101412.000,A,4805.8103,N,00142.5152,W,0.0,,030725,,,A*4F
2025-07-03 12:14:12,482 - [SERIAL] $GPRMC,083935,A,4805.8117,N,00142.52219,W,000.0,,030725,,,A*77
2025-07-03 12:14:12,502 - [SERIAL] $GPGGA,083935,4805.8117,N,00142.52219,W,1,00,,83.000,M,,M,,*63
2025-07-03 12:14:12,503 - [SERIAL] $HCHDG,132.9,,,000.8,E*28
2025-07-03 12:14:12,503 - [SERIAL] $HCHDT,133.7,T*2F
2025-07-03 12:14:12,504 - [SERIAL] $GPMDA,30.229,I,1.0237,B,,C,,C,,,,C,,T,,M,,N,,M*00
2025-07-03 12:14:12,505 - [SERIAL] $IIMMB,30.229,I,1.0237,B*44
2025-07-03 12:14:13,105 - [NMEA][UDP] $GNGGA,101413.000,4805.8103,N,00142.5152,W,1,16,0.8,31.7,M,48.3,M,,*64
2025-07-03 12:14:13,105 - [NMEA][UDP] $GNGGA,101413.000,4805.8103,N,00142.5152,W,1,16,0.8,31.7,M,48.3,M,,*64
2025-07-03 12:14:13,106 - [NMEA][UDP] $GNGGA,101413.000,4805.8103,N,00142.5152,W,1,16,0.8,31.7,M,48.3,M,,*64
2025-07-03 12:14:13,106 - [NMEA][UDP] $GNGGA,101413.000,4805.8103,N,00142.5152,W,1,16,0.8,31.7,M,48.3,M,,*64
2025-07-03 12:14:13,106 - [NMEA][UDP] $GNGGA,101413.000,4805.8103,N,00142.5152,W,1,16,0.8,31.7,M,48.3,M,,*64
2025-07-03 12:14:13,107 - [NMEA][UDP] $GNGGA,101413.000,4805.8103,N,00142.5152,W,1,16,0.8,31.7,M,48.3,M,,*64
2025-07-03 12:14:13,108 - [NMEA][UDP] $GNGGA,101413.000,4805.8103,N,00142.5152,W,1,16,0.8,31.7,M,48.3,M,,*64
2025-07-03 12:14:13,108 - [NMEA][UDP] $GNGGA,101413.000,4805.8103,N,00142.5152,W,1,16,0.8,31.7,M,48.3,M,,*64
2025-07-03 12:14:13,109 - [NMEA][UDP] $GNGLL,4805.8103,N,00142.5152,W,101413.000,A,A*54
2025-07-03 12:14:13,110 - [NMEA][UDP] $GNGLL,4805.8103,N,00142.5152,W,101413.000,A,A*54
2025-07-03 12:14:13,111 - [NMEA][UDP] $GNGLL,4805.8103,N,00142.5152,W,101413.000,A,A*54
2025-07-03 12:14:13,112 - [NMEA][UDP] $GNGLL,4805.8103,N,00142.5152,W,101413.000,A,A*54
2025-07-03 12:14:13,112 - [NMEA][UDP] $GNGLL,4805.8103,N,00142.5152,W,101413.000,A,A*54
2025-07-03 12:14:13,113 - [NMEA][UDP] $GNGLL,4805.8103,N,00142.5152,W,101413.000,A,A*54
2025-07-03 12:14:13,114 - [NMEA][UDP] $GNGLL,4805.8103,N,00142.5152,W,101413.000,A,A*54
2025-07-03 12:14:13,114 - [NMEA][UDP] $GNGLL,4805.8103,N,00142.5152,W,101413.000,A,A*54
2025-07-03 12:14:13,114 - [NMEA][UDP] $GNVTG,305.1,T,,M,0.0,N,0.0,K,A*14
2025-07-03 12:14:13,115 - [NMEA][UDP] $GNVTG,305.1,T,,M,0.0,N,0.0,K,A*14
2025-07-03 12:14:13,115 - [NMEA][UDP] $GNVTG,305.1,T,,M,0.0,N,0.0,K,A*14
2025-07-03 12:14:13,116 - [NMEA][UDP] $GNVTG,305.1,T,,M,0.0,N,0.0,K,A*14
2025-07-03 12:14:13,117 - [NMEA][UDP] $GNVTG,305.1,T,,M,0.0,N,0.0,K,A*14
2025-07-03 12:14:13,117 - [NMEA][UDP] $GNVTG,305.1,T,,M,0.0,N,0.0,K,A*14
2025-07-03 12:14:13,118 - [NMEA][UDP] $GNVTG,305.1,T,,M,0.0,N,0.0,K,A*14
2025-07-03 12:14:13,118 - [NMEA][UDP] $GNVTG,305.1,T,,M,0.0,N,0.0,K,A*14
2025-07-03 12:14:13,121 - [NMEA][UDP] $GNRMC,101413.000,A,4805.8103,N,00142.5152,W,0.0,,030725,,,A*4E
2025-07-03 12:14:13,122 - [NMEA][UDP] $GNRMC,101413.000,A,4805.8103,N,00142.5152,W,0.0,,030725,,,A*4E
2025-07-03 12:14:13,122 - [NMEA][UDP] $GNRMC,101413.000,A,4805.8103,N,00142.5152,W,0.0,,030725,,,A*4E
2025-07-03 12:14:13,123 - [NMEA][UDP] $GNRMC,101413.000,A,4805.8103,N,00142.5152,W,0.0,,030725,,,A*4E
2025-07-03 12:14:13,123 - [NMEA][UDP] $GNRMC,101413.000,A,4805.8103,N,00142.5152,W,0.0,,030725,,,A*4E
2025-07-03 12:14:13,124 - [NMEA][UDP] $GNRMC,101413.000,A,4805.8103,N,00142.5152,W,0.0,,030725,,,A*4E
2025-07-03 12:14:13,124 - [NMEA][UDP] $GNRMC,101413.000,A,4805.8103,N,00142.5152,W,0.0,,030725,,,A*4E
2025-07-03 12:14:13,124 - [NMEA][UDP] $GNRMC,101413.000,A,4805.8103,N,00142.5152,W,0.0,,030725,,,A*4E
2025-07-03 12:14:13,491 - [SERIAL] $GPRMC,083935,A,4805.8117,N,00142.52219,W,000.0,,030725,,,A*77
2025-07-03 12:14:13,501 - [SERIAL] $GPGGA,083935,4805.8117,N,00142.52219,W,1,00,,83.000,M,,M,,*63
2025-07-03 12:14:13,508 - [SERIAL] $HCHDG,132.9,,,000.8,E*28
2025-07-03 12:14:13,508 - [SERIAL] $HCHDT,133.7,T*2F
2025-07-03 12:14:13,509 - [SERIAL] $GPMDA,30.229,I,1.0237,B,,C,,C,,,,C,,T,,M,,N,,M*00
2025-07-03 12:14:13,510 - [SERIAL] $IIMMB,30.229,I,1.0237,B*44
2025-07-03 12:14:14,072 - [NMEA][UDP] $GNGGA,101414.000,4805.8103,N,00142.5152,W,1,16,0.8,31.7,M,48.3,M,,*63
2025-07-03 12:14:14,072 - [NMEA][UDP] $GNGGA,101414.000,4805.8103,N,00142.5152,W,1,16,0.8,31.7,M,48.3,M,,*63
2025-07-03 12:14:14,072 - [NMEA][UDP] $GNGGA,101414.000,4805.8103,N,00142.5152,W,1,16,0.8,31.7,M,48.3,M,,*63
2025-07-03 12:14:14,072 - [NMEA][UDP] $GNGGA,101414.000,4805.8103,N,00142.5152,W,1,16,0.8,31.7,M,48.3,M,,*63
2025-07-03 12:14:14,072 - [NMEA][UDP] $GNGGA,101414.000,4805.8103,N,00142.5152,W,1,16,0.8,31.7,M,48.3,M,,*63
2025-07-03 12:14:14,073 - [NMEA][UDP] $GNGGA,101414.000,4805.8103,N,00142.5152,W,1,16,0.8,31.7,M,48.3,M,,*63
2025-07-03 12:14:14,073 - [NMEA][UDP] $GNGGA,101414.000,4805.8103,N,00142.5152,W,1,16,0.8,31.7,M,48.3,M,,*63
2025-07-03 12:14:14,073 - [NMEA][UDP] $GNGGA,101414.000,4805.8103,N,00142.5152,W,1,16,0.8,31.7,M,48.3,M,,*63
2025-07-03 12:14:14,077 - [NMEA][UDP] $GNGLL,4805.8103,N,00142.5152,W,101414.000,A,A*53
2025-07-03 12:14:14,077 - [NMEA][UDP] $GNGLL,4805.8103,N,00142.5152,W,101414.000,A,A*53
2025-07-03 12:14:14,077 - [NMEA][UDP] $GNGLL,4805.8103,N,00142.5152,W,101414.000,A,A*53
2025-07-03 12:14:14,077 - [NMEA][UDP] $GNGLL,4805.8103,N,00142.5152,W,101414.000,A,A*53
2025-07-03 12:14:14,077 - [NMEA][UDP] $GNGLL,4805.8103,N,00142.5152,W,101414.000,A,A*53
2025-07-03 12:14:14,077 - [NMEA][UDP] $GNGLL,4805.8103,N,00142.5152,W,101414.000,A,A*53
2025-07-03 12:14:14,078 - [NMEA][UDP] $GNGLL,4805.8103,N,00142.5152,W,101414.000,A,A*53
2025-07-03 12:14:14,078 - [NMEA][UDP] $GNGLL,4805.8103,N,00142.5152,W,101414.000,A,A*53
2025-07-03 12:14:14,078 - [NMEA][UDP] $GNVTG,305.1,T,,M,0.0,N,0.0,K,A*14
2025-07-03 12:14:14,078 - [NMEA][UDP] $GNVTG,305.1,T,,M,0.0,N,0.0,K,A*14
2025-07-03 12:14:14,078 - [NMEA][UDP] $GNVTG,305.1,T,,M,0.0,N,0.0,K,A*14
2025-07-03 12:14:14,078 - [NMEA][UDP] $GNVTG,305.1,T,,M,0.0,N,0.0,K,A*14
2025-07-03 12:14:14,078 - [NMEA][UDP] $GNVTG,305.1,T,,M,0.0,N,0.0,K,A*14
2025-07-03 12:14:14,078 - [NMEA][UDP] $GNVTG,305.1,T,,M,0.0,N,0.0,K,A*14
2025-07-03 12:14:14,078 - [NMEA][UDP] $GNVTG,305.1,T,,M,0.0,N,0.0,K,A*14
2025-07-03 12:14:14,078 - [NMEA][UDP] $GNVTG,305.1,T,,M,0.0,N,0.0,K,A*14
2025-07-03 12:14:14,116 - [NMEA][UDP] $GNRMC,101414.000,A,4805.8103,N,00142.5152,W,0.0,,030725,,,A*49
2025-07-03 12:14:14,116 - [NMEA][UDP] $GNRMC,101414.000,A,4805.8103,N,00142.5152,W,0.0,,030725,,,A*49
2025-07-03 12:14:14,116 - [NMEA][UDP] $GNRMC,101414.000,A,4805.8103,N,00142.5152,W,0.0,,030725,,,A*49
2025-07-03 12:14:14,116 - [NMEA][UDP] $GNRMC,101414.000,A,4805.8103,N,00142.5152,W,0.0,,030725,,,A*49
2025-07-03 12:14:14,116 - [NMEA][UDP] $GNRMC,101414.000,A,4805.8103,N,00142.5152,W,0.0,,030725,,,A*49
2025-07-03 12:14:14,117 - [NMEA][UDP] $GNRMC,101414.000,A,4805.8103,N,00142.5152,W,0.0,,030725,,,A*49
2025-07-03 12:14:14,117 - [NMEA][UDP] $GNRMC,101414.000,A,4805.8103,N,00142.5152,W,0.0,,030725,,,A*49
2025-07-03 12:14:14,117 - [NMEA][UDP] $GNRMC,101414.000,A,4805.8103,N,00142.5152,W,0.0,,030725,,,A*49
2025-07-03 12:14:14,510 - [SERIAL] $GPRMC,083935,A,4805.8117,N,00142.52219,W,000.0,,030725,,,A*77
2025-07-03 12:14:14,521 - [SERIAL] $GPGGA,083935,4805.8117,N,00142.52219,W,1,00,,83.000,M,,M,,*63
2025-07-03 12:14:14,526 - [SERIAL] $HCHDG,132.9,,,000.8,E*28
2025-07-03 12:14:14,527 - [SERIAL] $HCHDT,133.7,T*2F
2025-07-03 12:14:14,529 - [SERIAL] $GPMDA,30.229,I,1.0237,B,,C,,C,,,,C,,T,,M,,N,,M*00
2025-07-03 12:14:14,529 - [SERIAL] $IIMMB,30.229,I,1.0237,B*44
2025-07-03 12:14:15,086 - [NMEA][UDP] $GNGGA,101415.000,4805.8103,N,00142.5152,W,1,16,0.8,31.7,M,48.3,M,,*62
2025-07-03 12:14:15,087 - [NMEA][UDP] $GNGGA,101415.000,4805.8103,N,00142.5152,W,1,16,0.8,31.7,M,48.3,M,,*62
2025-07-03 12:14:15,087 - [NMEA][UDP] $GNGGA,101415.000,4805.8103,N,00142.5152,W,1,16,0.8,31.7,M,48.3,M,,*62
2025-07-03 12:14:15,087 - [NMEA][UDP] $GNGGA,101415.000,4805.8103,N,00142.5152,W,1,16,0.8,31.7,M,48.3,M,,*62
2025-07-03 12:14:15,087 - [NMEA][UDP] $GNGGA,101415.000,4805.8103,N,00142.5152,W,1,16,0.8,31.7,M,48.3,M,,*62
2025-07-03 12:14:15,087 - [NMEA][UDP] $GNGGA,101415.000,4805.8103,N,00142.5152,W,1,16,0.8,31.7,M,48.3,M,,*62
2025-07-03 12:14:15,087 - [NMEA][UDP] $GNGGA,101415.000,4805.8103,N,00142.5152,W,1,16,0.8,31.7,M,48.3,M,,*62
2025-07-03 12:14:15,088 - [NMEA][UDP] $GNGGA,101415.000,4805.8103,N,00142.5152,W,1,16,0.8,31.7,M,48.3,M,,*62
2025-07-03 12:14:15,088 - [NMEA][UDP] $GNGLL,4805.8103,N,00142.5152,W,101415.000,A,A*52
2025-07-03 12:14:15,088 - [NMEA][UDP] $GNGLL,4805.8103,N,00142.5152,W,101415.000,A,A*52
2025-07-03 12:14:15,088 - [NMEA][UDP] $GNGLL,4805.8103,N,00142.5152,W,101415.000,A,A*52
2025-07-03 12:14:15,088 - [NMEA][UDP] $GNGLL,4805.8103,N,00142.5152,W,101415.000,A,A*52
2025-07-03 12:14:15,088 - [NMEA][UDP] $GNGLL,4805.8103,N,00142.5152,W,101415.000,A,A*52
2025-07-03 12:14:15,088 - [NMEA][UDP] $GNGLL,4805.8103,N,00142.5152,W,101415.000,A,A*52
2025-07-03 12:14:15,088 - [NMEA][UDP] $GNGLL,4805.8103,N,00142.5152,W,101415.000,A,A*52
2025-07-03 12:14:15,089 - [NMEA][UDP] $GNGLL,4805.8103,N,00142.5152,W,101415.000,A,A*52
2025-07-03 12:14:15,089 - [NMEA][UDP] $GNVTG,305.1,T,,M,0.0,N,0.0,K,A*14
2025-07-03 12:14:15,089 - [NMEA][UDP] $GNVTG,305.1,T,,M,0.0,N,0.0,K,A*14
2025-07-03 12:14:15,089 - [NMEA][UDP] $GNVTG,305.1,T,,M,0.0,N,0.0,K,A*14
2025-07-03 12:14:15,089 - [NMEA][UDP] $GNVTG,305.1,T,,M,0.0,N,0.0,K,A*14
2025-07-03 12:14:15,089 - [NMEA][UDP] $GNVTG,305.1,T,,M,0.0,N,0.0,K,A*14
2025-07-03 12:14:15,089 - [NMEA][UDP] $GNVTG,305.1,T,,M,0.0,N,0.0,K,A*14
2025-07-03 12:14:15,090 - [NMEA][UDP] $GNVTG,305.1,T,,M,0.0,N,0.0,K,A*14
2025-07-03 12:14:15,090 - [NMEA][UDP] $GNVTG,305.1,T,,M,0.0,N,0.0,K,A*14
2025-07-03 12:14:15,120 - [NMEA][UDP] $GNRMC,101415.000,A,4805.8103,N,00142.5152,W,0.0,,030725,,,A*48
2025-07-03 12:14:15,120 - [NMEA][UDP] $GNRMC,101415.000,A,4805.8103,N,00142.5152,W,0.0,,030725,,,A*48
2025-07-03 12:14:15,121 - [NMEA][UDP] $GNRMC,101415.000,A,4805.8103,N,00142.5152,W,0.0,,030725,,,A*48
2025-07-03 12:14:15,121 - [NMEA][UDP] $GNRMC,101415.000,A,4805.8103,N,00142.5152,W,0.0,,030725,,,A*48
2025-07-03 12:14:15,121 - [NMEA][UDP] $GNRMC,101415.000,A,4805.8103,N,00142.5152,W,0.0,,030725,,,A*48
2025-07-03 12:14:15,121 - [NMEA][UDP] $GNRMC,101415.000,A,4805.8103,N,00142.5152,W,0.0,,030725,,,A*48
2025-07-03 12:14:15,121 - [NMEA][UDP] $GNRMC,101415.000,A,4805.8103,N,00142.5152,W,0.0,,030725,,,A*48
2025-07-03 12:14:15,121 - [NMEA][UDP] $GNRMC,101415.000,A,4805.8103,N,00142.5152,W,0.0,,030725,,,A*48
2025-07-03 12:14:15,521 - [SERIAL] $GPRMC,083935,A,4805.8117,N,00142.52219,W,000.0,,030725,,,A*77
2025-07-03 12:14:15,565 - [SERIAL] $GPGGA,083935,4805.8117,N,00142.52219,W,1,00,,83.000,M,,M,,*63
2025-07-03 12:14:15,568 - [SERIAL] $HCHDG,132.9,,,000.8,E*28
2025-07-03 12:14:15,569 - [SERIAL] $HCHDT,133.7,T*2F
2025-07-03 12:14:15,570 - [SERIAL] $GPMDA,30.229,I,1.0237,B,,C,,C,,,,C,,T,,M,,N,,M*00
2025-07-03 12:14:15,571 - [SERIAL] $IIMMB,30.229,I,1.0237,B*44
2025-07-03 12:14:16,177 - [NMEA][UDP] $GNGGA,101416.000,4805.8103,N,00142.5152,W,1,18,0.8,31.7,M,48.3,M,,*6F
2025-07-03 12:14:16,177 - [NMEA][UDP] $GNGGA,101416.000,4805.8103,N,00142.5152,W,1,18,0.8,31.7,M,48.3,M,,*6F
2025-07-03 12:14:16,177 - [NMEA][UDP] $GNGGA,101416.000,4805.8103,N,00142.5152,W,1,18,0.8,31.7,M,48.3,M,,*6F
2025-07-03 12:14:16,178 - [NMEA][UDP] $GNGGA,101416.000,4805.8103,N,00142.5152,W,1,18,0.8,31.7,M,48.3,M,,*6F
2025-07-03 12:14:16,178 - [NMEA][UDP] $GNGGA,101416.000,4805.8103,N,00142.5152,W,1,18,0.8,31.7,M,48.3,M,,*6F
2025-07-03 12:14:16,178 - [NMEA][UDP] $GNGGA,101416.000,4805.8103,N,00142.5152,W,1,18,0.8,31.7,M,48.3,M,,*6F
2025-07-03 12:14:16,178 - [NMEA][UDP] $GNGGA,101416.000,4805.8103,N,00142.5152,W,1,18,0.8,31.7,M,48.3,M,,*6F
2025-07-03 12:14:16,178 - [NMEA][UDP] $GNGGA,101416.000,4805.8103,N,00142.5152,W,1,18,0.8,31.7,M,48.3,M,,*6F
2025-07-03 12:14:16,178 - [NMEA][UDP] $GNGLL,4805.8103,N,00142.5152,W,101416.000,A,A*51
2025-07-03 12:14:16,178 - [NMEA][UDP] $GNGLL,4805.8103,N,00142.5152,W,101416.000,A,A*51
2025-07-03 12:14:16,179 - [NMEA][UDP] $GNGLL,4805.8103,N,00142.5152,W,101416.000,A,A*51
2025-07-03 12:14:16,179 - [NMEA][UDP] $GNGLL,4805.8103,N,00142.5152,W,101416.000,A,A*51
2025-07-03 12:14:16,179 - [NMEA][UDP] $GNGLL,4805.8103,N,00142.5152,W,101416.000,A,A*51
2025-07-03 12:14:16,179 - [NMEA][UDP] $GNGLL,4805.8103,N,00142.5152,W,101416.000,A,A*51
2025-07-03 12:14:16,179 - [NMEA][UDP] $GNGLL,4805.8103,N,00142.5152,W,101416.000,A,A*51
2025-07-03 12:14:16,179 - [NMEA][UDP] $GNGLL,4805.8103,N,00142.5152,W,101416.000,A,A*51
2025-07-03 12:14:16,179 - [NMEA][UDP] $GNVTG,305.1,T,,M,0.0,N,0.0,K,A*14
2025-07-03 12:14:16,179 - [NMEA][UDP] $GNVTG,305.1,T,,M,0.0,N,0.0,K,A*14
2025-07-03 12:14:16,180 - [NMEA][UDP] $GNVTG,305.1,T,,M,0.0,N,0.0,K,A*14
2025-07-03 12:14:16,180 - [NMEA][UDP] $GNVTG,305.1,T,,M,0.0,N,0.0,K,A*14
2025-07-03 12:14:16,180 - [NMEA][UDP] $GNVTG,305.1,T,,M,0.0,N,0.0,K,A*14
2025-07-03 12:14:16,180 - [NMEA][UDP] $GNVTG,305.1,T,,M,0.0,N,0.0,K,A*14
2025-07-03 12:14:16,180 - [NMEA][UDP] $GNVTG,305.1,T,,M,0.0,N,0.0,K,A*14
2025-07-03 12:14:16,181 - [NMEA][UDP] $GNVTG,305.1,T,,M,0.0,N,0.0,K,A*14
2025-07-03 12:14:16,187 - [NMEA][UDP] $GNRMC,101416.000,A,4805.8103,N,00142.5152,W,0.0,,030725,,,A*4B
2025-07-03 12:14:16,187 - [NMEA][UDP] $GNRMC,101416.000,A,4805.8103,N,00142.5152,W,0.0,,030725,,,A*4B
2025-07-03 12:14:16,187 - [NMEA][UDP] $GNRMC,101416.000,A,4805.8103,N,00142.5152,W,0.0,,030725,,,A*4B
2025-07-03 12:14:16,187 - [NMEA][UDP] $GNRMC,101416.000,A,4805.8103,N,00142.5152,W,0.0,,030725,,,A*4B
2025-07-03 12:14:16,187 - [NMEA][UDP] $GNRMC,101416.000,A,4805.8103,N,00142.5152,W,0.0,,030725,,,A*4B
2025-07-03 12:14:16,187 - [NMEA][UDP] $GNRMC,101416.000,A,4805.8103,N,00142.5152,W,0.0,,030725,,,A*4B
2025-07-03 12:14:16,188 - [NMEA][UDP] $GNRMC,101416.000,A,4805.8103,N,00142.5152,W,0.0,,030725,,,A*4B
2025-07-03 12:14:16,188 - [NMEA][UDP] $GNRMC,101416.000,A,4805.8103,N,00142.5152,W,0.0,,030725,,,A*4B
2025-07-03 12:14:16,529 - [SERIAL] $GPRMC,083935,A,4805.8117,N,00142.52219,W,000.0,,030725,,,A*77
2025-07-03 12:14:16,538 - [SERIAL] $GPGGA,083935,4805.8117,N,00142.52219,W,1,00,,83.000,M,,M,,*63
2025-07-03 12:14:16,542 - [SERIAL] $HCHDG,132.9,,,000.8,E*28
2025-07-03 12:14:16,544 - [SERIAL] $HCHDT,133.7,T*2F
2025-07-03 12:14:16,546 - [SERIAL] $GPMDA,30.229,I,1.0237,B,,C,,C,,,,C,,T,,M,,N,,M*00
2025-07-03 12:14:16,548 - [SERIAL] $IIMMB,30.229,I,1.0237,B*44
2025-07-03 12:14:17,073 - [NMEA][UDP] $GNGGA,101417.000,4805.8103,N,00142.5152,W,1,16,0.8,31.7,M,48.3,M,,*60
2025-07-03 12:14:17,073 - [NMEA][UDP] $GNGGA,101417.000,4805.8103,N,00142.5152,W,1,16,0.8,31.7,M,48.3,M,,*60
2025-07-03 12:14:17,073 - [NMEA][UDP] $GNGGA,101417.000,4805.8103,N,00142.5152,W,1,16,0.8,31.7,M,48.3,M,,*60
2025-07-03 12:14:17,074 - [NMEA][UDP] $GNGGA,101417.000,4805.8103,N,00142.5152,W,1,16,0.8,31.7,M,48.3,M,,*60
2025-07-03 12:14:17,074 - [NMEA][UDP] $GNGGA,101417.000,4805.8103,N,00142.5152,W,1,16,0.8,31.7,M,48.3,M,,*60
2025-07-03 12:14:17,074 - [NMEA][UDP] $GNGGA,101417.000,4805.8103,N,00142.5152,W,1,16,0.8,31.7,M,48.3,M,,*60
2025-07-03 12:14:17,074 - [NMEA][UDP] $GNGGA,101417.000,4805.8103,N,00142.5152,W,1,16,0.8,31.7,M,48.3,M,,*60
2025-07-03 12:14:17,074 - [NMEA][UDP] $GNGGA,101417.000,4805.8103,N,00142.5152,W,1,16,0.8,31.7,M,48.3,M,,*60
2025-07-03 12:14:17,075 - [NMEA][UDP] $GNGLL,4805.8103,N,00142.5152,W,101417.000,A,A*50
2025-07-03 12:14:17,075 - [NMEA][UDP] $GNGLL,4805.8103,N,00142.5152,W,101417.000,A,A*50
2025-07-03 12:14:17,076 - [NMEA][UDP] $GNGLL,4805.8103,N,00142.5152,W,101417.000,A,A*50
2025-07-03 12:14:17,076 - [NMEA][UDP] $GNGLL,4805.8103,N,00142.5152,W,101417.000,A,A*50
2025-07-03 12:14:17,076 - [NMEA][UDP] $GNGLL,4805.8103,N,00142.5152,W,101417.000,A,A*50
2025-07-03 12:14:17,076 - [NMEA][UDP] $GNGLL,4805.8103,N,00142.5152,W,101417.000,A,A*50
2025-07-03 12:14:17,077 - [NMEA][UDP] $GNGLL,4805.8103,N,00142.5152,W,101417.000,A,A*50
2025-07-03 12:14:17,077 - [NMEA][UDP] $GNGLL,4805.8103,N,00142.5152,W,101417.000,A,A*50
2025-07-03 12:14:17,081 - [NMEA][UDP] $GNVTG,305.1,T,,M,0.0,N,0.0,K,A*14
2025-07-03 12:14:17,081 - [NMEA][UDP] $GNVTG,305.1,T,,M,0.0,N,0.0,K,A*14
2025-07-03 12:14:17,081 - [NMEA][UDP] $GNVTG,305.1,T,,M,0.0,N,0.0,K,A*14
2025-07-03 12:14:17,081 - [NMEA][UDP] $GNVTG,305.1,T,,M,0.0,N,0.0,K,A*14
2025-07-03 12:14:17,082 - [NMEA][UDP] $GNVTG,305.1,T,,M,0.0,N,0.0,K,A*14
2025-07-03 12:14:17,082 - [NMEA][UDP] $GNVTG,305.1,T,,M,0.0,N,0.0,K,A*14
2025-07-03 12:14:17,082 - [NMEA][UDP] $GNVTG,305.1,T,,M,0.0,N,0.0,K,A*14
2025-07-03 12:14:17,082 - [NMEA][UDP] $GNVTG,305.1,T,,M,0.0,N,0.0,K,A*14
2025-07-03 12:14:17,107 - [NMEA][UDP] $GNRMC,101417.000,A,4805.8103,N,00142.5152,W,0.0,,030725,,,A*4A
2025-07-03 12:14:17,107 - [NMEA][UDP] $GNRMC,101417.000,A,4805.8103,N,00142.5152,W,0.0,,030725,,,A*4A
2025-07-03 12:14:17,107 - [NMEA][UDP] $GNRMC,101417.000,A,4805.8103,N,00142.5152,W,0.0,,030725,,,A*4A
2025-07-03 12:14:17,107 - [NMEA][UDP] $GNRMC,101417.000,A,4805.8103,N,00142.5152,W,0.0,,030725,,,A*4A
2025-07-03 12:14:17,107 - [NMEA][UDP] $GNRMC,101417.000,A,4805.8103,N,00142.5152,W,0.0,,030725,,,A*4A
2025-07-03 12:14:17,107 - [NMEA][UDP] $GNRMC,101417.000,A,4805.8103,N,00142.5152,W,0.0,,030725,,,A*4A
2025-07-03 12:14:17,108 - [NMEA][UDP] $GNRMC,101417.000,A,4805.8103,N,00142.5152,W,0.0,,030725,,,A*4A
2025-07-03 12:14:17,108 - [NMEA][UDP] $GNRMC,101417.000,A,4805.8103,N,00142.5152,W,0.0,,030725,,,A*4A
2025-07-03 12:14:17,547 - [SERIAL] $GPRMC,083935,A,4805.8117,N,00142.52219,W,000.0,,030725,,,A*77
2025-07-03 12:14:17,556 - [SERIAL] $GPGGA,083935,4805.8117,N,00142.52219,W,1,00,,83.000,M,,M,,*63
2025-07-03 12:14:17,557 - [SERIAL] $HCHDG,132.9,,,000.8,E*28
2025-07-03 12:14:17,558 - [SERIAL] $HCHDT,133.7,T*2F
2025-07-03 12:14:17,558 - [SERIAL] $GPMDA,30.229,I,1.0237,B,,C,,C,,,,C,,T,,M,,N,,M*00
2025-07-03 12:14:17,559 - [SERIAL] $IIMMB,30.229,I,1.0237,B*44
2025-07-03 12:14:18,085 - [NMEA][UDP] $GNGGA,101418.000,4805.8103,N,00142.5152,W,1,18,0.8,31.7,M,48.3,M,,*61
2025-07-03 12:14:18,085 - [NMEA][UDP] $GNGGA,101418.000,4805.8103,N,00142.5152,W,1,18,0.8,31.7,M,48.3,M,,*61
2025-07-03 12:14:18,085 - [NMEA][UDP] $GNGGA,101418.000,4805.8103,N,00142.5152,W,1,18,0.8,31.7,M,48.3,M,,*61
2025-07-03 12:14:18,085 - [NMEA][UDP] $GNGGA,101418.000,4805.8103,N,00142.5152,W,1,18,0.8,31.7,M,48.3,M,,*61
2025-07-03 12:14:18,086 - [NMEA][UDP] $GNGGA,101418.000,4805.8103,N,00142.5152,W,1,18,0.8,31.7,M,48.3,M,,*61
2025-07-03 12:14:18,086 - [NMEA][UDP] $GNGGA,101418.000,4805.8103,N,00142.5152,W,1,18,0.8,31.7,M,48.3,M,,*61
2025-07-03 12:14:18,086 - [NMEA][UDP] $GNGGA,101418.000,4805.8103,N,00142.5152,W,1,18,0.8,31.7,M,48.3,M,,*61
2025-07-03 12:14:18,086 - [NMEA][UDP] $GNGGA,101418.000,4805.8103,N,00142.5152,W,1,18,0.8,31.7,M,48.3,M,,*61
2025-07-03 12:14:18,086 - [NMEA][UDP] $GNGLL,4805.8103,N,00142.5152,W,101418.000,A,A*5F
2025-07-03 12:14:18,086 - [NMEA][UDP] $GNGLL,4805.8103,N,00142.5152,W,101418.000,A,A*5F
2025-07-03 12:14:18,086 - [NMEA][UDP] $GNGLL,4805.8103,N,00142.5152,W,101418.000,A,A*5F
2025-07-03 12:14:18,087 - [NMEA][UDP] $GNGLL,4805.8103,N,00142.5152,W,101418.000,A,A*5F
2025-07-03 12:14:18,087 - [NMEA][UDP] $GNGLL,4805.8103,N,00142.5152,W,101418.000,A,A*5F
2025-07-03 12:14:18,087 - [NMEA][UDP] $GNGLL,4805.8103,N,00142.5152,W,101418.000,A,A*5F
2025-07-03 12:14:18,087 - [NMEA][UDP] $GNGLL,4805.8103,N,00142.5152,W,101418.000,A,A*5F
2025-07-03 12:14:18,087 - [NMEA][UDP] $GNGLL,4805.8103,N,00142.5152,W,101418.000,A,A*5F
2025-07-03 12:14:18,087 - [NMEA][UDP] $GNVTG,305.1,T,,M,0.0,N,0.0,K,A*14
2025-07-03 12:14:18,087 - [NMEA][UDP] $GNVTG,305.1,T,,M,0.0,N,0.0,K,A*14
2025-07-03 12:14:18,088 - [NMEA][UDP] $GNVTG,305.1,T,,M,0.0,N,0.0,K,A*14
2025-07-03 12:14:18,088 - [NMEA][UDP] $GNVTG,305.1,T,,M,0.0,N,0.0,K,A*14
2025-07-03 12:14:18,088 - [NMEA][UDP] $GNVTG,305.1,T,,M,0.0,N,0.0,K,A*14
2025-07-03 12:14:18,089 - [NMEA][UDP] $GNVTG,305.1,T,,M,0.0,N,0.0,K,A*14
2025-07-03 12:14:18,089 - [NMEA][UDP] $GNVTG,305.1,T,,M,0.0,N,0.0,K,A*14
2025-07-03 12:14:18,089 - [NMEA][UDP] $GNVTG,305.1,T,,M,0.0,N,0.0,K,A*14
2025-07-03 12:14:18,127 - [NMEA][UDP] $GNRMC,101418.000,A,4805.8103,N,00142.5152,W,0.0,,030725,,,A*45
2025-07-03 12:14:18,128 - [NMEA][UDP] $GNRMC,101418.000,A,4805.8103,N,00142.5152,W,0.0,,030725,,,A*45
2025-07-03 12:14:18,128 - [NMEA][UDP] $GNRMC,101418.000,A,4805.8103,N,00142.5152,W,0.0,,030725,,,A*45
2025-07-03 12:14:18,128 - [NMEA][UDP] $GNRMC,101418.000,A,4805.8103,N,00142.5152,W,0.0,,030725,,,A*45
2025-07-03 12:14:18,129 - [NMEA][UDP] $GNRMC,101418.000,A,4805.8103,N,00142.5152,W,0.0,,030725,,,A*45
2025-07-03 12:14:18,129 - [NMEA][UDP] $GNRMC,101418.000,A,4805.8103,N,00142.5152,W,0.0,,030725,,,A*45
2025-07-03 12:14:18,129 - [NMEA][UDP] $GNRMC,101418.000,A,4805.8103,N,00142.5152,W,0.0,,030725,,,A*45
2025-07-03 12:14:18,129 - [NMEA][UDP] $GNRMC,101418.000,A,4805.8103,N,00142.5152,W,0.0,,030725,,,A*45
2025-07-03 12:14:18,554 - [SERIAL] $GPRMC,083935,A,4805.8117,N,00142.52219,W,000.0,,030725,,,A*77
2025-07-03 12:14:18,565 - [SERIAL] $GPGGA,083935,4805.8117,N,00142.52219,W,1,00,,83.000,M,,M,,*63
2025-07-03 12:14:18,567 - [SERIAL] $HCHDG,132.9,,,000.8,E*28
2025-07-03 12:14:18,567 - [SERIAL] $HCHDT,133.7,T*2F
2025-07-03 12:14:18,568 - [SERIAL] $GPMDA,30.229,I,1.0237,B,,C,,C,,,,C,,T,,M,,N,,M*00
2025-07-03 12:14:18,568 - [SERIAL] $IIMMB,30.229,I,1.0237,B*44
2025-07-03 12:14:19,102 - [NMEA][UDP] $GNGGA,101419.000,4805.8103,N,00142.5152,W,1,17,0.8,31.7,M,48.3,M,,*6F
2025-07-03 12:14:19,102 - [NMEA][UDP] $GNGGA,101419.000,4805.8103,N,00142.5152,W,1,17,0.8,31.7,M,48.3,M,,*6F
2025-07-03 12:14:19,102 - [NMEA][UDP] $GNGGA,101419.000,4805.8103,N,00142.5152,W,1,17,0.8,31.7,M,48.3,M,,*6F
2025-07-03 12:14:19,102 - [NMEA][UDP] $GNGGA,101419.000,4805.8103,N,00142.5152,W,1,17,0.8,31.7,M,48.3,M,,*6F
2025-07-03 12:14:19,102 - [NMEA][UDP] $GNGGA,101419.000,4805.8103,N,00142.5152,W,1,17,0.8,31.7,M,48.3,M,,*6F
2025-07-03 12:14:19,102 - [NMEA][UDP] $GNGGA,101419.000,4805.8103,N,00142.5152,W,1,17,0.8,31.7,M,48.3,M,,*6F
2025-07-03 12:14:19,103 - [NMEA][UDP] $GNGGA,101419.000,4805.8103,N,00142.5152,W,1,17,0.8,31.7,M,48.3,M,,*6F
2025-07-03 12:14:19,103 - [NMEA][UDP] $GNGGA,101419.000,4805.8103,N,00142.5152,W,1,17,0.8,31.7,M,48.3,M,,*6F
2025-07-03 12:14:19,103 - [NMEA][UDP] $GNGLL,4805.8103,N,00142.5152,W,101419.000,A,A*5E
2025-07-03 12:14:19,103 - [NMEA][UDP] $GNGLL,4805.8103,N,00142.5152,W,101419.000,A,A*5E
2025-07-03 12:14:19,103 - [NMEA][UDP] $GNGLL,4805.8103,N,00142.5152,W,101419.000,A,A*5E
2025-07-03 12:14:19,103 - [NMEA][UDP] $GNGLL,4805.8103,N,00142.5152,W,101419.000,A,A*5E
2025-07-03 12:14:19,104 - [NMEA][UDP] $GNGLL,4805.8103,N,00142.5152,W,101419.000,A,A*5E
2025-07-03 12:14:19,104 - [NMEA][UDP] $GNGLL,4805.8103,N,00142.5152,W,101419.000,A,A*5E
2025-07-03 12:14:19,104 - [NMEA][UDP] $GNGLL,4805.8103,N,00142.5152,W,101419.000,A,A*5E
2025-07-03 12:14:19,104 - [NMEA][UDP] $GNGLL,4805.8103,N,00142.5152,W,101419.000,A,A*5E
2025-07-03 12:14:19,104 - [NMEA][UDP] $GNVTG,305.1,T,,M,0.0,N,0.0,K,A*14
2025-07-03 12:14:19,104 - [NMEA][UDP] $GNVTG,305.1,T,,M,0.0,N,0.0,K,A*14
2025-07-03 12:14:19,104 - [NMEA][UDP] $GNVTG,305.1,T,,M,0.0,N,0.0,K,A*14
2025-07-03 12:14:19,104 - [NMEA][UDP] $GNVTG,305.1,T,,M,0.0,N,0.0,K,A*14
2025-07-03 12:14:19,104 - [NMEA][UDP] $GNVTG,305.1,T,,M,0.0,N,0.0,K,A*14
2025-07-03 12:14:19,104 - [NMEA][UDP] $GNVTG,305.1,T,,M,0.0,N,0.0,K,A*14
2025-07-03 12:14:19,105 - [NMEA][UDP] $GNVTG,305.1,T,,M,0.0,N,0.0,K,A*14
2025-07-03 12:14:19,105 - [NMEA][UDP] $GNVTG,305.1,T,,M,0.0,N,0.0,K,A*14
2025-07-03 12:14:19,110 - [NMEA][UDP] $GNRMC,101419.000,A,4805.8103,N,00142.5152,W,0.0,,030725,,,A*44
2025-07-03 12:14:19,111 - [NMEA][UDP] $GNRMC,101419.000,A,4805.8103,N,00142.5152,W,0.0,,030725,,,A*44
2025-07-03 12:14:19,111 - [NMEA][UDP] $GNRMC,101419.000,A,4805.8103,N,00142.5152,W,0.0,,030725,,,A*44
2025-07-03 12:14:19,111 - [NMEA][UDP] $GNRMC,101419.000,A,4805.8103,N,00142.5152,W,0.0,,030725,,,A*44
2025-07-03 12:14:19,111 - [NMEA][UDP] $GNRMC,101419.000,A,4805.8103,N,00142.5152,W,0.0,,030725,,,A*44
2025-07-03 12:14:19,111 - [NMEA][UDP] $GNRMC,101419.000,A,4805.8103,N,00142.5152,W,0.0,,030725,,,A*44
2025-07-03 12:14:19,111 - [NMEA][UDP] $GNRMC,101419.000,A,4805.8103,N,00142.5152,W,0.0,,030725,,,A*44
2025-07-03 12:14:19,111 - [NMEA][UDP] $GNRMC,101419.000,A,4805.8103,N,00142.5152,W,0.0,,030725,,,A*44
2025-07-03 12:14:19,562 - [SERIAL] $GPRMC,083935,A,4805.8117,N,00142.52219,W,000.0,,030725,,,A*77
2025-07-03 12:14:19,564 - [SERIAL] $GPGGA,083935,4805.8117,N,00142.52219,W,1,00,,83.000,M,,M,,*63
2025-07-03 12:14:19,575 - [SERIAL] $HCHDG,132.9,,,000.8,E*28
2025-07-03 12:14:19,575 - [SERIAL] $HCHDT,133.7,T*2F
2025-07-03 12:14:19,576 - [SERIAL] $GPMDA,30.229,I,1.0237,B,,C,,C,,,,C,,T,,M,,N,,M*00
2025-07-03 12:14:19,576 - [SERIAL] $IIMMB,30.229,I,1.0237,B*44
2025-07-03 12:14:20,170 - [NMEA][UDP] $GNGGA,101420.000,4805.8103,N,00142.5152,W,1,17,0.8,31.7,M,48.3,M,,*65
2025-07-03 12:14:20,170 - [NMEA][UDP] $GNGGA,101420.000,4805.8103,N,00142.5152,W,1,17,0.8,31.7,M,48.3,M,,*65
2025-07-03 12:14:20,170 - [NMEA][UDP] $GNGGA,101420.000,4805.8103,N,00142.5152,W,1,17,0.8,31.7,M,48.3,M,,*65
2025-07-03 12:14:20,170 - [NMEA][UDP] $GNGGA,101420.000,4805.8103,N,00142.5152,W,1,17,0.8,31.7,M,48.3,M,,*65
2025-07-03 12:14:20,171 - [NMEA][UDP] $GNGGA,101420.000,4805.8103,N,00142.5152,W,1,17,0.8,31.7,M,48.3,M,,*65
2025-07-03 12:14:20,171 - [NMEA][UDP] $GNGGA,101420.000,4805.8103,N,00142.5152,W,1,17,0.8,31.7,M,48.3,M,,*65
2025-07-03 12:14:20,171 - [NMEA][UDP] $GNGGA,101420.000,4805.8103,N,00142.5152,W,1,17,0.8,31.7,M,48.3,M,,*65
2025-07-03 12:14:20,171 - [NMEA][UDP] $GNGGA,101420.000,4805.8103,N,00142.5152,W,1,17,0.8,31.7,M,48.3,M,,*65
2025-07-03 12:14:20,171 - [NMEA][UDP] $GNGLL,4805.8103,N,00142.5152,W,101420.000,A,A*54
2025-07-03 12:14:20,171 - [NMEA][UDP] $GNGLL,4805.8103,N,00142.5152,W,101420.000,A,A*54
2025-07-03 12:14:20,171 - [NMEA][UDP] $GNGLL,4805.8103,N,00142.5152,W,101420.000,A,A*54
2025-07-03 12:14:20,171 - [NMEA][UDP] $GNGLL,4805.8103,N,00142.5152,W,101420.000,A,A*54
2025-07-03 12:14:20,171 - [NMEA][UDP] $GNGLL,4805.8103,N,00142.5152,W,101420.000,A,A*54
2025-07-03 12:14:20,172 - [NMEA][UDP] $GNGLL,4805.8103,N,00142.5152,W,101420.000,A,A*54
2025-07-03 12:14:20,172 - [NMEA][UDP] $GNGLL,4805.8103,N,00142.5152,W,101420.000,A,A*54
2025-07-03 12:14:20,172 - [NMEA][UDP] $GNGLL,4805.8103,N,00142.5152,W,101420.000,A,A*54
2025-07-03 12:14:20,172 - [NMEA][UDP] $GNVTG,305.1,T,,M,0.0,N,0.0,K,A*14
2025-07-03 12:14:20,172 - [NMEA][UDP] $GNVTG,305.1,T,,M,0.0,N,0.0,K,A*14
2025-07-03 12:14:20,172 - [NMEA][UDP] $GNVTG,305.1,T,,M,0.0,N,0.0,K,A*14
2025-07-03 12:14:20,172 - [NMEA][UDP] $GNVTG,305.1,T,,M,0.0,N,0.0,K,A*14
2025-07-03 12:14:20,172 - [NMEA][UDP] $GNVTG,305.1,T,,M,0.0,N,0.0,K,A*14
2025-07-03 12:14:20,172 - [NMEA][UDP] $GNVTG,305.1,T,,M,0.0,N,0.0,K,A*14
2025-07-03 12:14:20,172 - [NMEA][UDP] $GNVTG,305.1,T,,M,0.0,N,0.0,K,A*14
2025-07-03 12:14:20,172 - [NMEA][UDP] $GNVTG,305.1,T,,M,0.0,N,0.0,K,A*14
2025-07-03 12:14:20,177 - [NMEA][UDP] $GNRMC,101420.000,A,4805.8103,N,00142.5152,W,0.0,,030725,,,A*4E
2025-07-03 12:14:20,178 - [NMEA][UDP] $GNRMC,101420.000,A,4805.8103,N,00142.5152,W,0.0,,030725,,,A*4E
2025-07-03 12:14:20,178 - [NMEA][UDP] $GNRMC,101420.000,A,4805.8103,N,00142.5152,W,0.0,,030725,,,A*4E
2025-07-03 12:14:20,178 - [NMEA][UDP] $GNRMC,101420.000,A,4805.8103,N,00142.5152,W,0.0,,030725,,,A*4E
2025-07-03 12:14:20,178 - [NMEA][UDP] $GNRMC,101420.000,A,4805.8103,N,00142.5152,W,0.0,,030725,,,A*4E
2025-07-03 12:14:20,178 - [NMEA][UDP] $GNRMC,101420.000,A,4805.8103,N,00142.5152,W,0.0,,030725,,,A*4E
2025-07-03 12:14:20,179 - [NMEA][UDP] $GNRMC,101420.000,A,4805.8103,N,00142.5152,W,0.0,,030725,,,A*4E
2025-07-03 12:14:20,179 - [NMEA][UDP] $GNRMC,101420.000,A,4805.8103,N,00142.5152,W,0.0,,030725,,,A*4E
2025-07-03 12:14:20,573 - [SERIAL] $GPRMC,083935,A,4805.8117,N,00142.52219,W,000.0,,030725,,,A*77
2025-07-03 12:14:20,581 - [SERIAL] $GPGGA,083935,4805.8117,N,00142.52219,W,1,00,,83.000,M,,M,,*63
2025-07-03 12:14:20,584 - [SERIAL] $HCHDG,132.9,,,000.8,E*28
2025-07-03 12:14:20,584 - [SERIAL] $HCHDT,133.7,T*2F
2025-07-03 12:14:20,585 - [SERIAL] $GPMDA,30.229,I,1.0237,B,,C,,C,,,,C,,T,,M,,N,,M*00
2025-07-03 12:14:20,586 - [SERIAL] $IIMMB,30.229,I,1.0237,B*44
2025-07-03 12:14:21,195 - [NMEA][UDP] $GNGGA,101421.000,4805.8103,N,00142.5152,W,1,17,0.8,31.7,M,48.3,M,,*64
2025-07-03 12:14:21,195 - [NMEA][UDP] $GNGGA,101421.000,4805.8103,N,00142.5152,W,1,17,0.8,31.7,M,48.3,M,,*64
2025-07-03 12:14:21,195 - [NMEA][UDP] $GNGGA,101421.000,4805.8103,N,00142.5152,W,1,17,0.8,31.7,M,48.3,M,,*64
2025-07-03 12:14:21,195 - [NMEA][UDP] $GNGGA,101421.000,4805.8103,N,00142.5152,W,1,17,0.8,31.7,M,48.3,M,,*64
2025-07-03 12:14:21,195 - [NMEA][UDP] $GNGGA,101421.000,4805.8103,N,00142.5152,W,1,17,0.8,31.7,M,48.3,M,,*64
2025-07-03 12:14:21,195 - [NMEA][UDP] $GNGGA,101421.000,4805.8103,N,00142.5152,W,1,17,0.8,31.7,M,48.3,M,,*64
2025-07-03 12:14:21,196 - [NMEA][UDP] $GNGGA,101421.000,4805.8103,N,00142.5152,W,1,17,0.8,31.7,M,48.3,M,,*64
2025-07-03 12:14:21,196 - [NMEA][UDP] $GNGGA,101421.000,4805.8103,N,00142.5152,W,1,17,0.8,31.7,M,48.3,M,,*64
2025-07-03 12:14:21,196 - [NMEA][UDP] $GNGLL,4805.8103,N,00142.5152,W,101421.000,A,A*55
2025-07-03 12:14:21,196 - [NMEA][UDP] $GNGLL,4805.8103,N,00142.5152,W,101421.000,A,A*55
2025-07-03 12:14:21,196 - [NMEA][UDP] $GNGLL,4805.8103,N,00142.5152,W,101421.000,A,A*55
2025-07-03 12:14:21,197 - [NMEA][UDP] $GNGLL,4805.8103,N,00142.5152,W,101421.000,A,A*55
2025-07-03 12:14:21,197 - [NMEA][UDP] $GNGLL,4805.8103,N,00142.5152,W,101421.000,A,A*55
2025-07-03 12:14:21,197 - [NMEA][UDP] $GNGLL,4805.8103,N,00142.5152,W,101421.000,A,A*55
2025-07-03 12:14:21,197 - [NMEA][UDP] $GNGLL,4805.8103,N,00142.5152,W,101421.000,A,A*55
2025-07-03 12:14:21,197 - [NMEA][UDP] $GNGLL,4805.8103,N,00142.5152,W,101421.000,A,A*55
2025-07-03 12:14:21,197 - [NMEA][UDP] $GNVTG,305.1,T,,M,0.0,N,0.0,K,A*14
2025-07-03 12:14:21,197 - [NMEA][UDP] $GNVTG,305.1,T,,M,0.0,N,0.0,K,A*14
2025-07-03 12:14:21,198 - [NMEA][UDP] $GNVTG,305.1,T,,M,0.0,N,0.0,K,A*14
2025-07-03 12:14:21,198 - [NMEA][UDP] $GNVTG,305.1,T,,M,0.0,N,0.0,K,A*14
2025-07-03 12:14:21,198 - [NMEA][UDP] $GNVTG,305.1,T,,M,0.0,N,0.0,K,A*14
2025-07-03 12:14:21,198 - [NMEA][UDP] $GNVTG,305.1,T,,M,0.0,N,0.0,K,A*14
2025-07-03 12:14:21,198 - [NMEA][UDP] $GNVTG,305.1,T,,M,0.0,N,0.0,K,A*14
2025-07-03 12:14:21,198 - [NMEA][UDP] $GNVTG,305.1,T,,M,0.0,N,0.0,K,A*14
2025-07-03 12:14:21,204 - [NMEA][UDP] $GNRMC,101421.000,A,4805.8103,N,00142.5152,W,0.0,,030725,,,A*4F
2025-07-03 12:14:21,205 - [NMEA][UDP] $GNRMC,101421.000,A,4805.8103,N,00142.5152,W,0.0,,030725,,,A*4F
2025-07-03 12:14:21,205 - [NMEA][UDP] $GNRMC,101421.000,A,4805.8103,N,00142.5152,W,0.0,,030725,,,A*4F
2025-07-03 12:14:21,205 - [NMEA][UDP] $GNRMC,101421.000,A,4805.8103,N,00142.5152,W,0.0,,030725,,,A*4F
2025-07-03 12:14:21,205 - [NMEA][UDP] $GNRMC,101421.000,A,4805.8103,N,00142.5152,W,0.0,,030725,,,A*4F
2025-07-03 12:14:21,205 - [NMEA][UDP] $GNRMC,101421.000,A,4805.8103,N,00142.5152,W,0.0,,030725,,,A*4F
2025-07-03 12:14:21,205 - [NMEA][UDP] $GNRMC,101421.000,A,4805.8103,N,00142.5152,W,0.0,,030725,,,A*4F
2025-07-03 12:14:21,205 - [NMEA][UDP] $GNRMC,101421.000,A,4805.8103,N,00142.5152,W,0.0,,030725,,,A*4F
2025-07-03 12:14:21,578 - [SERIAL] $GPRMC,083935,A,4805.8117,N,00142.52219,W,000.0,,030725,,,A*77
2025-07-03 12:14:21,587 - [SERIAL] $GPGGA,083935,4805.8117,N,00142.52219,W,1,00,,83.000,M,,M,,*63
2025-07-03 12:14:21,589 - [SERIAL] $HCHDG,132.9,,,000.8,E*28
2025-07-03 12:14:21,590 - [SERIAL] $HCHDT,133.7,T*2F
2025-07-03 12:14:21,591 - [SERIAL] $GPMDA,30.229,I,1.0237,B,,C,,C,,,,C,,T,,M,,N,,M*00
2025-07-03 12:14:21,592 - [SERIAL] $IIMMB,30.229,I,1.0237,B*44
2025-07-03 12:14:22,105 - [NMEA][UDP] $GNGGA,101422.000,4805.8103,N,00142.5152,W,1,16,0.8,31.7,M,48.3,M,,*66
2025-07-03 12:14:22,106 - [NMEA][UDP] $GNGGA,101422.000,4805.8103,N,00142.5152,W,1,16,0.8,31.7,M,48.3,M,,*66
2025-07-03 12:14:22,106 - [NMEA][UDP] $GNGGA,101422.000,4805.8103,N,00142.5152,W,1,16,0.8,31.7,M,48.3,M,,*66
2025-07-03 12:14:22,106 - [NMEA][UDP] $GNGGA,101422.000,4805.8103,N,00142.5152,W,1,16,0.8,31.7,M,48.3,M,,*66
2025-07-03 12:14:22,106 - [NMEA][UDP] $GNGGA,101422.000,4805.8103,N,00142.5152,W,1,16,0.8,31.7,M,48.3,M,,*66
2025-07-03 12:14:22,106 - [NMEA][UDP] $GNGGA,101422.000,4805.8103,N,00142.5152,W,1,16,0.8,31.7,M,48.3,M,,*66
2025-07-03 12:14:22,106 - [NMEA][UDP] $GNGGA,101422.000,4805.8103,N,00142.5152,W,1,16,0.8,31.7,M,48.3,M,,*66
2025-07-03 12:14:22,106 - [NMEA][UDP] $GNGGA,101422.000,4805.8103,N,00142.5152,W,1,16,0.8,31.7,M,48.3,M,,*66
2025-07-03 12:14:22,107 - [NMEA][UDP] $GNGLL,4805.8103,N,00142.5152,W,101422.000,A,A*56
2025-07-03 12:14:22,107 - [NMEA][UDP] $GNGLL,4805.8103,N,00142.5152,W,101422.000,A,A*56
2025-07-03 12:14:22,107 - [NMEA][UDP] $GNGLL,4805.8103,N,00142.5152,W,101422.000,A,A*56
2025-07-03 12:14:22,107 - [NMEA][UDP] $GNGLL,4805.8103,N,00142.5152,W,101422.000,A,A*56
2025-07-03 12:14:22,107 - [NMEA][UDP] $GNGLL,4805.8103,N,00142.5152,W,101422.000,A,A*56
2025-07-03 12:14:22,107 - [NMEA][UDP] $GNGLL,4805.8103,N,00142.5152,W,101422.000,A,A*56
2025-07-03 12:14:22,107 - [NMEA][UDP] $GNGLL,4805.8103,N,00142.5152,W,101422.000,A,A*56
2025-07-03 12:14:22,108 - [NMEA][UDP] $GNGLL,4805.8103,N,00142.5152,W,101422.000,A,A*56
2025-07-03 12:14:22,108 - [NMEA][UDP] $GNVTG,305.1,T,,M,0.0,N,0.0,K,A*14
2025-07-03 12:14:22,108 - [NMEA][UDP] $GNVTG,305.1,T,,M,0.0,N,0.0,K,A*14
2025-07-03 12:14:22,108 - [NMEA][UDP] $GNVTG,305.1,T,,M,0.0,N,0.0,K,A*14
2025-07-03 12:14:22,108 - [NMEA][UDP] $GNVTG,305.1,T,,M,0.0,N,0.0,K,A*14
2025-07-03 12:14:22,108 - [NMEA][UDP] $GNVTG,305.1,T,,M,0.0,N,0.0,K,A*14
2025-07-03 12:14:22,108 - [NMEA][UDP] $GNVTG,305.1,T,,M,0.0,N,0.0,K,A*14
2025-07-03 12:14:22,108 - [NMEA][UDP] $GNVTG,305.1,T,,M,0.0,N,0.0,K,A*14
2025-07-03 12:14:22,109 - [NMEA][UDP] $GNVTG,305.1,T,,M,0.0,N,0.0,K,A*14
2025-07-03 12:14:22,142 - [NMEA][UDP] $GNRMC,101422.000,A,4805.8103,N,00142.5152,W,0.0,,030725,,,A*4C
2025-07-03 12:14:22,142 - [NMEA][UDP] $GNRMC,101422.000,A,4805.8103,N,00142.5152,W,0.0,,030725,,,A*4C
2025-07-03 12:14:22,143 - [NMEA][UDP] $GNRMC,101422.000,A,4805.8103,N,00142.5152,W,0.0,,030725,,,A*4C
2025-07-03 12:14:22,143 - [NMEA][UDP] $GNRMC,101422.000,A,4805.8103,N,00142.5152,W,0.0,,030725,,,A*4C
2025-07-03 12:14:22,143 - [NMEA][UDP] $GNRMC,101422.000,A,4805.8103,N,00142.5152,W,0.0,,030725,,,A*4C
2025-07-03 12:14:22,143 - [NMEA][UDP] $GNRMC,101422.000,A,4805.8103,N,00142.5152,W,0.0,,030725,,,A*4C
2025-07-03 12:14:22,143 - [NMEA][UDP] $GNRMC,101422.000,A,4805.8103,N,00142.5152,W,0.0,,030725,,,A*4C
2025-07-03 12:14:22,143 - [NMEA][UDP] $GNRMC,101422.000,A,4805.8103,N,00142.5152,W,0.0,,030725,,,A*4C
2025-07-03 12:14:22,587 - [SERIAL] $GPRMC,083935,A,4805.8117,N,00142.52219,W,000.0,,030725,,,A*77
2025-07-03 12:14:22,590 - [SERIAL] $GPGGA,083935,4805.8117,N,00142.52219,W,1,00,,83.000,M,,M,,*63
2025-07-03 12:14:22,596 - [SERIAL] $HCHDG,132.9,,,000.8,E*28
2025-07-03 12:14:22,597 - [SERIAL] $HCHDT,133.7,T*2F
2025-07-03 12:14:22,597 - [SERIAL] $GPMDA,30.229,I,1.0237,B,,C,,C,,,,C,,T,,M,,N,,M*00
2025-07-03 12:14:22,598 - [SERIAL] $IIMMB,30.229,I,1.0237,B*44
2025-07-03 12:14:23,103 - [NMEA][UDP] $GNGGA,101423.000,4805.8103,N,00142.5152,W,1,17,0.8,31.7,M,48.3,M,,*66
2025-07-03 12:14:23,103 - [NMEA][UDP] $GNGGA,101423.000,4805.8103,N,00142.5152,W,1,17,0.8,31.7,M,48.3,M,,*66
2025-07-03 12:14:23,103 - [NMEA][UDP] $GNGGA,101423.000,4805.8103,N,00142.5152,W,1,17,0.8,31.7,M,48.3,M,,*66
2025-07-03 12:14:23,104 - [NMEA][UDP] $GNGGA,101423.000,4805.8103,N,00142.5152,W,1,17,0.8,31.7,M,48.3,M,,*66
2025-07-03 12:14:23,104 - [NMEA][UDP] $GNGGA,101423.000,4805.8103,N,00142.5152,W,1,17,0.8,31.7,M,48.3,M,,*66
2025-07-03 12:14:23,104 - [NMEA][UDP] $GNGGA,101423.000,4805.8103,N,00142.5152,W,1,17,0.8,31.7,M,48.3,M,,*66
2025-07-03 12:14:23,105 - [NMEA][UDP] $GNGGA,101423.000,4805.8103,N,00142.5152,W,1,17,0.8,31.7,M,48.3,M,,*66
2025-07-03 12:14:23,105 - [NMEA][UDP] $GNGGA,101423.000,4805.8103,N,00142.5152,W,1,17,0.8,31.7,M,48.3,M,,*66
2025-07-03 12:14:23,105 - [NMEA][UDP] $GNGLL,4805.8103,N,00142.5152,W,101423.000,A,A*57
2025-07-03 12:14:23,105 - [NMEA][UDP] $GNGLL,4805.8103,N,00142.5152,W,101423.000,A,A*57
2025-07-03 12:14:23,106 - [NMEA][UDP] $GNGLL,4805.8103,N,00142.5152,W,101423.000,A,A*57
2025-07-03 12:14:23,106 - [NMEA][UDP] $GNGLL,4805.8103,N,00142.5152,W,101423.000,A,A*57
2025-07-03 12:14:23,106 - [NMEA][UDP] $GNGLL,4805.8103,N,00142.5152,W,101423.000,A,A*57
2025-07-03 12:14:23,106 - [NMEA][UDP] $GNGLL,4805.8103,N,00142.5152,W,101423.000,A,A*57
2025-07-03 12:14:23,107 - [NMEA][UDP] $GNGLL,4805.8103,N,00142.5152,W,101423.000,A,A*57
2025-07-03 12:14:23,107 - [NMEA][UDP] $GNGLL,4805.8103,N,00142.5152,W,101423.000,A,A*57
2025-07-03 12:14:23,107 - [NMEA][UDP] $GNVTG,305.1,T,,M,0.0,N,0.0,K,A*14
2025-07-03 12:14:23,108 - [NMEA][UDP] $GNVTG,305.1,T,,M,0.0,N,0.0,K,A*14
2025-07-03 12:14:23,108 - [NMEA][UDP] $GNVTG,305.1,T,,M,0.0,N,0.0,K,A*14
2025-07-03 12:14:23,108 - [NMEA][UDP] $GNVTG,305.1,T,,M,0.0,N,0.0,K,A*14
2025-07-03 12:14:23,108 - [NMEA][UDP] $GNVTG,305.1,T,,M,0.0,N,0.0,K,A*14
2025-07-03 12:14:23,109 - [NMEA][UDP] $GNVTG,305.1,T,,M,0.0,N,0.0,K,A*14
2025-07-03 12:14:23,109 - [NMEA][UDP] $GNVTG,305.1,T,,M,0.0,N,0.0,K,A*14
2025-07-03 12:14:23,109 - [NMEA][UDP] $GNVTG,305.1,T,,M,0.0,N,0.0,K,A*14
2025-07-03 12:14:23,142 - [NMEA][UDP] $GNRMC,101423.000,A,4805.8103,N,00142.5152,W,0.0,,030725,,,A*4D
2025-07-03 12:14:23,142 - [NMEA][UDP] $GNRMC,101423.000,A,4805.8103,N,00142.5152,W,0.0,,030725,,,A*4D
2025-07-03 12:14:23,142 - [NMEA][UDP] $GNRMC,101423.000,A,4805.8103,N,00142.5152,W,0.0,,030725,,,A*4D
2025-07-03 12:14:23,142 - [NMEA][UDP] $GNRMC,101423.000,A,4805.8103,N,00142.5152,W,0.0,,030725,,,A*4D
2025-07-03 12:14:23,142 - [NMEA][UDP] $GNRMC,101423.000,A,4805.8103,N,00142.5152,W,0.0,,030725,,,A*4D
2025-07-03 12:14:23,143 - [NMEA][UDP] $GNRMC,101423.000,A,4805.8103,N,00142.5152,W,0.0,,030725,,,A*4D
2025-07-03 12:14:23,143 - [NMEA][UDP] $GNRMC,101423.000,A,4805.8103,N,00142.5152,W,0.0,,030725,,,A*4D
2025-07-03 12:14:23,143 - [NMEA][UDP] $GNRMC,101423.000,A,4805.8103,N,00142.5152,W,0.0,,030725,,,A*4D
2025-07-03 12:14:23,601 - [SERIAL] $GPRMC,083935,A,4805.8117,N,00142.52219,W,000.0,,030725,,,A*77
2025-07-03 12:14:23,604 - [SERIAL] $GPGGA,083935,4805.8117,N,00142.52219,W,1,00,,83.000,M,,M,,*63
2025-07-03 12:14:23,609 - [SERIAL] $HCHDG,132.9,,,000.8,E*28
2025-07-03 12:14:23,611 - [SERIAL] $HCHDT,133.7,T*2F
2025-07-03 12:14:23,613 - [SERIAL] $GPMDA,30.229,I,1.0237,B,,C,,C,,,,C,,T,,M,,N,,M*00
2025-07-03 12:14:23,615 - [SERIAL] $IIMMB,30.229,I,1.0237,B*44
2025-07-03 12:14:24,164 - [NMEA][UDP] $GNGGA,101424.000,4805.8103,N,00142.5152,W,1,16,0.8,31.7,M,48.3,M,,*60
2025-07-03 12:14:24,165 - [NMEA][UDP] $GNGGA,101424.000,4805.8103,N,00142.5152,W,1,16,0.8,31.7,M,48.3,M,,*60
2025-07-03 12:14:24,165 - [NMEA][UDP] $GNGGA,101424.000,4805.8103,N,00142.5152,W,1,16,0.8,31.7,M,48.3,M,,*60
2025-07-03 12:14:24,166 - [NMEA][UDP] $GNGGA,101424.000,4805.8103,N,00142.5152,W,1,16,0.8,31.7,M,48.3,M,,*60
2025-07-03 12:14:24,167 - [NMEA][UDP] $GNGGA,101424.000,4805.8103,N,00142.5152,W,1,16,0.8,31.7,M,48.3,M,,*60
2025-07-03 12:14:24,168 - [NMEA][UDP] $GNGGA,101424.000,4805.8103,N,00142.5152,W,1,16,0.8,31.7,M,48.3,M,,*60
2025-07-03 12:14:24,169 - [NMEA][UDP] $GNGGA,101424.000,4805.8103,N,00142.5152,W,1,16,0.8,31.7,M,48.3,M,,*60
2025-07-03 12:14:24,169 - [NMEA][UDP] $GNGGA,101424.000,4805.8103,N,00142.5152,W,1,16,0.8,31.7,M,48.3,M,,*60
