2025-07-03 13:58:00,302 - [SERIAL] $GPMDA,30.22,I,1.0234,B,,C,,C,,,,C,,T,,M,,N,,M*3A
2025-07-03 13:58:00,304 - [SERIAL] $IIMMB,30.22,I,1.0234,B*7E
2025-07-03 13:58:01,259 - [SERIAL] $GPRMC,105355,A,4805.81067,N,00142.51583,W,000.0,171.7,030725,,,A*6A
2025-07-03 13:58:01,275 - [SERIAL] $GPGGA,105355,4805.81067,N,00142.51583,W,1,09,,74.000,M,,M,,*51
2025-07-03 13:58:01,303 - [SERIAL] $HCHDG,170.9,,,000.8,E*2E
2025-07-03 13:58:01,305 - [SERIAL] $HCHDT,171.7,T*29
2025-07-03 13:58:01,308 - [SERIAL] $GPMDA,30.22,I,1.0234,B,,C,,C,,,,C,,T,,M,,N,,M*3A
2025-07-03 13:58:01,310 - [SERIAL] $IIMMB,30.22,I,1.0234,B*7E
2025-07-03 13:58:02,262 - [SERIAL] $GPRMC,105355,A,4805.81067,N,00142.51583,W,000.0,171.7,030725,,,A*6A
2025-07-03 13:58:02,274 - [SERIAL] $GPGGA,105355,4805.81067,N,00142.51583,W,1,09,,74.000,M,,M,,*51
2025-07-03 13:58:02,295 - [SERIAL] $HCHDG,170.9,,,000.8,E*2E
2025-07-03 13:58:02,297 - [SERIAL] $HCHDT,171.7,T*29
2025-07-03 13:58:02,300 - [SERIAL] $GPMDA,30.221,I,1.0234,B,,C,,C,,,,C,,T,,M,,N,,M*0B
2025-07-03 13:58:02,302 - [SERIAL] $IIMMB,30.221,I,1.0234,B*4F
2025-07-03 13:58:03,279 - [SERIAL] $GPRMC,105355,A,4805.81067,N,00142.51583,W,000.0,171.7,030725,,,A*6A
2025-07-03 13:58:03,287 - [SERIAL] $GPGGA,105355,4805.81067,N,00142.51583,W,1,09,,74.000,M,,M,,*51
2025-07-03 13:58:03,309 - [SERIAL] $HCHDG,170.9,,,000.8,E*2E
2025-07-03 13:58:03,310 - [SERIAL] $HCHDT,171.7,T*29
2025-07-03 13:58:03,312 - [SERIAL] $GPMDA,30.221,I,1.0234,B,,C,,C,,,,C,,T,,M,,N,,M*0B
2025-07-03 13:58:03,314 - [SERIAL] $IIMMB,30.221,I,1.0234,B*4F
2025-07-03 13:58:04,277 - [SERIAL] $GPRMC,105355,A,4805.81067,N,00142.51583,W,000.0,171.7,030725,,,A*6A
2025-07-03 13:58:04,283 - [SERIAL] $GPGGA,105355,4805.81067,N,00142.51583,W,1,09,,74.000,M,,M,,*51
2025-07-03 13:58:04,311 - [SERIAL] $HCHDG,170.9,,,000.8,E*2E
2025-07-03 13:58:04,312 - [SERIAL] $HCHDT,171.7,T*29
2025-07-03 13:58:04,315 - [SERIAL] $GPMDA,30.22,I,1.0234,B,,C,,C,,,,C,,T,,M,,N,,M*3A
2025-07-03 13:58:04,317 - [SERIAL] $IIMMB,30.22,I,1.0234,B*7E
2025-07-03 13:58:05,300 - [SERIAL] $GPRMC,105355,A,4805.81067,N,00142.51583,W,000.0,171.7,030725,,,A*6A
2025-07-03 13:58:05,317 - [SERIAL] $GPGGA,105355,4805.81067,N,00142.51583,W,1,09,,74.000,M,,M,,*51
2025-07-03 13:58:05,350 - [SERIAL] $HCHDG,170.9,,,000.8,E*2E
2025-07-03 13:58:05,351 - [SERIAL] $HCHDT,171.7,T*29
2025-07-03 13:58:05,354 - [SERIAL] $GPMDA,30.22,I,1.0234,B,,C,,C,,,,C,,T,,M,,N,,M*3A
2025-07-03 13:58:05,356 - [SERIAL] $IIMMB,30.22,I,1.0234,B*7E
2025-07-03 13:58:06,301 - [SERIAL] $GPRMC,105355,A,4805.81067,N,00142.51583,W,000.0,171.7,030725,,,A*6A
2025-07-03 13:58:06,309 - [SERIAL] $GPGGA,105355,4805.81067,N,00142.51583,W,1,09,,74.000,M,,M,,*51
2025-07-03 13:58:06,332 - [SERIAL] $HCHDG,170.9,,,000.8,E*2E
2025-07-03 13:58:06,333 - [SERIAL] $HCHDT,171.7,T*29
2025-07-03 13:58:06,335 - [SERIAL] $GPMDA,30.22,I,1.0234,B,,C,,C,,,,C,,T,,M,,N,,M*3A
2025-07-03 13:58:06,337 - [SERIAL] $IIMMB,30.22,I,1.0234,B*7E
2025-07-03 13:58:07,319 - [SERIAL] $GPRMC,105355,A,4805.81067,N,00142.51583,W,000.0,171.7,030725,,,A*6A
2025-07-03 13:58:07,333 - [SERIAL] $GPGGA,105355,4805.81067,N,00142.51583,W,1,09,,74.000,M,,M,,*51
2025-07-03 13:58:07,367 - [SERIAL] $HCHDG,170.9,,,000.8,E*2E
2025-07-03 13:58:07,368 - [SERIAL] $HCHDT,171.7,T*29
2025-07-03 13:58:07,371 - [SERIAL] $GPMDA,30.22,I,1.0234,B,,C,,C,,,,C,,T,,M,,N,,M*3A
2025-07-03 13:58:07,372 - [SERIAL] $IIMMB,30.22,I,1.0234,B*7E
2025-07-03 13:58:08,327 - [SERIAL] $GPRMC,105355,A,4805.81067,N,00142.51583,W,000.0,171.7,030725,,,A*6A
2025-07-03 13:58:08,342 - [SERIAL] $GPGGA,105355,4805.81067,N,00142.51583,W,1,09,,74.000,M,,M,,*51
2025-07-03 13:58:08,374 - [SERIAL] $HCHDG,170.9,,,000.8,E*2E
2025-07-03 13:58:08,375 - [SERIAL] $HCHDT,171.7,T*29
2025-07-03 13:58:08,378 - [SERIAL] $GPMDA,30.22,I,1.0234,B,,C,,C,,,,C,,T,,M,,N,,M*3A
2025-07-03 13:58:08,380 - [SERIAL] $IIMMB,30.22,I,1.0234,B*7E
2025-07-03 13:58:09,327 - [SERIAL] $GPRMC,105355,A,4805.81067,N,00142.51583,W,000.0,171.7,030725,,,A*6A
2025-07-03 13:58:09,340 - [SERIAL] $GPGGA,105355,4805.81067,N,00142.51583,W,1,09,,74.000,M,,M,,*51
2025-07-03 13:58:09,370 - [SERIAL] $HCHDG,170.9,,,000.8,E*2E
2025-07-03 13:58:09,372 - [SERIAL] $HCHDT,171.7,T*29
2025-07-03 13:58:09,376 - [SERIAL] $GPMDA,30.22,I,1.0234,B,,C,,C,,,,C,,T,,M,,N,,M*3A
2025-07-03 13:58:09,379 - [SERIAL] $IIMMB,30.22,I,1.0234,B*7E
2025-07-03 13:58:10,346 - [SERIAL] $GPRMC,105355,A,4805.81067,N,00142.51583,W,000.0,171.7,030725,,,A*6A
2025-07-03 13:58:10,355 - [SERIAL] $GPGGA,105355,4805.81067,N,00142.51583,W,1,09,,74.000,M,,M,,*51
2025-07-03 13:58:10,383 - [SERIAL] $HCHDG,170.9,,,000.8,E*2E
2025-07-03 13:58:10,385 - [SERIAL] $HCHDT,171.7,T*29
2025-07-03 13:58:10,387 - [SERIAL] $GPMDA,30.22,I,1.0234,B,,C,,C,,,,C,,T,,M,,N,,M*3A
2025-07-03 13:58:10,389 - [SERIAL] $IIMMB,30.22,I,1.0234,B*7E
2025-07-03 13:58:11,358 - [SERIAL] $GPRMC,105355,A,4805.81067,N,00142.51583,W,000.0,171.7,030725,,,A*6A
2025-07-03 13:58:11,379 - [SERIAL] $GPGGA,105355,4805.81067,N,00142.51583,W,1,09,,74.000,M,,M,,*51
2025-07-03 13:58:11,409 - [SERIAL] $HCHDG,170.9,,,000.8,E*2E
2025-07-03 13:58:11,410 - [SERIAL] $HCHDT,171.7,T*29
2025-07-03 13:58:11,413 - [SERIAL] $GPMDA,30.22,I,1.0234,B,,C,,C,,,,C,,T,,M,,N,,M*3A
2025-07-03 13:58:11,414 - [SERIAL] $IIMMB,30.22,I,1.0234,B*7E
2025-07-03 13:58:12,370 - [SERIAL] $GPRMC,105355,A,4805.81067,N,00142.51583,W,000.0,171.7,030725,,,A*6A
2025-07-03 13:58:12,386 - [SERIAL] $GPGGA,105355,4805.81067,N,00142.51583,W,1,09,,74.000,M,,M,,*51
2025-07-03 13:58:12,420 - [SERIAL] $HCHDG,170.9,,,000.8,E*2E
2025-07-03 13:58:12,421 - [SERIAL] $HCHDT,171.7,T*29
2025-07-03 13:58:12,424 - [SERIAL] $GPMDA,30.22,I,1.0234,B,,C,,C,,,,C,,T,,M,,N,,M*3A
2025-07-03 13:58:12,426 - [SERIAL] $IIMMB,30.22,I,1.0234,B*7E
2025-07-03 13:58:13,381 - [SERIAL] $GPRMC,105355,A,4805.81067,N,00142.51583,W,000.0,171.7,030725,,,A*6A
2025-07-03 13:58:13,395 - [SERIAL] $GPGGA,105355,4805.81067,N,00142.51583,W,1,09,,74.000,M,,M,,*51
2025-07-03 13:58:13,429 - [SERIAL] $HCHDG,170.9,,,000.8,E*2E
2025-07-03 13:58:13,431 - [SERIAL] $HCHDT,171.7,T*29
2025-07-03 13:58:13,433 - [SERIAL] $GPMDA,30.22,I,1.0234,B,,C,,C,,,,C,,T,,M,,N,,M*3A
2025-07-03 13:58:13,435 - [SERIAL] $IIMMB,30.22,I,1.0234,B*7E
2025-07-03 13:58:14,391 - [SERIAL] $GPRMC,105355,A,4805.81067,N,00142.51583,W,000.0,171.7,030725,,,A*6A
2025-07-03 13:58:14,406 - [SERIAL] $GPGGA,105355,4805.81067,N,00142.51583,W,1,09,,74.000,M,,M,,*51
2025-07-03 13:58:14,439 - [SERIAL] $HCHDG,170.9,,,000.8,E*2E
2025-07-03 13:58:14,440 - [SERIAL] $HCHDT,171.7,T*29
2025-07-03 13:58:14,442 - [SERIAL] $GPMDA,30.22,I,1.0234,B,,C,,C,,,,C,,T,,M,,N,,M*3A
2025-07-03 13:58:14,444 - [SERIAL] $IIMMB,30.22,I,1.0234,B*7E
2025-07-03 13:58:15,399 - [SERIAL] $GPRMC,105355,A,4805.81067,N,00142.51583,W,000.0,171.7,030725,,,A*6A
2025-07-03 13:58:15,419 - [SERIAL] $GPGGA,105355,4805.81067,N,00142.51583,W,1,09,,74.000,M,,M,,*51
2025-07-03 13:58:15,451 - [SERIAL] $HCHDG,170.9,,,000.8,E*2E
2025-07-03 13:58:15,452 - [SERIAL] $HCHDT,171.7,T*29
2025-07-03 13:58:15,454 - [SERIAL] $GPMDA,30.22,I,1.0234,B,,C,,C,,,,C,,T,,M,,N,,M*3A
2025-07-03 13:58:15,456 - [SERIAL] $IIMMB,30.22,I,1.0234,B*7E
2025-07-03 13:58:16,411 - [SERIAL] $GPRMC,105355,A,4805.81067,N,00142.51583,W,000.0,171.7,030725,,,A*6A
2025-07-03 13:58:16,427 - [SERIAL] $GPGGA,105355,4805.81067,N,00142.51583,W,1,09,,74.000,M,,M,,*51
2025-07-03 13:58:16,460 - [SERIAL] $HCHDG,170.9,,,000.8,E*2E
2025-07-03 13:58:16,461 - [SERIAL] $HCHDT,171.7,T*29
2025-07-03 13:58:16,465 - [SERIAL] $GPMDA,30.22,I,1.0234,B,,C,,C,,,,C,,T,,M,,N,,M*3A
2025-07-03 13:58:16,467 - [SERIAL] $IIMMB,30.22,I,1.0234,B*7E
2025-07-03 13:58:17,410 - [SERIAL] $GPRMC,105355,A,4805.81067,N,00142.51583,W,000.0,171.7,030725,,,A*6A
2025-07-03 13:58:17,426 - [SERIAL] $GPGGA,105355,4805.81067,N,00142.51583,W,1,09,,74.000,M,,M,,*51
2025-07-03 13:58:17,454 - [SERIAL] $HCHDG,170.9,,,000.8,E*2E
2025-07-03 13:58:17,457 - [SERIAL] $HCHDT,171.7,T*29
2025-07-03 13:58:17,460 - [SERIAL] $GPMDA,30.22,I,1.0234,B,,C,,C,,,,C,,T,,M,,N,,M*3A
2025-07-03 13:58:17,462 - [SERIAL] $IIMMB,30.22,I,1.0234,B*7E
2025-07-03 13:58:18,431 - [SERIAL] $GPRMC,105355,A,4805.81067,N,00142.51583,W,000.0,171.7,030725,,,A*6A
2025-07-03 13:58:18,445 - [SERIAL] $GPGGA,105355,4805.81067,N,00142.51583,W,1,09,,74.000,M,,M,,*51
2025-07-03 13:58:18,480 - [SERIAL] $HCHDG,170.9,,,000.8,E*2E
2025-07-03 13:58:18,482 - [SERIAL] $HCHDT,171.7,T*29
2025-07-03 13:58:18,486 - [SERIAL] $GPMDA,30.22,I,1.0234,B,,C,,C,,,,C,,T,,M,,N,,M*3A
2025-07-03 13:58:18,487 - [SERIAL] $IIMMB,30.22,I,1.0234,B*7E
2025-07-03 13:58:19,438 - [SERIAL] $GPRMC,105355,A,4805.81067,N,00142.51583,W,000.0,171.7,030725,,,A*6A
2025-07-03 13:58:19,453 - [SERIAL] $GPGGA,105355,4805.81067,N,00142.51583,W,1,09,,74.000,M,,M,,*51
2025-07-03 13:58:19,485 - [SERIAL] $HCHDG,170.9,,,000.8,E*2E
2025-07-03 13:58:19,487 - [SERIAL] $HCHDT,171.7,T*29
2025-07-03 13:58:19,489 - [SERIAL] $GPMDA,30.22,I,1.0234,B,,C,,C,,,,C,,T,,M,,N,,M*3A
2025-07-03 13:58:19,491 - [SERIAL] $IIMMB,30.22,I,1.0234,B*7E
2025-07-03 13:58:20,458 - [SERIAL] $GPRMC,105355,A,4805.81067,N,00142.51583,W,000.0,171.7,030725,,,A*6A
2025-07-03 13:58:20,467 - [SERIAL] $GPGGA,105355,4805.81067,N,00142.51583,W,1,09,,74.000,M,,M,,*51
2025-07-03 13:58:20,494 - [SERIAL] $HCHDG,170.9,,,000.8,E*2E
2025-07-03 13:58:20,495 - [SERIAL] $HCHDT,171.7,T*29
2025-07-03 13:58:20,497 - [SERIAL] $GPMDA,30.22,I,1.0234,B,,C,,C,,,,C,,T,,M,,N,,M*3A
2025-07-03 13:58:20,500 - [SERIAL] $IIMMB,30.22,I,1.0234,B*7E
2025-07-03 13:58:21,458 - [SERIAL] $GPRMC,105355,A,4805.81067,N,00142.51583,W,000.0,171.7,030725,,,A*6A
2025-07-03 13:58:21,467 - [SERIAL] $GPGGA,105355,4805.81067,N,00142.51583,W,1,09,,74.000,M,,M,,*51
2025-07-03 13:58:21,489 - [SERIAL] $HCHDG,170.9,,,000.8,E*2E
2025-07-03 13:58:21,491 - [SERIAL] $HCHDT,171.7,T*29
2025-07-03 13:58:21,494 - [SERIAL] $GPMDA,30.221,I,1.0234,B,,C,,C,,,,C,,T,,M,,N,,M*0B
2025-07-03 13:58:21,496 - [SERIAL] $IIMMB,30.221,I,1.0234,B*4F
2025-07-03 13:58:22,474 - [SERIAL] $GPRMC,105355,A,4805.81067,N,00142.51583,W,000.0,171.7,030725,,,A*6A
2025-07-03 13:58:22,489 - [SERIAL] $GPGGA,105355,4805.81067,N,00142.51583,W,1,09,,74.000,M,,M,,*51
2025-07-03 13:58:22,523 - [SERIAL] $HCHDG,170.9,,,000.8,E*2E
2025-07-03 13:58:22,524 - [SERIAL] $HCHDT,171.7,T*29
2025-07-03 13:58:22,527 - [SERIAL] $GPMDA,30.22,I,1.0234,B,,C,,C,,,,C,,T,,M,,N,,M*3A
2025-07-03 13:58:22,529 - [SERIAL] $IIMMB,30.22,I,1.0234,B*7E
2025-07-03 13:58:23,488 - [SERIAL] $GPRMC,105355,A,4805.81067,N,00142.51583,W,000.0,171.7,030725,,,A*6A
2025-07-03 13:58:23,501 - [SERIAL] $GPGGA,105355,4805.81067,N,00142.51583,W,1,09,,74.000,M,,M,,*51
2025-07-03 13:58:23,531 - [SERIAL] $HCHDG,170.9,,,000.8,E*2E
2025-07-03 13:58:23,532 - [SERIAL] $HCHDT,171.7,T*29
2025-07-03 13:58:23,535 - [SERIAL] $GPMDA,30.22,I,1.0234,B,,C,,C,,,,C,,T,,M,,N,,M*3A
2025-07-03 13:58:23,536 - [SERIAL] $IIMMB,30.22,I,1.0234,B*7E
2025-07-03 13:58:24,499 - [SERIAL] $GPRMC,105355,A,4805.81067,N,00142.51583,W,000.0,171.7,030725,,,A*6A
2025-07-03 13:58:24,515 - [SERIAL] $GPGGA,105355,4805.81067,N,00142.51583,W,1,09,,74.000,M,,M,,*51
2025-07-03 13:58:24,548 - [SERIAL] $HCHDG,170.9,,,000.8,E*2E
2025-07-03 13:58:24,549 - [SERIAL] $HCHDT,171.7,T*29
2025-07-03 13:58:24,552 - [SERIAL] $GPMDA,30.22,I,1.0234,B,,C,,C,,,,C,,T,,M,,N,,M*3A
2025-07-03 13:58:24,554 - [SERIAL] $IIMMB,30.22,I,1.0234,B*7E
2025-07-03 13:58:25,506 - [SERIAL] $GPRMC,105355,A,4805.81067,N,00142.51583,W,000.0,171.7,030725,,,A*6A
2025-07-03 13:58:25,521 - [SERIAL] $GPGGA,105355,4805.81067,N,00142.51583,W,1,09,,74.000,M,,M,,*51
2025-07-03 13:58:25,554 - [SERIAL] $HCHDG,170.9,,,000.8,E*2E
2025-07-03 13:58:25,555 - [SERIAL] $HCHDT,171.7,T*29
2025-07-03 13:58:25,558 - [SERIAL] $GPMDA,30.22,I,1.0234,B,,C,,C,,,,C,,T,,M,,N,,M*3A
2025-07-03 13:58:25,560 - [SERIAL] $IIMMB,30.22,I,1.0234,B*7E
2025-07-03 13:58:26,510 - [SERIAL] $GPRMC,105355,A,4805.81067,N,00142.51583,W,000.0,171.7,030725,,,A*6A
2025-07-03 13:58:26,534 - [SERIAL] $GPGGA,105355,4805.81067,N,00142.51583,W,1,09,,74.000,M,,M,,*51
2025-07-03 13:58:26,574 - [SERIAL] $HCHDG,170.9,,,000.8,E*2E
2025-07-03 13:58:26,575 - [SERIAL] $HCHDT,171.7,T*29
2025-07-03 13:58:26,579 - [SERIAL] $GPMDA,30.22,I,1.0234,B,,C,,C,,,,C,,T,,M,,N,,M*3A
2025-07-03 13:58:26,581 - [SERIAL] $IIMMB,30.22,I,1.0234,B*7E
2025-07-03 13:58:27,517 - [SERIAL] $GPRMC,105355,A,4805.81067,N,00142.51583,W,000.0,171.7,030725,,,A*6A
2025-07-03 13:58:27,527 - [SERIAL] $GPGGA,105355,4805.81067,N,00142.51583,W,1,09,,74.000,M,,M,,*51
2025-07-03 13:58:27,559 - [SERIAL] $HCHDG,170.9,,,000.8,E*2E
2025-07-03 13:58:27,561 - [SERIAL] $HCHDT,171.7,T*29
2025-07-03 13:58:27,564 - [SERIAL] $GPMDA,30.22,I,1.0234,B,,C,,C,,,,C,,T,,M,,N,,M*3A
2025-07-03 13:58:27,566 - [SERIAL] $IIMMB,30.22,I,1.0234,B*7E
2025-07-03 13:58:28,525 - [SERIAL] $GPRMC,105355,A,4805.81067,N,00142.51583,W,000.0,171.7,030725,,,A*6A
2025-07-03 13:58:28,537 - [SERIAL] $GPGGA,105355,4805.81067,N,00142.51583,W,1,09,,74.000,M,,M,,*51
2025-07-03 13:58:28,572 - [SERIAL] $HCHDG,170.9,,,000.8,E*2E
2025-07-03 13:58:28,575 - [SERIAL] $HCHDT,171.7,T*29
2025-07-03 13:58:28,578 - [SERIAL] $GPMDA,30.22,I,1.0234,B,,C,,C,,,,C,,T,,M,,N,,M*3A
2025-07-03 13:58:28,580 - [SERIAL] $IIMMB,30.22,I,1.0234,B*7E
2025-07-03 13:58:29,541 - [SERIAL] $GPRMC,105355,A,4805.81067,N,00142.51583,W,000.0,171.7,030725,,,A*6A
2025-07-03 13:58:29,552 - [SERIAL] $GPGGA,105355,4805.81067,N,00142.51583,W,1,09,,74.000,M,,M,,*51
2025-07-03 13:58:29,583 - [SERIAL] $HCHDG,170.9,,,000.8,E*2E
2025-07-03 13:58:29,584 - [SERIAL] $HCHDT,171.7,T*29
2025-07-03 13:58:29,586 - [SERIAL] $GPMDA,30.22,I,1.0234,B,,C,,C,,,,C,,T,,M,,N,,M*3A
2025-07-03 13:58:29,588 - [SERIAL] $IIMMB,30.22,I,1.0234,B*7E
2025-07-03 13:58:30,549 - [SERIAL] $GPRMC,105355,A,4805.81067,N,00142.51583,W,000.0,171.7,030725,,,A*6A
2025-07-03 13:58:30,565 - [SERIAL] $GPGGA,105355,4805.81067,N,00142.51583,W,1,09,,74.000,M,,M,,*51
2025-07-03 13:58:30,599 - [SERIAL] $HCHDG,170.9,,,000.8,E*2E
2025-07-03 13:58:30,600 - [SERIAL] $HCHDT,171.7,T*29
2025-07-03 13:58:30,603 - [SERIAL] $GPMDA,30.22,I,1.0234,B,,C,,C,,,,C,,T,,M,,N,,M*3A
2025-07-03 13:58:30,604 - [SERIAL] $IIMMB,30.22,I,1.0234,B*7E
2025-07-03 13:58:31,545 - [SERIAL] $GPRMC,105355,A,4805.81067,N,00142.51583,W,000.0,171.7,030725,,,A*6A
2025-07-03 13:58:31,554 - [SERIAL] $GPGGA,105355,4805.81067,N,00142.51583,W,1,09,,74.000,M,,M,,*51
2025-07-03 13:58:31,583 - [SERIAL] $HCHDG,170.9,,,000.8,E*2E
2025-07-03 13:58:31,584 - [SERIAL] $HCHDT,171.7,T*29
2025-07-03 13:58:31,587 - [SERIAL] $GPMDA,30.22,I,1.0234,B,,C,,C,,,,C,,T,,M,,N,,M*3A
2025-07-03 13:58:31,588 - [SERIAL] $IIMMB,30.22,I,1.0234,B*7E
2025-07-03 13:58:32,561 - [SERIAL] $GPRMC,105355,A,4805.81067,N,00142.51583,W,000.0,171.7,030725,,,A*6A
2025-07-03 13:58:32,568 - [SERIAL] $GPGGA,105355,4805.81067,N,00142.51583,W,1,09,,74.000,M,,M,,*51
2025-07-03 13:58:32,589 - [SERIAL] $HCHDG,170.9,,,000.8,E*2E
2025-07-03 13:58:32,591 - [SERIAL] $HCHDT,171.7,T*29
2025-07-03 13:58:32,593 - [SERIAL] $GPMDA,30.22,I,1.0234,B,,C,,C,,,,C,,T,,M,,N,,M*3A
2025-07-03 13:58:32,595 - [SERIAL] $IIMMB,30.22,I,1.0234,B*7E
2025-07-03 13:58:33,577 - [SERIAL] $GPRMC,105355,A,4805.81067,N,00142.51583,W,000.0,171.7,030725,,,A*6A
2025-07-03 13:58:33,591 - [SERIAL] $GPGGA,105355,4805.81067,N,00142.51583,W,1,09,,74.000,M,,M,,*51
2025-07-03 13:58:33,627 - [SERIAL] $HCHDG,170.9,,,000.8,E*2E
2025-07-03 13:58:33,628 - [SERIAL] $HCHDT,171.7,T*29
2025-07-03 13:58:33,630 - [SERIAL] $GPMDA,30.22,I,1.0234,B,,C,,C,,,,C,,T,,M,,N,,M*3A
2025-07-03 13:58:33,632 - [SERIAL] $IIMMB,30.22,I,1.0234,B*7E
2025-07-03 13:58:34,585 - [SERIAL] $GPRMC,105355,A,4805.81067,N,00142.51583,W,000.0,171.7,030725,,,A*6A
2025-07-03 13:58:34,599 - [SERIAL] $GPGGA,105355,4805.81067,N,00142.51583,W,1,09,,74.000,M,,M,,*51
2025-07-03 13:58:34,640 - [SERIAL] $HCHDG,170.9,,,000.8,E*2E
2025-07-03 13:58:34,642 - [SERIAL] $HCHDT,171.7,T*29
2025-07-03 13:58:34,645 - [SERIAL] $GPMDA,30.22,I,1.0234,B,,C,,C,,,,C,,T,,M,,N,,M*3A
2025-07-03 13:58:34,647 - [SERIAL] $IIMMB,30.22,I,1.0234,B*7E
2025-07-03 13:58:35,598 - [SERIAL] $GPRMC,105355,A,4805.81067,N,00142.51583,W,000.0,171.7,030725,,,A*6A
2025-07-03 13:58:35,611 - [SERIAL] $GPGGA,105355,4805.81067,N,00142.51583,W,1,09,,74.000,M,,M,,*51
2025-07-03 13:58:35,645 - [SERIAL] $HCHDG,170.9,,,000.8,E*2E
2025-07-03 13:58:35,647 - [SERIAL] $HCHDT,171.7,T*29
2025-07-03 13:58:35,649 - [SERIAL] $GPMDA,30.22,I,1.0234,B,,C,,C,,,,C,,T,,M,,N,,M*3A
2025-07-03 13:58:35,650 - [SERIAL] $IIMMB,30.22,I,1.0234,B*7E
2025-07-03 13:58:36,611 - [SERIAL] $GPRMC,105355,A,4805.81067,N,00142.51583,W,000.0,171.7,030725,,,A*6A
2025-07-03 13:58:36,624 - [SERIAL] $GPGGA,105355,4805.81067,N,00142.51583,W,1,09,,74.000,M,,M,,*51
2025-07-03 13:58:36,657 - [SERIAL] $HCHDG,170.9,,,000.8,E*2E
2025-07-03 13:58:36,659 - [SERIAL] $HCHDT,171.7,T*29
2025-07-03 13:58:36,662 - [SERIAL] $GPMDA,30.22,I,1.0234,B,,C,,C,,,,C,,T,,M,,N,,M*3A
2025-07-03 13:58:36,663 - [SERIAL] $IIMMB,30.22,I,1.0234,B*7E
2025-07-03 13:58:37,622 - [SERIAL] $GPRMC,105355,A,4805.81067,N,00142.51583,W,000.0,171.7,030725,,,A*6A
2025-07-03 13:58:37,635 - [SERIAL] $GPGGA,105355,4805.81067,N,00142.51583,W,1,09,,74.000,M,,M,,*51
2025-07-03 13:58:37,671 - [SERIAL] $HCHDG,170.9,,,000.8,E*2E
2025-07-03 13:58:37,672 - [SERIAL] $HCHDT,171.7,T*29
2025-07-03 13:58:37,674 - [SERIAL] $GPMDA,30.22,I,1.0234,B,,C,,C,,,,C,,T,,M,,N,,M*3A
2025-07-03 13:58:37,676 - [SERIAL] $IIMMB,30.22,I,1.0234,B*7E
2025-07-03 13:58:38,633 - [SERIAL] $GPRMC,105355,A,4805.81067,N,00142.51583,W,000.0,171.7,030725,,,A*6A
2025-07-03 13:58:38,648 - [SERIAL] $GPGGA,105355,4805.81067,N,00142.51583,W,1,09,,74.000,M,,M,,*51
2025-07-03 13:58:38,683 - [SERIAL] $HCHDG,170.9,,,000.8,E*2E
2025-07-03 13:58:38,684 - [SERIAL] $HCHDT,171.7,T*29
2025-07-03 13:58:38,687 - [SERIAL] $GPMDA,30.22,I,1.0234,B,,C,,C,,,,C,,T,,M,,N,,M*3A
2025-07-03 13:58:38,689 - [SERIAL] $IIMMB,30.22,I,1.0234,B*7E
2025-07-03 13:58:39,648 - [SERIAL] $GPRMC,105355,A,4805.81067,N,00142.51583,W,000.0,171.7,030725,,,A*6A
2025-07-03 13:58:39,661 - [SERIAL] $GPGGA,105355,4805.81067,N,00142.51583,W,1,09,,74.000,M,,M,,*51
2025-07-03 13:58:39,692 - [SERIAL] $HCHDG,170.9,,,000.8,E*2E
2025-07-03 13:58:39,693 - [SERIAL] $HCHDT,171.7,T*29
2025-07-03 13:58:39,695 - [SERIAL] $GPMDA,30.22,I,1.0234,B,,C,,C,,,,C,,T,,M,,N,,M*3A
2025-07-03 13:58:39,697 - [SERIAL] $IIMMB,30.22,I,1.0234,B*7E
2025-07-03 13:58:40,663 - [SERIAL] $GPRMC,105355,A,4805.81067,N,00142.51583,W,000.0,171.7,030725,,,A*6A
2025-07-03 13:58:40,674 - [SERIAL] $GPGGA,105355,4805.81067,N,00142.51583,W,1,09,,74.000,M,,M,,*51
2025-07-03 13:58:40,704 - [SERIAL] $HCHDG,170.9,,,000.8,E*2E
2025-07-03 13:58:40,705 - [SERIAL] $HCHDT,171.7,T*29
2025-07-03 13:58:40,708 - [SERIAL] $GPMDA,30.22,I,1.0234,B,,C,,C,,,,C,,T,,M,,N,,M*3A
2025-07-03 13:58:40,709 - [SERIAL] $IIMMB,30.22,I,1.0234,B*7E
2025-07-03 13:58:41,672 - [SERIAL] $GPRMC,105355,A,4805.81067,N,00142.51583,W,000.0,171.7,030725,,,A*6A
2025-07-03 13:58:41,687 - [SERIAL] $GPGGA,105355,4805.81067,N,00142.51583,W,1,09,,74.000,M,,M,,*51
2025-07-03 13:58:41,719 - [SERIAL] $HCHDG,170.9,,,000.8,E*2E
2025-07-03 13:58:41,720 - [SERIAL] $HCHDT,171.7,T*29
2025-07-03 13:58:41,723 - [SERIAL] $GPMDA,30.22,I,1.0234,B,,C,,C,,,,C,,T,,M,,N,,M*3A
2025-07-03 13:58:41,724 - [SERIAL] $IIMMB,30.22,I,1.0234,B*7E
2025-07-03 13:58:42,675 - [SERIAL] $GPRMC,105355,A,4805.81067,N,00142.51583,W,000.0,171.7,030725,,,A*6A
2025-07-03 13:58:42,687 - [SERIAL] $GPGGA,105355,4805.81067,N,00142.51583,W,1,09,,74.000,M,,M,,*51
2025-07-03 13:58:42,726 - [SERIAL] $HCHDG,170.9,,,000.8,E*2E
2025-07-03 13:58:42,728 - [SERIAL] $HCHDT,171.7,T*29
2025-07-03 13:58:42,731 - [SERIAL] $GPMDA,30.22,I,1.0234,B,,C,,C,,,,C,,T,,M,,N,,M*3A
2025-07-03 13:58:42,733 - [SERIAL] $IIMMB,30.22,I,1.0234,B*7E
2025-07-03 13:58:43,714 - [SERIAL] $GPRMC,105355,A,4805.81067,N,00142.51583,W,000.0,171.7,030725,,,A*6A
2025-07-03 13:58:43,721 - [SERIAL] $GPGGA,105355,4805.81067,N,00142.51583,W,1,09,,74.000,M,,M,,*51
2025-07-03 13:58:43,751 - [SERIAL] $HCHDG,170.9,,,000.8,E*2E
2025-07-03 13:58:43,753 - [SERIAL] $HCHDT,171.7,T*29
2025-07-03 13:58:43,756 - [SERIAL] $GPMDA,30.22,I,1.0234,B,,C,,C,,,,C,,T,,M,,N,,M*3A
2025-07-03 13:58:43,758 - [SERIAL] $IIMMB,30.22,I,1.0234,B*7E
2025-07-03 13:58:44,698 - [SERIAL] $GPRMC,105355,A,4805.81067,N,00142.51583,W,000.0,171.7,030725,,,A*6A
2025-07-03 13:58:44,709 - [SERIAL] $GPGGA,105355,4805.81067,N,00142.51583,W,1,09,,74.000,M,,M,,*51
2025-07-03 13:58:44,730 - [SERIAL] $HCHDG,170.9,,,000.8,E*2E
2025-07-03 13:58:44,732 - [SERIAL] $HCHDT,171.7,T*29
2025-07-03 13:58:44,734 - [SERIAL] $GPMDA,30.22,I,1.0234,B,,C,,C,,,,C,,T,,M,,N,,M*3A
2025-07-03 13:58:44,736 - [SERIAL] $IIMMB,30.22,I,1.0234,B*7E
2025-07-03 13:58:45,708 - [SERIAL] $GPRMC,105355,A,4805.81067,N,00142.51583,W,000.0,171.7,030725,,,A*6A
2025-07-03 13:58:45,722 - [SERIAL] $GPGGA,105355,4805.81067,N,00142.51583,W,1,09,,74.000,M,,M,,*51
2025-07-03 13:58:45,760 - [SERIAL] $HCHDG,170.9,,,000.8,E*2E
2025-07-03 13:58:45,761 - [SERIAL] $HCHDT,171.7,T*29
2025-07-03 13:58:45,764 - [SERIAL] $GPMDA,30.22,I,1.0234,B,,C,,C,,,,C,,T,,M,,N,,M*3A
2025-07-03 13:58:45,766 - [SERIAL] $IIMMB,30.22,I,1.0234,B*7E
2025-07-03 13:58:46,717 - [SERIAL] $GPRMC,105355,A,4805.81067,N,00142.51583,W,000.0,171.7,030725,,,A*6A
2025-07-03 13:58:46,733 - [SERIAL] $GPGGA,105355,4805.81067,N,00142.51583,W,1,09,,74.000,M,,M,,*51
2025-07-03 13:58:46,761 - [SERIAL] $HCHDG,170.9,,,000.8,E*2E
2025-07-03 13:58:46,763 - [SERIAL] $HCHDT,171.7,T*29
2025-07-03 13:58:46,766 - [SERIAL] $GPMDA,30.22,I,1.0234,B,,C,,C,,,,C,,T,,M,,N,,M*3A
2025-07-03 13:58:46,768 - [SERIAL] $IIMMB,30.22,I,1.0234,B*7E
2025-07-03 13:58:47,737 - [SERIAL] $GPRMC,105355,A,4805.81067,N,00142.51583,W,000.0,171.7,030725,,,A*6A
2025-07-03 13:58:47,751 - [SERIAL] $GPGGA,105355,4805.81067,N,00142.51583,W,1,09,,74.000,M,,M,,*51
2025-07-03 13:58:47,787 - [SERIAL] $HCHDG,170.9,,,000.8,E*2E
2025-07-03 13:58:47,788 - [SERIAL] $HCHDT,171.7,T*29
2025-07-03 13:58:47,791 - [SERIAL] $GPMDA,30.22,I,1.0234,B,,C,,C,,,,C,,T,,M,,N,,M*3A
2025-07-03 13:58:47,792 - [SERIAL] $IIMMB,30.22,I,1.0234,B*7E
2025-07-03 13:58:48,747 - [SERIAL] $GPRMC,105355,A,4805.81067,N,00142.51583,W,000.0,171.7,030725,,,A*6A
2025-07-03 13:58:48,765 - [SERIAL] $GPGGA,105355,4805.81067,N,00142.51583,W,1,09,,74.000,M,,M,,*51
2025-07-03 13:58:48,804 - [SERIAL] $HCHDG,170.9,,,000.8,E*2E
2025-07-03 13:58:48,806 - [SERIAL] $HCHDT,171.7,T*29
2025-07-03 13:58:48,809 - [SERIAL] $GPMDA,30.22,I,1.0234,B,,C,,C,,,,C,,T,,M,,N,,M*3A
2025-07-03 13:58:48,810 - [SERIAL] $IIMMB,30.22,I,1.0234,B*7E
2025-07-03 13:58:49,751 - [SERIAL] $GPRMC,105355,A,4805.81067,N,00142.51583,W,000.0,171.7,030725,,,A*6A
2025-07-03 13:58:49,763 - [SERIAL] $GPGGA,105355,4805.81067,N,00142.51583,W,1,09,,74.000,M,,M,,*51
2025-07-03 13:58:49,797 - [SERIAL] $HCHDG,170.9,,,000.8,E*2E
2025-07-03 13:58:49,799 - [SERIAL] $HCHDT,171.7,T*29
2025-07-03 13:58:49,802 - [SERIAL] $GPMDA,30.22,I,1.0234,B,,C,,C,,,,C,,T,,M,,N,,M*3A
2025-07-03 13:58:49,804 - [SERIAL] $IIMMB,30.22,I,1.0234,B*7E
2025-07-03 13:58:50,761 - [SERIAL] $GPRMC,105355,A,4805.81067,N,00142.51583,W,000.0,171.7,030725,,,A*6A
2025-07-03 13:58:50,777 - [SERIAL] $GPGGA,105355,4805.81067,N,00142.51583,W,1,09,,74.000,M,,M,,*51
2025-07-03 13:58:50,803 - [SERIAL] $HCHDG,170.9,,,000.8,E*2E
2025-07-03 13:58:50,805 - [SERIAL] $HCHDT,171.7,T*29
2025-07-03 13:58:50,807 - [SERIAL] $GPMDA,30.22,I,1.0234,B,,C,,C,,,,C,,T,,M,,N,,M*3A
2025-07-03 13:58:50,809 - [SERIAL] $IIMMB,30.22,I,1.0234,B*7E
2025-07-03 13:58:51,779 - [SERIAL] $GPRMC,105355,A,4805.81067,N,00142.51583,W,000.0,171.7,030725,,,A*6A
2025-07-03 13:58:51,791 - [SERIAL] $GPGGA,105355,4805.81067,N,00142.51583,W,1,09,,74.000,M,,M,,*51
2025-07-03 13:58:51,822 - [SERIAL] $HCHDG,170.9,,,000.8,E*2E
2025-07-03 13:58:51,823 - [SERIAL] $HCHDT,171.7,T*29
2025-07-03 13:58:51,826 - [SERIAL] $GPMDA,30.22,I,1.0234,B,,C,,C,,,,C,,T,,M,,N,,M*3A
2025-07-03 13:58:51,828 - [SERIAL] $IIMMB,30.22,I,1.0234,B*7E
2025-07-03 13:58:52,786 - [SERIAL] $GPRMC,105355,A,4805.81067,N,00142.51583,W,000.0,171.7,030725,,,A*6A
2025-07-03 13:58:52,799 - [SERIAL] $GPGGA,105355,4805.81067,N,00142.51583,W,1,09,,74.000,M,,M,,*51
2025-07-03 13:58:52,835 - [SERIAL] $HCHDG,170.9,,,000.8,E*2E
2025-07-03 13:58:52,836 - [SERIAL] $HCHDT,171.7,T*29
2025-07-03 13:58:52,839 - [SERIAL] $GPMDA,30.22,I,1.0234,B,,C,,C,,,,C,,T,,M,,N,,M*3A
2025-07-03 13:58:52,841 - [SERIAL] $IIMMB,30.22,I,1.0234,B*7E
2025-07-03 13:58:53,805 - [SERIAL] $GPRMC,105355,A,4805.81067,N,00142.51583,W,000.0,171.7,030725,,,A*6A
2025-07-03 13:58:53,819 - [SERIAL] $GPGGA,105355,4805.81067,N,00142.51583,W,1,09,,74.000,M,,M,,*51
2025-07-03 13:58:53,852 - [SERIAL] $HCHDG,170.9,,,000.8,E*2E
2025-07-03 13:58:53,854 - [SERIAL] $HCHDT,171.7,T*29
2025-07-03 13:58:53,857 - [SERIAL] $GPMDA,30.22,I,1.0234,B,,C,,C,,,,C,,T,,M,,N,,M*3A
2025-07-03 13:58:53,859 - [SERIAL] $IIMMB,30.22,I,1.0234,B*7E
2025-07-03 13:58:54,804 - [SERIAL] $GPRMC,105355,A,4805.81067,N,00142.51583,W,000.0,171.7,030725,,,A*6A
2025-07-03 13:58:54,817 - [SERIAL] $GPGGA,105355,4805.81067,N,00142.51583,W,1,09,,74.000,M,,M,,*51
2025-07-03 13:58:54,839 - [SERIAL] $HCHDG,170.9,,,000.8,E*2E
2025-07-03 13:58:54,841 - [SERIAL] $HCHDT,171.7,T*29
2025-07-03 13:58:54,843 - [SERIAL] $GPMDA,30.22,I,1.0234,B,,C,,C,,,,C,,T,,M,,N,,M*3A
2025-07-03 13:58:54,846 - [SERIAL] $IIMMB,30.22,I,1.0234,B*7E
2025-07-03 13:58:55,813 - [SERIAL] $GPRMC,105355,A,4805.81067,N,00142.51583,W,000.0,171.7,030725,,,A*6A
2025-07-03 13:58:55,830 - [SERIAL] $GPGGA,105355,4805.81067,N,00142.51583,W,1,09,,74.000,M,,M,,*51
2025-07-03 13:58:55,852 - [SERIAL] $HCHDG,170.9,,,000.8,E*2E
2025-07-03 13:58:55,854 - [SERIAL] $HCHDT,171.7,T*29
2025-07-03 13:58:55,857 - [SERIAL] $GPMDA,30.22,I,1.0234,B,,C,,C,,,,C,,T,,M,,N,,M*3A
2025-07-03 13:58:55,860 - [SERIAL] $IIMMB,30.22,I,1.0234,B*7E
2025-07-03 13:58:56,853 - [SERIAL] $GPRMC,105355,A,4805.81067,N,00142.51583,W,000.0,171.7,030725,,,A*6A
2025-07-03 13:58:56,867 - [SERIAL] $GPGGA,105355,4805.81067,N,00142.51583,W,1,09,,74.000,M,,M,,*51
2025-07-03 13:58:56,901 - [SERIAL] $HCHDG,170.9,,,000.8,E*2E
2025-07-03 13:58:56,902 - [SERIAL] $HCHDT,171.7,T*29
2025-07-03 13:58:56,904 - [SERIAL] $GPMDA,30.22,I,1.0234,B,,C,,C,,,,C,,T,,M,,N,,M*3A
2025-07-03 13:58:56,905 - [SERIAL] $IIMMB,30.22,I,1.0234,B*7E
2025-07-03 13:58:57,848 - [SERIAL] $GPRMC,105355,A,4805.81067,N,00142.51583,W,000.0,171.7,030725,,,A*6A
2025-07-03 13:58:57,869 - [SERIAL] $GPGGA,105355,4805.81067,N,00142.51583,W,1,09,,74.000,M,,M,,*51
2025-07-03 13:58:57,911 - [SERIAL] $HCHDG,170.9,,,000.8,E*2E
2025-07-03 13:58:57,912 - [SERIAL] $HCHDT,171.7,T*29
2025-07-03 13:58:57,914 - [SERIAL] $GPMDA,30.22,I,1.0234,B,,C,,C,,,,C,,T,,M,,N,,M*3A
2025-07-03 13:58:57,916 - [SERIAL] $IIMMB,30.22,I,1.0234,B*7E
2025-07-03 13:58:58,855 - [SERIAL] $GPRMC,105355,A,4805.81067,N,00142.51583,W,000.0,171.7,030725,,,A*6A
2025-07-03 13:58:58,870 - [SERIAL] $GPGGA,105355,4805.81067,N,00142.51583,W,1,09,,74.000,M,,M,,*51
2025-07-03 13:58:58,904 - [SERIAL] $HCHDG,170.9,,,000.8,E*2E
2025-07-03 13:58:58,905 - [SERIAL] $HCHDT,171.7,T*29
2025-07-03 13:58:58,907 - [SERIAL] $GPMDA,30.22,I,1.0234,B,,C,,C,,,,C,,T,,M,,N,,M*3A
2025-07-03 13:58:58,909 - [SERIAL] $IIMMB,30.22,I,1.0234,B*7E
2025-07-03 13:58:59,866 - [SERIAL] $GPRMC,105355,A,4805.81067,N,00142.51583,W,000.0,171.7,030725,,,A*6A
2025-07-03 13:58:59,877 - [SERIAL] $GPGGA,105355,4805.81067,N,00142.51583,W,1,09,,74.000,M,,M,,*51
2025-07-03 13:58:59,906 - [SERIAL] $HCHDG,170.9,,,000.8,E*2E
2025-07-03 13:58:59,907 - [SERIAL] $HCHDT,171.7,T*29
2025-07-03 13:58:59,910 - [SERIAL] $GPMDA,30.22,I,1.0234,B,,C,,C,,,,C,,T,,M,,N,,M*3A
2025-07-03 13:58:59,912 - [SERIAL] $IIMMB,30.22,I,1.0234,B*7E
2025-07-03 13:59:00,870 - [SERIAL] $GPRMC,105355,A,4805.81067,N,00142.51583,W,000.0,171.7,030725,,,A*6A
2025-07-03 13:59:00,882 - [SERIAL] $GPGGA,105355,4805.81067,N,00142.51583,W,1,09,,74.000,M,,M,,*51
2025-07-03 13:59:00,913 - [SERIAL] $HCHDG,170.9,,,000.8,E*2E
2025-07-03 13:59:00,914 - [SERIAL] $HCHDT,171.7,T*29
2025-07-03 13:59:00,917 - [SERIAL] $GPMDA,30.22,I,1.0234,B,,C,,C,,,,C,,T,,M,,N,,M*3A
2025-07-03 13:59:00,918 - [SERIAL] $IIMMB,30.22,I,1.0234,B*7E
2025-07-03 13:59:01,876 - [SERIAL] $GPRMC,105355,A,4805.81067,N,00142.51583,W,000.0,171.7,030725,,,A*6A
2025-07-03 13:59:01,891 - [SERIAL] $GPGGA,105355,4805.81067,N,00142.51583,W,1,09,,74.000,M,,M,,*51
2025-07-03 13:59:01,924 - [SERIAL] $HCHDG,170.9,,,000.8,E*2E
2025-07-03 13:59:01,926 - [SERIAL] $HCHDT,171.7,T*29
2025-07-03 13:59:01,928 - [SERIAL] $GPMDA,30.22,I,1.0234,B,,C,,C,,,,C,,T,,M,,N,,M*3A
2025-07-03 13:59:01,929 - [SERIAL] $IIMMB,30.22,I,1.0234,B*7E
2025-07-03 13:59:02,910 - [SERIAL] $GPRMC,105355,A,4805.81067,N,00142.51583,W,000.0,171.7,030725,,,A*6A
2025-07-03 13:59:02,923 - [SERIAL] $GPGGA,105355,4805.81067,N,00142.51583,W,1,09,,74.000,M,,M,,*51
2025-07-03 13:59:02,957 - [SERIAL] $HCHDG,170.9,,,000.8,E*2E
2025-07-03 13:59:02,958 - [SERIAL] $HCHDT,171.7,T*29
2025-07-03 13:59:02,960 - [SERIAL] $GPMDA,30.22,I,1.0234,B,,C,,C,,,,C,,T,,M,,N,,M*3A
2025-07-03 13:59:02,962 - [SERIAL] $IIMMB,30.22,I,1.0234,B*7E
2025-07-03 13:59:03,900 - [SERIAL] $GPRMC,105355,A,4805.81067,N,00142.51583,W,000.0,171.7,030725,,,A*6A
2025-07-03 13:59:03,913 - [SERIAL] $GPGGA,105355,4805.81067,N,00142.51583,W,1,09,,74.000,M,,M,,*51
2025-07-03 13:59:03,953 - [SERIAL] $HCHDG,170.9,,,000.8,E*2E
2025-07-03 13:59:03,954 - [SERIAL] $HCHDT,171.7,T*29
2025-07-03 13:59:03,957 - [SERIAL] $GPMDA,30.22,I,1.0234,B,,C,,C,,,,C,,T,,M,,N,,M*3A
2025-07-03 13:59:03,959 - [SERIAL] $IIMMB,30.22,I,1.0234,B*7E
2025-07-03 13:59:04,897 - [SERIAL] $GPRMC,105355,A,4805.81067,N,00142.51583,W,000.0,171.7,030725,,,A*6A
2025-07-03 13:59:04,914 - [SERIAL] $GPGGA,105355,4805.81067,N,00142.51583,W,1,09,,74.000,M,,M,,*51
2025-07-03 13:59:04,936 - [SERIAL] $HCHDG,170.9,,,000.8,E*2E
2025-07-03 13:59:04,938 - [SERIAL] $HCHDT,171.7,T*29
2025-07-03 13:59:04,940 - [SERIAL] $GPMDA,30.22,I,1.0234,B,,C,,C,,,,C,,T,,M,,N,,M*3A
2025-07-03 13:59:04,942 - [SERIAL] $IIMMB,30.22,I,1.0234,B*7E
2025-07-03 13:59:05,913 - [SERIAL] $GPRMC,105355,A,4805.81067,N,00142.51583,W,000.0,171.7,030725,,,A*6A
2025-07-03 13:59:05,926 - [SERIAL] $GPGGA,105355,4805.81067,N,00142.51583,W,1,09,,74.000,M,,M,,*51
2025-07-03 13:59:05,957 - [SERIAL] $HCHDG,170.9,,,000.8,E*2E
2025-07-03 13:59:05,958 - [SERIAL] $HCHDT,171.7,T*29
2025-07-03 13:59:05,961 - [SERIAL] $GPMDA,30.22,I,1.0234,B,,C,,C,,,,C,,T,,M,,N,,M*3A
2025-07-03 13:59:05,962 - [SERIAL] $IIMMB,30.22,I,1.0234,B*7E
2025-07-03 13:59:06,925 - [SERIAL] $GPRMC,105355,A,4805.81067,N,00142.51583,W,000.0,171.7,030725,,,A*6A
2025-07-03 13:59:06,939 - [SERIAL] $GPGGA,105355,4805.81067,N,00142.51583,W,1,09,,74.000,M,,M,,*51
2025-07-03 13:59:06,973 - [SERIAL] $HCHDG,170.9,,,000.8,E*2E
2025-07-03 13:59:06,974 - [SERIAL] $HCHDT,171.7,T*29
2025-07-03 13:59:06,977 - [SERIAL] $GPMDA,30.22,I,1.0234,B,,C,,C,,,,C,,T,,M,,N,,M*3A
2025-07-03 13:59:06,978 - [SERIAL] $IIMMB,30.22,I,1.0234,B*7E
2025-07-03 13:59:07,926 - [SERIAL] $GPRMC,105355,A,4805.81067,N,00142.51583,W,000.0,171.7,030725,,,A*6A
2025-07-03 13:59:07,938 - [SERIAL] $GPGGA,105355,4805.81067,N,00142.51583,W,1,09,,74.000,M,,M,,*51
2025-07-03 13:59:07,970 - [SERIAL] $HCHDG,170.9,,,000.8,E*2E
2025-07-03 13:59:07,972 - [SERIAL] $HCHDT,171.7,T*29
2025-07-03 13:59:07,974 - [SERIAL] $GPMDA,30.22,I,1.0234,B,,C,,C,,,,C,,T,,M,,N,,M*3A
2025-07-03 13:59:07,976 - [SERIAL] $IIMMB,30.22,I,1.0234,B*7E
2025-07-03 13:59:08,948 - [SERIAL] $GPRMC,105355,A,4805.81067,N,00142.51583,W,000.0,171.7,030725,,,A*6A
2025-07-03 13:59:08,963 - [SERIAL] $GPGGA,105355,4805.81067,N,00142.51583,W,1,09,,74.000,M,,M,,*51
2025-07-03 13:59:08,994 - [SERIAL] $HCHDG,170.9,,,000.8,E*2E
2025-07-03 13:59:08,995 - [SERIAL] $HCHDT,171.7,T*29
2025-07-03 13:59:08,998 - [SERIAL] $GPMDA,30.22,I,1.0234,B,,C,,C,,,,C,,T,,M,,N,,M*3A
2025-07-03 13:59:08,999 - [SERIAL] $IIMMB,30.22,I,1.0234,B*7E
2025-07-03 13:59:09,954 - [SERIAL] $GPRMC,105355,A,4805.81067,N,00142.51583,W,000.0,171.7,030725,,,A*6A
2025-07-03 13:59:09,977 - [SERIAL] $GPGGA,105355,4805.81067,N,00142.51583,W,1,09,,74.000,M,,M,,*51
2025-07-03 13:59:10,009 - [SERIAL] $HCHDG,170.9,,,000.8,E*2E
2025-07-03 13:59:10,011 - [SERIAL] $HCHDT,171.7,T*29
2025-07-03 13:59:10,013 - [SERIAL] $GPMDA,30.22,I,1.0234,B,,C,,C,,,,C,,T,,M,,N,,M*3A
2025-07-03 13:59:10,015 - [SERIAL] $IIMMB,30.22,I,1.0234,B*7E
2025-07-03 13:59:10,961 - [SERIAL] $GPRMC,105355,A,4805.81067,N,00142.51583,W,000.0,171.7,030725,,,A*6A
2025-07-03 13:59:10,976 - [SERIAL] $GPGGA,105355,4805.81067,N,00142.51583,W,1,09,,74.000,M,,M,,*51
2025-07-03 13:59:11,012 - [SERIAL] $HCHDG,170.9,,,000.8,E*2E
2025-07-03 13:59:11,013 - [SERIAL] $HCHDT,171.7,T*29
2025-07-03 13:59:11,016 - [SERIAL] $GPMDA,30.22,I,1.0234,B,,C,,C,,,,C,,T,,M,,N,,M*3A
2025-07-03 13:59:11,018 - [SERIAL] $IIMMB,30.22,I,1.0234,B*7E
2025-07-03 13:59:11,971 - [SERIAL] $GPRMC,105355,A,4805.81067,N,00142.51583,W,000.0,171.7,030725,,,A*6A
2025-07-03 13:59:11,977 - [SERIAL] $GPGGA,105355,4805.81067,N,00142.51583,W,1,09,,74.000,M,,M,,*51
2025-07-03 13:59:12,006 - [SERIAL] $HCHDG,170.9,,,000.8,E*2E
2025-07-03 13:59:12,008 - [SERIAL] $HCHDT,171.7,T*29
2025-07-03 13:59:12,013 - [SERIAL] $GPMDA,30.22,I,1.0234,B,,C,,C,,,,C,,T,,M,,N,,M*3A
2025-07-03 13:59:12,015 - [SERIAL] $IIMMB,30.22,I,1.0234,B*7E
2025-07-03 13:59:12,992 - [SERIAL] $GPRMC,105355,A,4805.81067,N,00142.51583,W,000.0,171.7,030725,,,A*6A
2025-07-03 13:59:13,004 - [SERIAL] $GPGGA,105355,4805.81067,N,00142.51583,W,1,09,,74.000,M,,M,,*51
2025-07-03 13:59:13,032 - [SERIAL] $HCHDG,170.9,,,000.8,E*2E
2025-07-03 13:59:13,033 - [SERIAL] $HCHDT,171.7,T*29
2025-07-03 13:59:13,036 - [SERIAL] $GPMDA,30.22,I,1.0234,B,,C,,C,,,,C,,T,,M,,N,,M*3A
2025-07-03 13:59:13,037 - [SERIAL] $IIMMB,30.22,I,1.0234,B*7E
2025-07-03 13:59:13,995 - [SERIAL] $GPRMC,105355,A,4805.81067,N,00142.51583,W,000.0,171.7,030725,,,A*6A
2025-07-03 13:59:14,011 - [SERIAL] $GPGGA,105355,4805.81067,N,00142.51583,W,1,09,,74.000,M,,M,,*51
2025-07-03 13:59:14,048 - [SERIAL] $HCHDG,170.9,,,000.8,E*2E
2025-07-03 13:59:14,049 - [SERIAL] $HCHDT,171.7,T*29
2025-07-03 13:59:14,052 - [SERIAL] $GPMDA,30.22,I,1.0234,B,,C,,C,,,,C,,T,,M,,N,,M*3A
2025-07-03 13:59:14,054 - [SERIAL] $IIMMB,30.22,I,1.0234,B*7E
2025-07-03 13:59:15,001 - [SERIAL] $GPRMC,105355,A,4805.81067,N,00142.51583,W,000.0,171.7,030725,,,A*6A
2025-07-03 13:59:15,017 - [SERIAL] $GPGGA,105355,4805.81067,N,00142.51583,W,1,09,,74.000,M,,M,,*51
2025-07-03 13:59:15,048 - [SERIAL] $HCHDG,170.9,,,000.8,E*2E
2025-07-03 13:59:15,049 - [SERIAL] $HCHDT,171.7,T*29
2025-07-03 13:59:15,052 - [SERIAL] $GPMDA,30.22,I,1.0234,B,,C,,C,,,,C,,T,,M,,N,,M*3A
2025-07-03 13:59:15,054 - [SERIAL] $IIMMB,30.22,I,1.0234,B*7E
2025-07-03 13:59:16,011 - [SERIAL] $GPRMC,105355,A,4805.81067,N,00142.51583,W,000.0,171.7,030725,,,A*6A
2025-07-03 13:59:16,029 - [SERIAL] $GPGGA,105355,4805.81067,N,00142.51583,W,1,09,,74.000,M,,M,,*51
2025-07-03 13:59:16,064 - [SERIAL] $HCHDG,170.9,,,000.8,E*2E
2025-07-03 13:59:16,065 - [SERIAL] $HCHDT,171.7,T*29
2025-07-03 13:59:16,068 - [SERIAL] $GPMDA,30.22,I,1.0234,B,,C,,C,,,,C,,T,,M,,N,,M*3A
2025-07-03 13:59:16,070 - [SERIAL] $IIMMB,30.22,I,1.0234,B*7E
2025-07-03 13:59:17,030 - [SERIAL] $GPRMC,105355,A,4805.81067,N,00142.51583,W,000.0,171.7,030725,,,A*6A
2025-07-03 13:59:17,041 - [SERIAL] $GPGGA,105355,4805.81067,N,00142.51583,W,1,09,,74.000,M,,M,,*51
2025-07-03 13:59:17,079 - [SERIAL] $HCHDG,170.9,,,000.8,E*2E
2025-07-03 13:59:17,080 - [SERIAL] $HCHDT,171.7,T*29
2025-07-03 13:59:17,084 - [SERIAL] $GPMDA,30.22,I,1.0234,B,,C,,C,,,,C,,T,,M,,N,,M*3A
2025-07-03 13:59:17,085 - [SERIAL] $IIMMB,30.22,I,1.0234,B*7E
2025-07-03 13:59:18,032 - [SERIAL] $GPRMC,105355,A,4805.81067,N,00142.51583,W,000.0,171.7,030725,,,A*6A
2025-07-03 13:59:18,048 - [SERIAL] $GPGGA,105355,4805.81067,N,00142.51583,W,1,09,,74.000,M,,M,,*51
2025-07-03 13:59:18,078 - [SERIAL] $HCHDG,170.9,,,000.8,E*2E
2025-07-03 13:59:18,079 - [SERIAL] $HCHDT,171.7,T*29
2025-07-03 13:59:18,082 - [SERIAL] $GPMDA,30.22,I,1.0234,B,,C,,C,,,,C,,T,,M,,N,,M*3A
2025-07-03 13:59:18,084 - [SERIAL] $IIMMB,30.22,I,1.0234,B*7E
2025-07-03 13:59:19,046 - [SERIAL] $GPRMC,105355,A,4805.81067,N,00142.51583,W,000.0,171.7,030725,,,A*6A
2025-07-03 13:59:19,058 - [SERIAL] $GPGGA,105355,4805.81067,N,00142.51583,W,1,09,,74.000,M,,M,,*51
2025-07-03 13:59:19,082 - [SERIAL] $HCHDG,170.9,,,000.8,E*2E
2025-07-03 13:59:19,084 - [SERIAL] $HCHDT,171.7,T*29
2025-07-03 13:59:19,087 - [SERIAL] $GPMDA,30.22,I,1.0234,B,,C,,C,,,,C,,T,,M,,N,,M*3A
2025-07-03 13:59:19,089 - [SERIAL] $IIMMB,30.22,I,1.0234,B*7E
2025-07-03 13:59:20,063 - [SERIAL] $GPRMC,105355,A,4805.81067,N,00142.51583,W,000.0,171.7,030725,,,A*6A
2025-07-03 13:59:20,071 - [SERIAL] $GPGGA,105355,4805.81067,N,00142.51583,W,1,09,,74.000,M,,M,,*51
2025-07-03 13:59:20,094 - [SERIAL] $HCHDG,170.9,,,000.8,E*2E
2025-07-03 13:59:20,095 - [SERIAL] $HCHDT,171.7,T*29
2025-07-03 13:59:20,097 - [SERIAL] $GPMDA,30.22,I,1.0234,B,,C,,C,,,,C,,T,,M,,N,,M*3A
2025-07-03 13:59:20,099 - [SERIAL] $IIMMB,30.22,I,1.0234,B*7E
2025-07-03 13:59:21,072 - [SERIAL] $GPRMC,105355,A,4805.81067,N,00142.51583,W,000.0,171.7,030725,,,A*6A
2025-07-03 13:59:21,089 - [SERIAL] $GPGGA,105355,4805.81067,N,00142.51583,W,1,09,,74.000,M,,M,,*51
2025-07-03 13:59:21,125 - [SERIAL] $HCHDG,170.9,,,000.8,E*2E
2025-07-03 13:59:21,127 - [SERIAL] $HCHDT,171.7,T*29
2025-07-03 13:59:21,130 - [SERIAL] $GPMDA,30.22,I,1.0234,B,,C,,C,,,,C,,T,,M,,N,,M*3A
2025-07-03 13:59:21,132 - [SERIAL] $IIMMB,30.22,I,1.0234,B*7E
2025-07-03 13:59:22,079 - [SERIAL] $GPRMC,105355,A,4805.81067,N,00142.51583,W,000.0,171.7,030725,,,A*6A
2025-07-03 13:59:22,087 - [SERIAL] $GPGGA,105355,4805.81067,N,00142.51583,W,1,09,,74.000,M,,M,,*51
2025-07-03 13:59:22,111 - [SERIAL] $HCHDG,170.9,,,000.8,E*2E
2025-07-03 13:59:22,113 - [SERIAL] $HCHDT,171.7,T*29
2025-07-03 13:59:22,115 - [SERIAL] $GPMDA,30.22,I,1.0234,B,,C,,C,,,,C,,T,,M,,N,,M*3A
2025-07-03 13:59:22,117 - [SERIAL] $IIMMB,30.22,I,1.0234,B*7E
2025-07-03 13:59:23,113 - [SERIAL] $GPRMC,105355,A,4805.81067,N,00142.51583,W,000.0,171.7,030725,,,A*6A
2025-07-03 13:59:23,124 - [SERIAL] $GPGGA,105355,4805.81067,N,00142.51583,W,1,09,,74.000,M,,M,,*51
2025-07-03 13:59:23,161 - [SERIAL] $HCHDG,170.9,,,000.8,E*2E
2025-07-03 13:59:23,163 - [SERIAL] $HCHDT,171.7,T*29
2025-07-03 13:59:23,165 - [SERIAL] $GPMDA,30.22,I,1.0234,B,,C,,C,,,,C,,T,,M,,N,,M*3A
2025-07-03 13:59:23,167 - [SERIAL] $IIMMB,30.22,I,1.0234,B*7E
2025-07-03 13:59:24,126 - [SERIAL] $GPRMC,105355,A,4805.81067,N,00142.51583,W,000.0,171.7,030725,,,A*6A
2025-07-03 13:59:24,135 - [SERIAL] $GPGGA,105355,4805.81067,N,00142.51583,W,1,09,,74.000,M,,M,,*51
2025-07-03 13:59:24,164 - [SERIAL] $HCHDG,170.9,,,000.8,E*2E
2025-07-03 13:59:24,165 - [SERIAL] $HCHDT,171.7,T*29
2025-07-03 13:59:24,167 - [SERIAL] $GPMDA,30.22,I,1.0234,B,,C,,C,,,,C,,T,,M,,N,,M*3A
2025-07-03 13:59:24,169 - [SERIAL] $IIMMB,30.22,I,1.0234,B*7E
2025-07-03 13:59:25,135 - [SERIAL] $GPRMC,105355,A,4805.81067,N,00142.51583,W,000.0,171.7,030725,,,A*6A
2025-07-03 13:59:25,152 - [SERIAL] $GPGGA,105355,4805.81067,N,00142.51583,W,1,09,,74.000,M,,M,,*51
2025-07-03 13:59:25,188 - [SERIAL] $HCHDG,170.9,,,000.8,E*2E
2025-07-03 13:59:25,190 - [SERIAL] $HCHDT,171.7,T*29
2025-07-03 13:59:25,192 - [SERIAL] $GPMDA,30.22,I,1.0234,B,,C,,C,,,,C,,T,,M,,N,,M*3A
2025-07-03 13:59:25,194 - [SERIAL] $IIMMB,30.22,I,1.0234,B*7E
2025-07-03 13:59:26,136 - [SERIAL] $GPRMC,105355,A,4805.81067,N,00142.51583,W,000.0,171.7,030725,,,A*6A
2025-07-03 13:59:26,153 - [SERIAL] $GPGGA,105355,4805.81067,N,00142.51583,W,1,09,,74.000,M,,M,,*51
2025-07-03 13:59:26,186 - [SERIAL] $HCHDG,170.9,,,000.8,E*2E
2025-07-03 13:59:26,189 - [SERIAL] $HCHDT,171.7,T*29
2025-07-03 13:59:26,193 - [SERIAL] $GPMDA,30.22,I,1.0234,B,,C,,C,,,,C,,T,,M,,N,,M*3A
2025-07-03 13:59:26,197 - [SERIAL] $IIMMB,30.22,I,1.0234,B*7E
2025-07-03 13:59:27,159 - [SERIAL] $GPRMC,105355,A,4805.81067,N,00142.51583,W,000.0,171.7,030725,,,A*6A
2025-07-03 13:59:27,169 - [SERIAL] $GPGGA,105355,4805.81067,N,00142.51583,W,1,09,,74.000,M,,M,,*51
2025-07-03 13:59:27,199 - [SERIAL] $HCHDG,170.9,,,000.8,E*2E
2025-07-03 13:59:27,200 - [SERIAL] $HCHDT,171.7,T*29
2025-07-03 13:59:27,202 - [SERIAL] $GPMDA,30.22,I,1.0234,B,,C,,C,,,,C,,T,,M,,N,,M*3A
2025-07-03 13:59:27,204 - [SERIAL] $IIMMB,30.22,I,1.0234,B*7E
2025-07-03 13:59:28,154 - [SERIAL] $GPRMC,105355,A,4805.81067,N,00142.51583,W,000.0,171.7,030725,,,A*6A
2025-07-03 13:59:28,166 - [SERIAL] $GPGGA,105355,4805.81067,N,00142.51583,W,1,09,,74.000,M,,M,,*51
2025-07-03 13:59:28,187 - [SERIAL] $HCHDG,170.9,,,000.8,E*2E
2025-07-03 13:59:28,188 - [SERIAL] $HCHDT,171.7,T*29
2025-07-03 13:59:28,191 - [SERIAL] $GPMDA,30.22,I,1.0234,B,,C,,C,,,,C,,T,,M,,N,,M*3A
2025-07-03 13:59:28,192 - [SERIAL] $IIMMB,30.22,I,1.0234,B*7E
2025-07-03 13:59:29,163 - [SERIAL] $GPRMC,105355,A,4805.81067,N,00142.51583,W,000.0,171.7,030725,,,A*6A
2025-07-03 13:59:29,175 - [SERIAL] $GPGGA,105355,4805.81067,N,00142.51583,W,1,09,,74.000,M,,M,,*51
2025-07-03 13:59:29,199 - [SERIAL] $HCHDG,170.9,,,000.8,E*2E
2025-07-03 13:59:29,200 - [SERIAL] $HCHDT,171.7,T*29
2025-07-03 13:59:29,202 - [SERIAL] $GPMDA,30.22,I,1.0234,B,,C,,C,,,,C,,T,,M,,N,,M*3A
2025-07-03 13:59:29,204 - [SERIAL] $IIMMB,30.22,I,1.0234,B*7E
2025-07-03 13:59:30,183 - [SERIAL] $GPRMC,105355,A,4805.81067,N,00142.51583,W,000.0,171.7,030725,,,A*6A
2025-07-03 13:59:30,196 - [SERIAL] $GPGGA,105355,4805.81067,N,00142.51583,W,1,09,,74.000,M,,M,,*51
2025-07-03 13:59:30,226 - [SERIAL] $HCHDG,170.9,,,000.8,E*2E
2025-07-03 13:59:30,227 - [SERIAL] $HCHDT,171.7,T*29
2025-07-03 13:59:30,230 - [SERIAL] $GPMDA,30.22,I,1.0234,B,,C,,C,,,,C,,T,,M,,N,,M*3A
2025-07-03 13:59:30,231 - [SERIAL] $IIMMB,30.22,I,1.0234,B*7E
2025-07-03 13:59:31,193 - [SERIAL] $GPRMC,105355,A,4805.81067,N,00142.51583,W,000.0,171.7,030725,,,A*6A
2025-07-03 13:59:31,203 - [SERIAL] $GPGGA,105355,4805.81067,N,00142.51583,W,1,09,,74.000,M,,M,,*51
2025-07-03 13:59:31,233 - [SERIAL] $HCHDG,170.9,,,000.8,E*2E
2025-07-03 13:59:31,235 - [SERIAL] $HCHDT,171.7,T*29
2025-07-03 13:59:31,237 - [SERIAL] $GPMDA,30.22,I,1.0234,B,,C,,C,,,,C,,T,,M,,N,,M*3A
2025-07-03 13:59:31,239 - [SERIAL] $IIMMB,30.22,I,1.0234,B*7E
2025-07-03 13:59:32,210 - [SERIAL] $GPRMC,105355,A,4805.81067,N,00142.51583,W,000.0,171.7,030725,,,A*6A
2025-07-03 13:59:32,224 - [SERIAL] $GPGGA,105355,4805.81067,N,00142.51583,W,1,09,,74.000,M,,M,,*51
2025-07-03 13:59:32,257 - [SERIAL] $HCHDG,170.9,,,000.8,E*2E
2025-07-03 13:59:32,258 - [SERIAL] $HCHDT,171.7,T*29
2025-07-03 13:59:32,260 - [SERIAL] $GPMDA,30.22,I,1.0234,B,,C,,C,,,,C,,T,,M,,N,,M*3A
2025-07-03 13:59:32,262 - [SERIAL] $IIMMB,30.22,I,1.0234,B*7E
2025-07-03 13:59:33,213 - [SERIAL] $GPRMC,105355,A,4805.81067,N,00142.51583,W,000.0,171.7,030725,,,A*6A
2025-07-03 13:59:33,221 - [SERIAL] $GPGGA,105355,4805.81067,N,00142.51583,W,1,09,,74.000,M,,M,,*51
2025-07-03 13:59:33,252 - [SERIAL] $HCHDG,170.9,,,000.8,E*2E
2025-07-03 13:59:33,253 - [SERIAL] $HCHDT,171.7,T*29
2025-07-03 13:59:33,255 - [SERIAL] $GPMDA,30.22,I,1.0234,B,,C,,C,,,,C,,T,,M,,N,,M*3A
2025-07-03 13:59:33,257 - [SERIAL] $IIMMB,30.22,I,1.0234,B*7E
2025-07-03 13:59:34,225 - [SERIAL] $GPRMC,105355,A,4805.81067,N,00142.51583,W,000.0,171.7,030725,,,A*6A
2025-07-03 13:59:34,238 - [SERIAL] $GPGGA,105355,4805.81067,N,00142.51583,W,1,09,,74.000,M,,M,,*51
2025-07-03 13:59:34,280 - [SERIAL] $HCHDG,170.9,,,000.8,E*2E
2025-07-03 13:59:34,282 - [SERIAL] $HCHDT,171.7,T*29
2025-07-03 13:59:34,284 - [SERIAL] $GPMDA,30.22,I,1.0234,B,,C,,C,,,,C,,T,,M,,N,,M*3A
2025-07-03 13:59:34,285 - [SERIAL] $IIMMB,30.22,I,1.0234,B*7E
2025-07-03 13:59:35,244 - [SERIAL] $GPRMC,105355,A,4805.81067,N,00142.51583,W,000.0,171.7,030725,,,A*6A
2025-07-03 13:59:35,259 - [SERIAL] $GPGGA,105355,4805.81067,N,00142.51583,W,1,09,,74.000,M,,M,,*51
2025-07-03 13:59:35,290 - [SERIAL] $HCHDG,170.9,,,000.8,E*2E
2025-07-03 13:59:35,292 - [SERIAL] $HCHDT,171.7,T*29
2025-07-03 13:59:35,294 - [SERIAL] $GPMDA,30.22,I,1.0234,B,,C,,C,,,,C,,T,,M,,N,,M*3A
2025-07-03 13:59:35,295 - [SERIAL] $IIMMB,30.22,I,1.0234,B*7E
2025-07-03 13:59:36,239 - [SERIAL] $GPRMC,105355,A,4805.81067,N,00142.51583,W,000.0,171.7,030725,,,A*6A
2025-07-03 13:59:36,260 - [SERIAL] $GPGGA,105355,4805.81067,N,00142.51583,W,1,09,,74.000,M,,M,,*51
2025-07-03 13:59:36,300 - [SERIAL] $HCHDG,170.9,,,000.8,E*2E
2025-07-03 13:59:36,301 - [SERIAL] $HCHDT,171.7,T*29
2025-07-03 13:59:36,304 - [SERIAL] $GPMDA,30.22,I,1.0234,B,,C,,C,,,,C,,T,,M,,N,,M*3A
2025-07-03 13:59:36,305 - [SERIAL] $IIMMB,30.22,I,1.0234,B*7E
2025-07-03 13:59:37,254 - [SERIAL] $GPRMC,105355,A,4805.81067,N,00142.51583,W,000.0,171.7,030725,,,A*6A
2025-07-03 13:59:37,271 - [SERIAL] $GPGGA,105355,4805.81067,N,00142.51583,W,1,09,,74.000,M,,M,,*51
2025-07-03 13:59:37,295 - [SERIAL] $HCHDG,170.9,,,000.8,E*2E
2025-07-03 13:59:37,296 - [SERIAL] $HCHDT,171.7,T*29
2025-07-03 13:59:37,299 - [SERIAL] $GPMDA,30.22,I,1.0234,B,,C,,C,,,,C,,T,,M,,N,,M*3A
2025-07-03 13:59:37,301 - [SERIAL] $IIMMB,30.22,I,1.0234,B*7E
2025-07-03 13:59:38,277 - [SERIAL] $GPRMC,105355,A,4805.81067,N,00142.51583,W,000.0,171.7,030725,,,A*6A
2025-07-03 13:59:38,292 - [SERIAL] $GPGGA,105355,4805.81067,N,00142.51583,W,1,09,,74.000,M,,M,,*51
2025-07-03 13:59:38,324 - [SERIAL] $HCHDG,170.9,,,000.8,E*2E
2025-07-03 13:59:38,326 - [SERIAL] $HCHDT,171.7,T*29
2025-07-03 13:59:38,329 - [SERIAL] $GPMDA,30.22,I,1.0234,B,,C,,C,,,,C,,T,,M,,N,,M*3A
2025-07-03 13:59:38,331 - [SERIAL] $IIMMB,30.22,I,1.0234,B*7E
2025-07-03 13:59:39,279 - [SERIAL] $GPRMC,105355,A,4805.81067,N,00142.51583,W,000.0,171.7,030725,,,A*6A
2025-07-03 13:59:39,303 - [SERIAL] $GPGGA,105355,4805.81067,N,00142.51583,W,1,09,,74.000,M,,M,,*51
2025-07-03 13:59:39,345 - [SERIAL] $HCHDG,170.9,,,000.8,E*2E
2025-07-03 13:59:39,347 - [SERIAL] $HCHDT,171.7,T*29
2025-07-03 13:59:39,350 - [SERIAL] $GPMDA,30.22,I,1.0234,B,,C,,C,,,,C,,T,,M,,N,,M*3A
2025-07-03 13:59:39,351 - [SERIAL] $IIMMB,30.22,I,1.0234,B*7E
2025-07-03 13:59:40,320 - [SERIAL] $GPRMC,105355,A,4805.81067,N,00142.51583,W,000.0,171.7,030725,,,A*6A
2025-07-03 13:59:40,338 - [SERIAL] $GPGGA,105355,4805.81067,N,00142.51583,W,1,09,,74.000,M,,M,,*51
2025-07-03 13:59:40,370 - [SERIAL] $HCHDG,170.9,,,000.8,E*2E
2025-07-03 13:59:40,372 - [SERIAL] $HCHDT,171.7,T*29
2025-07-03 13:59:40,374 - [SERIAL] $GPMDA,30.22,I,1.0234,B,,C,,C,,,,C,,T,,M,,N,,M*3A
2025-07-03 13:59:40,376 - [SERIAL] $IIMMB,30.22,I,1.0234,B*7E
2025-07-03 13:59:41,309 - [SERIAL] $GPRMC,105355,A,4805.81067,N,00142.51583,W,000.0,171.7,030725,,,A*6A
2025-07-03 13:59:41,322 - [SERIAL] $GPGGA,105355,4805.81067,N,00142.51583,W,1,09,,74.000,M,,M,,*51
2025-07-03 13:59:41,357 - [SERIAL] $HCHDG,170.9,,,000.8,E*2E
2025-07-03 13:59:41,358 - [SERIAL] $HCHDT,171.7,T*29
2025-07-03 13:59:41,360 - [SERIAL] $GPMDA,30.22,I,1.0234,B,,C,,C,,,,C,,T,,M,,N,,M*3A
2025-07-03 13:59:41,362 - [SERIAL] $IIMMB,30.22,I,1.0234,B*7E
2025-07-03 13:59:42,317 - [SERIAL] $GPRMC,105355,A,4805.81067,N,00142.51583,W,000.0,171.7,030725,,,A*6A
2025-07-03 13:59:42,335 - [SERIAL] $GPGGA,105355,4805.81067,N,00142.51583,W,1,09,,74.000,M,,M,,*51
2025-07-03 13:59:42,369 - [SERIAL] $HCHDG,170.9,,,000.8,E*2E
2025-07-03 13:59:42,370 - [SERIAL] $HCHDT,171.7,T*29
2025-07-03 13:59:42,373 - [SERIAL] $GPMDA,30.22,I,1.0234,B,,C,,C,,,,C,,T,,M,,N,,M*3A
2025-07-03 13:59:42,375 - [SERIAL] $IIMMB,30.22,I,1.0234,B*7E
2025-07-03 13:59:43,339 - [SERIAL] $GPRMC,105355,A,4805.81067,N,00142.51583,W,000.0,171.7,030725,,,A*6A
2025-07-03 13:59:43,343 - [SERIAL] $GPGGA,105355,4805.81067,N,00142.51583,W,1,09,,74.000,M,,M,,*51
2025-07-03 13:59:43,371 - [SERIAL] $HCHDG,170.9,,,000.8,E*2E
2025-07-03 13:59:43,372 - [SERIAL] $HCHDT,171.7,T*29
2025-07-03 13:59:43,375 - [SERIAL] $GPMDA,30.22,I,1.0234,B,,C,,C,,,,C,,T,,M,,N,,M*3A
2025-07-03 13:59:43,377 - [SERIAL] $IIMMB,30.22,I,1.0234,B*7E
2025-07-03 13:59:44,325 - [SERIAL] $GPRMC,105355,A,4805.81067,N,00142.51583,W,000.0,171.7,030725,,,A*6A
2025-07-03 13:59:44,336 - [SERIAL] $GPGGA,105355,4805.81067,N,00142.51583,W,1,09,,74.000,M,,M,,*51
2025-07-03 13:59:44,368 - [SERIAL] $HCHDG,170.9,,,000.8,E*2E
2025-07-03 13:59:44,370 - [SERIAL] $HCHDT,171.7,T*29
2025-07-03 13:59:44,373 - [SERIAL] $GPMDA,30.22,I,1.0234,B,,C,,C,,,,C,,T,,M,,N,,M*3A
2025-07-03 13:59:44,375 - [SERIAL] $IIMMB,30.22,I,1.0234,B*7E
2025-07-03 13:59:45,335 - [SERIAL] $GPRMC,105355,A,4805.81067,N,00142.51583,W,000.0,171.7,030725,,,A*6A
2025-07-03 13:59:45,345 - [SERIAL] $GPGGA,105355,4805.81067,N,00142.51583,W,1,09,,74.000,M,,M,,*51
2025-07-03 13:59:45,365 - [SERIAL] $HCHDG,170.9,,,000.8,E*2E
2025-07-03 13:59:45,367 - [SERIAL] $HCHDT,171.7,T*29
2025-07-03 13:59:45,370 - [SERIAL] $GPMDA,30.22,I,1.0234,B,,C,,C,,,,C,,T,,M,,N,,M*3A
2025-07-03 13:59:45,371 - [SERIAL] $IIMMB,30.22,I,1.0234,B*7E
2025-07-03 13:59:46,354 - [SERIAL] $GPRMC,105355,A,4805.81067,N,00142.51583,W,000.0,171.7,030725,,,A*6A
2025-07-03 13:59:46,370 - [SERIAL] $GPGGA,105355,4805.81067,N,00142.51583,W,1,09,,74.000,M,,M,,*51
2025-07-03 13:59:46,403 - [SERIAL] $HCHDG,170.9,,,000.8,E*2E
2025-07-03 13:59:46,404 - [SERIAL] $HCHDT,171.7,T*29
2025-07-03 13:59:46,407 - [SERIAL] $GPMDA,30.22,I,1.0234,B,,C,,C,,,,C,,T,,M,,N,,M*3A
2025-07-03 13:59:46,409 - [SERIAL] $IIMMB,30.22,I,1.0234,B*7E
2025-07-03 13:59:47,355 - [SERIAL] $GPRMC,105355,A,4805.81067,N,00142.51583,W,000.0,171.7,030725,,,A*6A
2025-07-03 13:59:47,366 - [SERIAL] $GPGGA,105355,4805.81067,N,00142.51583,W,1,09,,74.000,M,,M,,*51
2025-07-03 13:59:47,391 - [SERIAL] $HCHDG,170.9,,,000.8,E*2E
2025-07-03 13:59:47,393 - [SERIAL] $HCHDT,171.7,T*29
2025-07-03 13:59:47,397 - [SERIAL] $GPMDA,30.22,I,1.0234,B,,C,,C,,,,C,,T,,M,,N,,M*3A
2025-07-03 13:59:47,398 - [SERIAL] $IIMMB,30.22,I,1.0234,B*7E
2025-07-03 13:59:48,367 - [SERIAL] $GPRMC,105355,A,4805.81067,N,00142.51583,W,000.0,171.7,030725,,,A*6A
2025-07-03 13:59:48,382 - [SERIAL] $GPGGA,105355,4805.81067,N,00142.51583,W,1,09,,74.000,M,,M,,*51
2025-07-03 13:59:48,419 - [SERIAL] $HCHDG,170.9,,,000.8,E*2E
2025-07-03 13:59:48,420 - [SERIAL] $HCHDT,171.7,T*29
2025-07-03 13:59:48,423 - [SERIAL] $GPMDA,30.22,I,1.0234,B,,C,,C,,,,C,,T,,M,,N,,M*3A
2025-07-03 13:59:48,425 - [SERIAL] $IIMMB,30.22,I,1.0234,B*7E
2025-07-03 13:59:49,386 - [SERIAL] $GPRMC,105355,A,4805.81067,N,00142.51583,W,000.0,171.7,030725,,,A*6A
2025-07-03 13:59:49,400 - [SERIAL] $GPGGA,105355,4805.81067,N,00142.51583,W,1,09,,74.000,M,,M,,*51
2025-07-03 13:59:49,434 - [SERIAL] $HCHDG,170.9,,,000.8,E*2E
2025-07-03 13:59:49,436 - [SERIAL] $HCHDT,171.7,T*29
2025-07-03 13:59:49,439 - [SERIAL] $GPMDA,30.22,I,1.0234,B,,C,,C,,,,C,,T,,M,,N,,M*3A
2025-07-03 13:59:49,441 - [SERIAL] $IIMMB,30.22,I,1.0234,B*7E
2025-07-03 13:59:50,394 - [SERIAL] $GPRMC,105355,A,4805.81067,N,00142.51583,W,000.0,171.7,030725,,,A*6A
2025-07-03 13:59:50,409 - [SERIAL] $GPGGA,105355,4805.81067,N,00142.51583,W,1,09,,74.000,M,,M,,*51
2025-07-03 13:59:50,446 - [SERIAL] $HCHDG,170.9,,,000.8,E*2E
2025-07-03 13:59:50,448 - [SERIAL] $HCHDT,171.7,T*29
2025-07-03 13:59:50,451 - [SERIAL] $GPMDA,30.22,I,1.0234,B,,C,,C,,,,C,,T,,M,,N,,M*3A
2025-07-03 13:59:50,453 - [SERIAL] $IIMMB,30.22,I,1.0234,B*7E
2025-07-03 13:59:51,407 - [SERIAL] $GPRMC,105355,A,4805.81067,N,00142.51583,W,000.0,171.7,030725,,,A*6A
2025-07-03 13:59:51,421 - [SERIAL] $GPGGA,105355,4805.81067,N,00142.51583,W,1,09,,74.000,M,,M,,*51
2025-07-03 13:59:51,454 - [SERIAL] $HCHDG,170.9,,,000.8,E*2E
2025-07-03 13:59:51,455 - [SERIAL] $HCHDT,171.7,T*29
2025-07-03 13:59:51,458 - [SERIAL] $GPMDA,30.22,I,1.0234,B,,C,,C,,,,C,,T,,M,,N,,M*3A
2025-07-03 13:59:51,459 - [SERIAL] $IIMMB,30.22,I,1.0234,B*7E
2025-07-03 13:59:52,415 - [SERIAL] $GPRMC,105355,A,4805.81067,N,00142.51583,W,000.0,171.7,030725,,,A*6A
2025-07-03 13:59:52,424 - [SERIAL] $GPGGA,105355,4805.81067,N,00142.51583,W,1,09,,74.000,M,,M,,*51
2025-07-03 13:59:52,450 - [SERIAL] $HCHDG,170.9,,,000.8,E*2E
2025-07-03 13:59:52,451 - [SERIAL] $HCHDT,171.7,T*29
2025-07-03 13:59:52,455 - [SERIAL] $GPMDA,30.22,I,1.0234,B,,C,,C,,,,C,,T,,M,,N,,M*3A
2025-07-03 13:59:52,456 - [SERIAL] $IIMMB,30.22,I,1.0234,B*7E
2025-07-03 13:59:53,431 - [SERIAL] $GPRMC,105355,A,4805.81067,N,00142.51583,W,000.0,171.7,030725,,,A*6A
2025-07-03 13:59:53,445 - [SERIAL] $GPGGA,105355,4805.81067,N,00142.51583,W,1,09,,74.000,M,,M,,*51
2025-07-03 13:59:53,478 - [SERIAL] $HCHDG,170.9,,,000.8,E*2E
2025-07-03 13:59:53,479 - [SERIAL] $HCHDT,171.7,T*29
2025-07-03 13:59:53,481 - [SERIAL] $GPMDA,30.22,I,1.0234,B,,C,,C,,,,C,,T,,M,,N,,M*3A
2025-07-03 13:59:53,483 - [SERIAL] $IIMMB,30.22,I,1.0234,B*7E
2025-07-03 13:59:54,444 - [SERIAL] $GPRMC,105355,A,4805.81067,N,00142.51583,W,000.0,171.7,030725,,,A*6A
2025-07-03 13:59:54,459 - [SERIAL] $GPGGA,105355,4805.81067,N,00142.51583,W,1,09,,74.000,M,,M,,*51
2025-07-03 13:59:54,494 - [SERIAL] $HCHDG,170.9,,,000.8,E*2E
2025-07-03 13:59:54,495 - [SERIAL] $HCHDT,171.7,T*29
2025-07-03 13:59:54,498 - [SERIAL] $GPMDA,30.22,I,1.0234,B,,C,,C,,,,C,,T,,M,,N,,M*3A
2025-07-03 13:59:54,499 - [SERIAL] $IIMMB,30.22,I,1.0234,B*7E
2025-07-03 13:59:55,443 - [SERIAL] $GPRMC,105355,A,4805.81067,N,00142.51583,W,000.0,171.7,030725,,,A*6A
2025-07-03 13:59:55,472 - [SERIAL] $GPGGA,105355,4805.81067,N,00142.51583,W,1,09,,74.000,M,,M,,*51
2025-07-03 13:59:55,516 - [SERIAL] $HCHDG,170.9,,,000.8,E*2E
2025-07-03 13:59:55,517 - [SERIAL] $HCHDT,171.7,T*29
2025-07-03 13:59:55,520 - [SERIAL] $GPMDA,30.22,I,1.0234,B,,C,,C,,,,C,,T,,M,,N,,M*3A
2025-07-03 13:59:55,522 - [SERIAL] $IIMMB,30.22,I,1.0234,B*7E
2025-07-03 13:59:56,454 - [SERIAL] $GPRMC,105355,A,4805.81067,N,00142.51583,W,000.0,171.7,030725,,,A*6A
2025-07-03 13:59:56,467 - [SERIAL] $GPGGA,105355,4805.81067,N,00142.51583,W,1,09,,74.000,M,,M,,*51
2025-07-03 13:59:56,502 - [SERIAL] $HCHDG,170.9,,,000.8,E*2E
2025-07-03 13:59:56,504 - [SERIAL] $HCHDT,171.7,T*29
2025-07-03 13:59:56,506 - [SERIAL] $GPMDA,30.22,I,1.0234,B,,C,,C,,,,C,,T,,M,,N,,M*3A
2025-07-03 13:59:56,508 - [SERIAL] $IIMMB,30.22,I,1.0234,B*7E
2025-07-03 13:59:57,475 - [SERIAL] $GPRMC,105355,A,4805.81067,N,00142.51583,W,000.0,171.7,030725,,,A*6A
2025-07-03 13:59:57,491 - [SERIAL] $GPGGA,105355,4805.81067,N,00142.51583,W,1,09,,74.000,M,,M,,*51
2025-07-03 13:59:57,525 - [SERIAL] $HCHDG,170.9,,,000.8,E*2E
2025-07-03 13:59:57,526 - [SERIAL] $HCHDT,171.7,T*29
2025-07-03 13:59:57,529 - [SERIAL] $GPMDA,30.221,I,1.0234,B,,C,,C,,,,C,,T,,M,,N,,M*0B
2025-07-03 13:59:57,531 - [SERIAL] $IIMMB,30.221,I,1.0234,B*4F
2025-07-03 13:59:58,485 - [SERIAL] $GPRMC,105355,A,4805.81067,N,00142.51583,W,000.0,171.7,030725,,,A*6A
2025-07-03 13:59:58,500 - [SERIAL] $GPGGA,105355,4805.81067,N,00142.51583,W,1,09,,74.000,M,,M,,*51
2025-07-03 13:59:58,533 - [SERIAL] $HCHDG,170.9,,,000.8,E*2E
2025-07-03 13:59:58,534 - [SERIAL] $HCHDT,171.7,T*29
2025-07-03 13:59:58,536 - [SERIAL] $GPMDA,30.221,I,1.0234,B,,C,,C,,,,C,,T,,M,,N,,M*0B
2025-07-03 13:59:58,538 - [SERIAL] $IIMMB,30.221,I,1.0234,B*4F
2025-07-03 13:59:59,492 - [SERIAL] $GPRMC,105355,A,4805.81067,N,00142.51583,W,000.0,171.7,030725,,,A*6A
2025-07-03 13:59:59,506 - [SERIAL] $GPGGA,105355,4805.81067,N,00142.51583,W,1,09,,74.000,M,,M,,*51
2025-07-03 13:59:59,539 - [SERIAL] $HCHDG,170.9,,,000.8,E*2E
2025-07-03 13:59:59,540 - [SERIAL] $HCHDT,171.7,T*29
2025-07-03 13:59:59,542 - [SERIAL] $GPMDA,30.221,I,1.0234,B,,C,,C,,,,C,,T,,M,,N,,M*0B
2025-07-03 13:59:59,544 - [SERIAL] $IIMMB,30.221,I,1.0234,B*4F
