2025-07-03 13:20:02,698 - [SERIAL] $GPRMC,105355,A,4805.81067,N,00142.51583,W,000.0,176.9,030725,,,A*63
2025-07-03 13:20:02,705 - [SERIAL] $GPGGA,105355,4805.81067,N,00142.51583,W,1,09,,74.000,M,,M,,*51
2025-07-03 13:20:02,727 - [SERIAL] $HCHDG,176.2,,,000.8,E*23
2025-07-03 13:20:02,729 - [SERIAL] $HCHDT,176.9,T*20
2025-07-03 13:20:02,731 - [SERIAL] $GPMDA,30.228,I,1.0236,B,,C,,C,,,,C,,T,,M,,N,,M*00
2025-07-03 13:20:02,733 - [SERIAL] $IIMMB,30.228,I,1.0236,B*44
2025-07-03 13:20:03,715 - [SERIAL] $GPRMC,105355,A,4805.81067,N,00142.51583,W,000.0,176.9,030725,,,A*63
2025-07-03 13:20:03,732 - [SERIAL] $GPGGA,105355,4805.81067,N,00142.51583,W,1,09,,74.000,M,,M,,*51
2025-07-03 13:20:03,766 - [SERIAL] $HCHDG,176.1,,,000.8,E*20
2025-07-03 13:20:03,768 - [SERIAL] $HCHDT,176.9,T*20
2025-07-03 13:20:03,770 - [SERIAL] $GPMDA,30.228,I,1.0236,B,,C,,C,,,,C,,T,,M,,N,,M*00
2025-07-03 13:20:03,772 - [SERIAL] $IIMMB,30.228,I,1.0236,B*44
2025-07-03 13:20:04,718 - [SERIAL] $GPRMC,105355,A,4805.81067,N,00142.51583,W,000.0,176.9,030725,,,A*63
2025-07-03 13:20:04,730 - [SERIAL] $GPGGA,105355,4805.81067,N,00142.51583,W,1,09,,74.000,M,,M,,*51
2025-07-03 13:20:04,751 - [SERIAL] $HCHDG,176.2,,,000.8,E*23
2025-07-03 13:20:04,752 - [SERIAL] $HCHDT,176.9,T*20
2025-07-03 13:20:04,755 - [SERIAL] $GPMDA,30.228,I,1.0236,B,,C,,C,,,,C,,T,,M,,N,,M*00
2025-07-03 13:20:04,756 - [SERIAL] $IIMMB,30.228,I,1.0236,B*44
2025-07-03 13:20:05,733 - [SERIAL] $GPRMC,105355,A,4805.81067,N,00142.51583,W,000.0,176.9,030725,,,A*63
2025-07-03 13:20:05,742 - [SERIAL] $GPGGA,105355,4805.81067,N,00142.51583,W,1,09,,74.000,M,,M,,*51
2025-07-03 13:20:05,765 - [SERIAL] $HCHDG,176.2,,,000.8,E*23
2025-07-03 13:20:05,766 - [SERIAL] $HCHDT,176.9,T*20
2025-07-03 13:20:05,769 - [SERIAL] $GPMDA,30.228,I,1.0236,B,,C,,C,,,,C,,T,,M,,N,,M*00
2025-07-03 13:20:05,770 - [SERIAL] $IIMMB,30.228,I,1.0236,B*44
2025-07-03 13:20:06,750 - [SERIAL] $GPRMC,105355,A,4805.81067,N,00142.51583,W,000.0,176.9,030725,,,A*63
2025-07-03 13:20:06,759 - [SERIAL] $GPGGA,105355,4805.81067,N,00142.51583,W,1,09,,74.000,M,,M,,*51
2025-07-03 13:20:06,781 - [SERIAL] $HCHDG,176.2,,,000.8,E*23
2025-07-03 13:20:06,782 - [SERIAL] $HCHDT,176.9,T*20
2025-07-03 13:20:06,784 - [SERIAL] $GPMDA,30.228,I,1.0236,B,,C,,C,,,,C,,T,,M,,N,,M*00
2025-07-03 13:20:06,786 - [SERIAL] $IIMMB,30.228,I,1.0236,B*44
2025-07-03 13:20:07,761 - [SERIAL] $GPRMC,105355,A,4805.81067,N,00142.51583,W,000.0,176.9,030725,,,A*63
2025-07-03 13:20:07,770 - [SERIAL] $GPGGA,105355,4805.81067,N,00142.51583,W,1,09,,74.000,M,,M,,*51
2025-07-03 13:20:07,791 - [SERIAL] $HCHDG,176.2,,,000.8,E*23
2025-07-03 13:20:07,792 - [SERIAL] $HCHDT,176.9,T*20
2025-07-03 13:20:07,795 - [SERIAL] $GPMDA,30.228,I,1.0236,B,,C,,C,,,,C,,T,,M,,N,,M*00
2025-07-03 13:20:07,796 - [SERIAL] $IIMMB,30.228,I,1.0236,B*44
2025-07-03 13:20:08,776 - [SERIAL] $GPRMC,105355,A,4805.81067,N,00142.51583,W,000.0,176.9,030725,,,A*63
2025-07-03 13:20:08,794 - [SERIAL] $GPGGA,105355,4805.81067,N,00142.51583,W,1,09,,74.000,M,,M,,*51
2025-07-03 13:20:08,841 - [SERIAL] $HCHDG,176.1,,,000.8,E*20
2025-07-03 13:20:08,842 - [SERIAL] $HCHDT,176.9,T*20
2025-07-03 13:20:08,844 - [SERIAL] $GPMDA,30.228,I,1.0236,B,,C,,C,,,,C,,T,,M,,N,,M*00
2025-07-03 13:20:08,846 - [SERIAL] $IIMMB,30.228,I,1.0236,B*44
2025-07-03 13:20:09,789 - [SERIAL] $GPRMC,105355,A,4805.81067,N,00142.51583,W,000.0,176.9,030725,,,A*63
2025-07-03 13:20:09,798 - [SERIAL] $GPGGA,105355,4805.81067,N,00142.51583,W,1,09,,74.000,M,,M,,*51
2025-07-03 13:20:09,819 - [SERIAL] $HCHDG,176.2,,,000.8,E*23
2025-07-03 13:20:09,821 - [SERIAL] $HCHDT,176.9,T*20
2025-07-03 13:20:09,823 - [SERIAL] $GPMDA,30.228,I,1.0236,B,,C,,C,,,,C,,T,,M,,N,,M*00
2025-07-03 13:20:09,825 - [SERIAL] $IIMMB,30.228,I,1.0236,B*44
2025-07-03 13:20:10,799 - [SERIAL] $GPRMC,105355,A,4805.81067,N,00142.51583,W,000.0,176.9,030725,,,A*63
2025-07-03 13:20:10,813 - [SERIAL] $GPGGA,105355,4805.81067,N,00142.51583,W,1,09,,74.000,M,,M,,*51
2025-07-03 13:20:10,848 - [SERIAL] $HCHDG,176.1,,,000.8,E*20
2025-07-03 13:20:10,850 - [SERIAL] $HCHDT,176.9,T*20
2025-07-03 13:20:10,852 - [SERIAL] $GPMDA,30.228,I,1.0236,B,,C,,C,,,,C,,T,,M,,N,,M*00
2025-07-03 13:20:10,853 - [SERIAL] $IIMMB,30.228,I,1.0236,B*44
2025-07-03 13:20:11,803 - [SERIAL] $GPRMC,105355,A,4805.81067,N,00142.51583,W,000.0,176.9,030725,,,A*63
2025-07-03 13:20:11,811 - [SERIAL] $GPGGA,105355,4805.81067,N,00142.51583,W,1,09,,74.000,M,,M,,*51
2025-07-03 13:20:11,834 - [SERIAL] $HCHDG,176.1,,,000.8,E*20
2025-07-03 13:20:11,835 - [SERIAL] $HCHDT,176.9,T*20
2025-07-03 13:20:11,839 - [SERIAL] $GPMDA,30.228,I,1.0236,B,,C,,C,,,,C,,T,,M,,N,,M*00
2025-07-03 13:20:11,840 - [SERIAL] $IIMMB,30.228,I,1.0236,B*44
2025-07-03 13:20:12,811 - [SERIAL] $GPRMC,105355,A,4805.81067,N,00142.51583,W,000.0,176.9,030725,,,A*63
2025-07-03 13:20:12,820 - [SERIAL] $GPGGA,105355,4805.81067,N,00142.51583,W,1,09,,74.000,M,,M,,*51
2025-07-03 13:20:12,841 - [SERIAL] $HCHDG,176.1,,,000.8,E*20
2025-07-03 13:20:12,843 - [SERIAL] $HCHDT,176.9,T*20
2025-07-03 13:20:12,845 - [SERIAL] $GPMDA,30.228,I,1.0236,B,,C,,C,,,,C,,T,,M,,N,,M*00
2025-07-03 13:20:12,847 - [SERIAL] $IIMMB,30.228,I,1.0236,B*44
2025-07-03 13:20:13,826 - [SERIAL] $GPRMC,105355,A,4805.81067,N,00142.51583,W,000.0,176.9,030725,,,A*63
2025-07-03 13:20:13,834 - [SERIAL] $GPGGA,105355,4805.81067,N,00142.51583,W,1,09,,74.000,M,,M,,*51
2025-07-03 13:20:13,860 - [SERIAL] $HCHDG,176.2,,,000.8,E*23
2025-07-03 13:20:13,861 - [SERIAL] $HCHDT,176.9,T*20
2025-07-03 13:20:13,864 - [SERIAL] $GPMDA,30.228,I,1.0236,B,,C,,C,,,,C,,T,,M,,N,,M*00
2025-07-03 13:20:13,866 - [SERIAL] $IIMMB,30.228,I,1.0236,B*44
2025-07-03 13:20:14,851 - [SERIAL] $GPRMC,105355,A,4805.81067,N,00142.51583,W,000.0,176.9,030725,,,A*63
2025-07-03 13:20:14,868 - [SERIAL] $GPGGA,105355,4805.81067,N,00142.51583,W,1,09,,74.000,M,,M,,*51
2025-07-03 13:20:14,905 - [SERIAL] $HCHDG,176.2,,,000.8,E*23
2025-07-03 13:20:14,907 - [SERIAL] $HCHDT,176.9,T*20
2025-07-03 13:20:14,909 - [SERIAL] $GPMDA,30.228,I,1.0236,B,,C,,C,,,,C,,T,,M,,N,,M*00
2025-07-03 13:20:14,911 - [SERIAL] $IIMMB,30.228,I,1.0236,B*44
2025-07-03 13:20:15,855 - [SERIAL] $GPRMC,105355,A,4805.81067,N,00142.51583,W,000.0,176.9,030725,,,A*63
2025-07-03 13:20:15,863 - [SERIAL] $GPGGA,105355,4805.81067,N,00142.51583,W,1,09,,74.000,M,,M,,*51
2025-07-03 13:20:15,885 - [SERIAL] $HCHDG,176.1,,,000.8,E*20
2025-07-03 13:20:15,886 - [SERIAL] $HCHDT,176.9,T*20
2025-07-03 13:20:15,889 - [SERIAL] $GPMDA,30.228,I,1.0236,B,,C,,C,,,,C,,T,,M,,N,,M*00
2025-07-03 13:20:15,890 - [SERIAL] $IIMMB,30.228,I,1.0236,B*44
2025-07-03 13:20:16,867 - [SERIAL] $GPRMC,105355,A,4805.81067,N,00142.51583,W,000.0,176.9,030725,,,A*63
2025-07-03 13:20:16,881 - [SERIAL] $GPGGA,105355,4805.81067,N,00142.51583,W,1,09,,74.000,M,,M,,*51
2025-07-03 13:20:16,907 - [SERIAL] $HCHDG,176.2,,,000.8,E*23
2025-07-03 13:20:16,909 - [SERIAL] $HCHDT,176.9,T*20
2025-07-03 13:20:16,913 - [SERIAL] $GPMDA,30.228,I,1.0236,B,,C,,C,,,,C,,T,,M,,N,,M*00
2025-07-03 13:20:16,914 - [SERIAL] $IIMMB,30.228,I,1.0236,B*44
2025-07-03 13:20:17,880 - [SERIAL] $GPRMC,105355,A,4805.81067,N,00142.51583,W,000.0,176.9,030725,,,A*63
2025-07-03 13:20:17,892 - [SERIAL] $GPGGA,105355,4805.81067,N,00142.51583,W,1,09,,74.000,M,,M,,*51
2025-07-03 13:20:17,917 - [SERIAL] $HCHDG,176.1,,,000.8,E*20
2025-07-03 13:20:17,919 - [SERIAL] $HCHDT,176.9,T*20
2025-07-03 13:20:17,922 - [SERIAL] $GPMDA,30.228,I,1.0236,B,,C,,C,,,,C,,T,,M,,N,,M*00
2025-07-03 13:20:17,924 - [SERIAL] $IIMMB,30.228,I,1.0236,B*44
2025-07-03 13:20:18,888 - [SERIAL] $GPRMC,105355,A,4805.81067,N,00142.51583,W,000.0,176.9,030725,,,A*63
2025-07-03 13:20:18,900 - [SERIAL] $GPGGA,105355,4805.81067,N,00142.51583,W,1,09,,74.000,M,,M,,*51
2025-07-03 13:20:18,934 - [SERIAL] $HCHDG,176.2,,,000.8,E*23
2025-07-03 13:20:18,935 - [SERIAL] $HCHDT,176.9,T*20
2025-07-03 13:20:18,937 - [SERIAL] $GPMDA,30.228,I,1.0236,B,,C,,C,,,,C,,T,,M,,N,,M*00
2025-07-03 13:20:18,939 - [SERIAL] $IIMMB,30.228,I,1.0236,B*44
2025-07-03 13:20:19,907 - [SERIAL] $GPRMC,105355,A,4805.81067,N,00142.51583,W,000.0,176.9,030725,,,A*63
2025-07-03 13:20:19,922 - [SERIAL] $GPGGA,105355,4805.81067,N,00142.51583,W,1,09,,74.000,M,,M,,*51
2025-07-03 13:20:19,958 - [SERIAL] $HCHDG,176.1,,,000.8,E*20
2025-07-03 13:20:19,959 - [SERIAL] $HCHDT,176.9,T*20
2025-07-03 13:20:19,962 - [SERIAL] $GPMDA,30.228,I,1.0236,B,,C,,C,,,,C,,T,,M,,N,,M*00
2025-07-03 13:20:19,963 - [SERIAL] $IIMMB,30.228,I,1.0236,B*44
2025-07-03 13:20:20,911 - [SERIAL] $GPRMC,105355,A,4805.81067,N,00142.51583,W,000.0,176.9,030725,,,A*63
2025-07-03 13:20:20,954 - [SERIAL] $GPGGA,105355,4805.81067,N,00142.51583,W,1,09,,74.000,M,,M,,*51
2025-07-03 13:20:20,994 - [SERIAL] $HCHDG,176.1,,,000.8,E*20
2025-07-03 13:20:20,995 - [SERIAL] $HCHDT,176.9,T*20
2025-07-03 13:20:20,998 - [SERIAL] $GPMDA,30.228,I,1.0236,B,,C,,C,,,,C,,T,,M,,N,,M*00
2025-07-03 13:20:21,000 - [SERIAL] $IIMMB,30.228,I,1.0236,B*44
2025-07-03 13:20:21,921 - [SERIAL] $GPRMC,105355,A,4805.81067,N,00142.51583,W,000.0,176.9,030725,,,A*63
2025-07-03 13:20:21,933 - [SERIAL] $GPGGA,105355,4805.81067,N,00142.51583,W,1,09,,74.000,M,,M,,*51
2025-07-03 13:20:21,959 - [SERIAL] $HCHDG,176.2,,,000.8,E*23
2025-07-03 13:20:21,961 - [SERIAL] $HCHDT,176.9,T*20
2025-07-03 13:20:21,964 - [SERIAL] $GPMDA,30.228,I,1.0236,B,,C,,C,,,,C,,T,,M,,N,,M*00
2025-07-03 13:20:21,966 - [SERIAL] $IIMMB,30.228,I,1.0236,B*44
2025-07-03 13:20:22,930 - [SERIAL] $GPRMC,105355,A,4805.81067,N,00142.51583,W,000.0,176.9,030725,,,A*63
2025-07-03 13:20:22,939 - [SERIAL] $GPGGA,105355,4805.81067,N,00142.51583,W,1,09,,74.000,M,,M,,*51
2025-07-03 13:20:22,972 - [SERIAL] $HCHDG,176.1,,,000.8,E*20
2025-07-03 13:20:22,975 - [SERIAL] $HCHDT,176.9,T*20
2025-07-03 13:20:22,982 - [SERIAL] $GPMDA,30.228,I,1.0236,B,,C,,C,,,,C,,T,,M,,N,,M*00
2025-07-03 13:20:22,985 - [SERIAL] $IIMMB,30.228,I,1.0236,B*44
2025-07-03 13:20:23,936 - [SERIAL] $GPRMC,105355,A,4805.81067,N,00142.51583,W,000.0,176.9,030725,,,A*63
2025-07-03 13:20:23,946 - [SERIAL] $GPGGA,105355,4805.81067,N,00142.51583,W,1,09,,74.000,M,,M,,*51
2025-07-03 13:20:23,972 - [SERIAL] $HCHDG,176.2,,,000.8,E*23
2025-07-03 13:20:23,973 - [SERIAL] $HCHDT,176.9,T*20
2025-07-03 13:20:23,976 - [SERIAL] $GPMDA,30.228,I,1.0236,B,,C,,C,,,,C,,T,,M,,N,,M*00
2025-07-03 13:20:23,978 - [SERIAL] $IIMMB,30.228,I,1.0236,B*44
2025-07-03 13:20:24,952 - [SERIAL] $GPRMC,105355,A,4805.81067,N,00142.51583,W,000.0,176.9,030725,,,A*63
2025-07-03 13:20:24,968 - [SERIAL] $GPGGA,105355,4805.81067,N,00142.51583,W,1,09,,74.000,M,,M,,*51
2025-07-03 13:20:24,999 - [SERIAL] $HCHDG,176.1,,,000.8,E*20
2025-07-03 13:20:25,000 - [SERIAL] $HCHDT,176.9,T*20
2025-07-03 13:20:25,005 - [SERIAL] $GPMDA,30.228,I,1.0236,B,,C,,C,,,,C,,T,,M,,N,,M*00
2025-07-03 13:20:25,008 - [SERIAL] $IIMMB,30.228,I,1.0236,B*44
2025-07-03 13:20:25,970 - [SERIAL] $GPRMC,105355,A,4805.81067,N,00142.51583,W,000.0,176.9,030725,,,A*63
2025-07-03 13:20:25,978 - [SERIAL] $GPGGA,105355,4805.81067,N,00142.51583,W,1,09,,74.000,M,,M,,*51
2025-07-03 13:20:25,998 - [SERIAL] $HCHDG,176.2,,,000.8,E*23
2025-07-03 13:20:26,000 - [SERIAL] $HCHDT,176.9,T*20
2025-07-03 13:20:26,002 - [SERIAL] $GPMDA,30.228,I,1.0236,B,,C,,C,,,,C,,T,,M,,N,,M*00
2025-07-03 13:20:26,003 - [SERIAL] $IIMMB,30.228,I,1.0236,B*44
2025-07-03 13:20:26,977 - [SERIAL] $GPRMC,105355,A,4805.81067,N,00142.51583,W,000.0,176.9,030725,,,A*63
2025-07-03 13:20:26,990 - [SERIAL] $GPGGA,105355,4805.81067,N,00142.51583,W,1,09,,74.000,M,,M,,*51
2025-07-03 13:20:27,020 - [SERIAL] $HCHDG,176.2,,,000.8,E*23
2025-07-03 13:20:27,022 - [SERIAL] $HCHDT,176.9,T*20
2025-07-03 13:20:27,024 - [SERIAL] $GPMDA,30.228,I,1.0236,B,,C,,C,,,,C,,T,,M,,N,,M*00
2025-07-03 13:20:27,026 - [SERIAL] $IIMMB,30.228,I,1.0236,B*44
2025-07-03 13:20:27,979 - [SERIAL] $GPRMC,105355,A,4805.81067,N,00142.51583,W,000.0,176.9,030725,,,A*63
2025-07-03 13:20:27,986 - [SERIAL] $GPGGA,105355,4805.81067,N,00142.51583,W,1,09,,74.000,M,,M,,*51
2025-07-03 13:20:28,007 - [SERIAL] $HCHDG,176.1,,,000.8,E*20
2025-07-03 13:20:28,009 - [SERIAL] $HCHDT,176.9,T*20
2025-07-03 13:20:28,011 - [SERIAL] $GPMDA,30.228,I,1.0236,B,,C,,C,,,,C,,T,,M,,N,,M*00
2025-07-03 13:20:28,013 - [SERIAL] $IIMMB,30.228,I,1.0236,B*44
2025-07-03 13:20:28,993 - [SERIAL] $GPRMC,105355,A,4805.81067,N,00142.51583,W,000.0,176.9,030725,,,A*63
2025-07-03 13:20:28,998 - [SERIAL] $GPGGA,105355,4805.81067,N,00142.51583,W,1,09,,74.000,M,,M,,*51
2025-07-03 13:20:29,026 - [SERIAL] $HCHDG,176.2,,,000.8,E*23
2025-07-03 13:20:29,028 - [SERIAL] $HCHDT,176.9,T*20
2025-07-03 13:20:29,032 - [SERIAL] $GPMDA,30.228,I,1.0236,B,,C,,C,,,,C,,T,,M,,N,,M*00
2025-07-03 13:20:29,035 - [SERIAL] $IIMMB,30.228,I,1.0236,B*44
2025-07-03 13:20:30,001 - [SERIAL] $GPRMC,105355,A,4805.81067,N,00142.51583,W,000.0,176.9,030725,,,A*63
2025-07-03 13:20:30,007 - [SERIAL] $GPGGA,105355,4805.81067,N,00142.51583,W,1,09,,74.000,M,,M,,*51
2025-07-03 13:20:30,028 - [SERIAL] $HCHDG,176.1,,,000.8,E*20
2025-07-03 13:20:30,029 - [SERIAL] $HCHDT,176.9,T*20
2025-07-03 13:20:30,032 - [SERIAL] $GPMDA,30.228,I,1.0236,B,,C,,C,,,,C,,T,,M,,N,,M*00
2025-07-03 13:20:30,035 - [SERIAL] $IIMMB,30.228,I,1.0236,B*44
2025-07-03 13:20:31,025 - [SERIAL] $GPRMC,105355,A,4805.81067,N,00142.51583,W,000.0,176.9,030725,,,A*63
2025-07-03 13:20:31,045 - [SERIAL] $GPGGA,105355,4805.81067,N,00142.51583,W,1,09,,74.000,M,,M,,*51
2025-07-03 13:20:31,081 - [SERIAL] $HCHDG,176.1,,,000.8,E*20
2025-07-03 13:20:31,082 - [SERIAL] $HCHDT,176.9,T*20
2025-07-03 13:20:31,084 - [SERIAL] $GPMDA,30.228,I,1.0236,B,,C,,C,,,,C,,T,,M,,N,,M*00
2025-07-03 13:20:31,086 - [SERIAL] $IIMMB,30.228,I,1.0236,B*44
2025-07-03 13:20:32,033 - [SERIAL] $GPRMC,105355,A,4805.81067,N,00142.51583,W,000.0,176.9,030725,,,A*63
2025-07-03 13:20:32,064 - [SERIAL] $GPGGA,105355,4805.81067,N,00142.51583,W,1,09,,74.000,M,,M,,*51
2025-07-03 13:20:32,100 - [SERIAL] $HCHDG,176.2,,,000.8,E*23
2025-07-03 13:20:32,101 - [SERIAL] $HCHDT,176.9,T*20
2025-07-03 13:20:32,103 - [SERIAL] $GPMDA,30.228,I,1.0236,B,,C,,C,,,,C,,T,,M,,N,,M*00
2025-07-03 13:20:32,105 - [SERIAL] $IIMMB,30.228,I,1.0236,B*44
2025-07-03 13:20:33,050 - [SERIAL] $GPRMC,105355,A,4805.81067,N,00142.51583,W,000.0,176.9,030725,,,A*63
2025-07-03 13:20:33,068 - [SERIAL] $GPGGA,105355,4805.81067,N,00142.51583,W,1,09,,74.000,M,,M,,*51
2025-07-03 13:20:33,101 - [SERIAL] $HCHDG,176.1,,,000.8,E*20
2025-07-03 13:20:33,102 - [SERIAL] $HCHDT,176.9,T*20
2025-07-03 13:20:33,104 - [SERIAL] $GPMDA,30.228,I,1.0236,B,,C,,C,,,,C,,T,,M,,N,,M*00
2025-07-03 13:20:33,106 - [SERIAL] $IIMMB,30.228,I,1.0236,B*44
2025-07-03 13:20:34,042 - [SERIAL] $GPRMC,105355,A,4805.81067,N,00142.51583,W,000.0,176.9,030725,,,A*63
2025-07-03 13:20:34,046 - [SERIAL] $GPGGA,105355,4805.81067,N,00142.51583,W,1,09,,74.000,M,,M,,*51
2025-07-03 13:20:34,068 - [SERIAL] $HCHDG,176.2,,,000.8,E*23
2025-07-03 13:20:34,070 - [SERIAL] $HCHDT,176.9,T*20
2025-07-03 13:20:34,072 - [SERIAL] $GPMDA,30.228,I,1.0236,B,,C,,C,,,,C,,T,,M,,N,,M*00
2025-07-03 13:20:34,074 - [SERIAL] $IIMMB,30.228,I,1.0236,B*44
2025-07-03 13:20:35,072 - [SERIAL] $GPRMC,105355,A,4805.81067,N,00142.51583,W,000.0,176.9,030725,,,A*63
2025-07-03 13:20:35,088 - [SERIAL] $GPGGA,105355,4805.81067,N,00142.51583,W,1,09,,74.000,M,,M,,*51
2025-07-03 13:20:35,122 - [SERIAL] $HCHDG,176.1,,,000.8,E*20
2025-07-03 13:20:35,123 - [SERIAL] $HCHDT,176.9,T*20
2025-07-03 13:20:35,126 - [SERIAL] $GPMDA,30.228,I,1.0236,B,,C,,C,,,,C,,T,,M,,N,,M*00
2025-07-03 13:20:35,127 - [SERIAL] $IIMMB,30.228,I,1.0236,B*44
2025-07-03 13:20:36,075 - [SERIAL] $GPRMC,105355,A,4805.81067,N,00142.51583,W,000.0,176.9,030725,,,A*63
2025-07-03 13:20:36,080 - [SERIAL] $GPGGA,105355,4805.81067,N,00142.51583,W,1,09,,74.000,M,,M,,*51
2025-07-03 13:20:36,106 - [SERIAL] $HCHDG,176.1,,,000.8,E*20
2025-07-03 13:20:36,108 - [SERIAL] $HCHDT,176.9,T*20
2025-07-03 13:20:36,110 - [SERIAL] $GPMDA,30.228,I,1.0236,B,,C,,C,,,,C,,T,,M,,N,,M*00
2025-07-03 13:20:36,111 - [SERIAL] $IIMMB,30.228,I,1.0236,B*44
2025-07-03 13:20:37,107 - [SERIAL] $GPRMC,105355,A,4805.81067,N,00142.51583,W,000.0,176.9,030725,,,A*63
2025-07-03 13:20:37,127 - [SERIAL] $GPGGA,105355,4805.81067,N,00142.51583,W,1,09,,74.000,M,,M,,*51
2025-07-03 13:20:37,161 - [SERIAL] $HCHDG,176.2,,,000.8,E*23
2025-07-03 13:20:37,162 - [SERIAL] $HCHDT,176.9,T*20
2025-07-03 13:20:37,164 - [SERIAL] $GPMDA,30.228,I,1.0236,B,,C,,C,,,,C,,T,,M,,N,,M*00
2025-07-03 13:20:37,166 - [SERIAL] $IIMMB,30.228,I,1.0236,B*44
2025-07-03 13:20:38,120 - [SERIAL] $GPRMC,105355,A,4805.81067,N,00142.51583,W,000.0,176.9,030725,,,A*63
2025-07-03 13:20:38,129 - [SERIAL] $GPGGA,105355,4805.81067,N,00142.51583,W,1,09,,74.000,M,,M,,*51
2025-07-03 13:20:38,150 - [SERIAL] $HCHDG,176.1,,,000.8,E*20
2025-07-03 13:20:38,152 - [SERIAL] $HCHDT,176.9,T*20
2025-07-03 13:20:38,155 - [SERIAL] $GPMDA,30.228,I,1.0236,B,,C,,C,,,,C,,T,,M,,N,,M*00
2025-07-03 13:20:38,157 - [SERIAL] $IIMMB,30.228,I,1.0236,B*44
2025-07-03 13:20:39,130 - [SERIAL] $GPRMC,105355,A,4805.81067,N,00142.51583,W,000.0,176.9,030725,,,A*63
2025-07-03 13:20:39,145 - [SERIAL] $GPGGA,105355,4805.81067,N,00142.51583,W,1,09,,74.000,M,,M,,*51
2025-07-03 13:20:39,182 - [SERIAL] $HCHDG,176.2,,,000.8,E*23
2025-07-03 13:20:39,184 - [SERIAL] $HCHDT,176.9,T*20
2025-07-03 13:20:39,187 - [SERIAL] $GPMDA,30.228,I,1.0236,B,,C,,C,,,,C,,T,,M,,N,,M*00
2025-07-03 13:20:39,189 - [SERIAL] $IIMMB,30.228,I,1.0236,B*44
2025-07-03 13:20:40,150 - [SERIAL] $GPRMC,105355,A,4805.81067,N,00142.51583,W,000.0,176.9,030725,,,A*63
2025-07-03 13:20:40,156 - [SERIAL] $GPGGA,105355,4805.81067,N,00142.51583,W,1,09,,74.000,M,,M,,*51
2025-07-03 13:20:40,177 - [SERIAL] $HCHDG,176.1,,,000.8,E*20
2025-07-03 13:20:40,179 - [SERIAL] $HCHDT,176.9,T*20
2025-07-03 13:20:40,181 - [SERIAL] $GPMDA,30.228,I,1.0236,B,,C,,C,,,,C,,T,,M,,N,,M*00
2025-07-03 13:20:40,183 - [SERIAL] $IIMMB,30.228,I,1.0236,B*44
2025-07-03 13:20:41,142 - [SERIAL] $GPRMC,105355,A,4805.81067,N,00142.51583,W,000.0,176.9,030725,,,A*63
2025-07-03 13:20:41,157 - [SERIAL] $GPGGA,105355,4805.81067,N,00142.51583,W,1,09,,74.000,M,,M,,*51
2025-07-03 13:20:41,180 - [SERIAL] $HCHDG,176.2,,,000.8,E*23
2025-07-03 13:20:41,181 - [SERIAL] $HCHDT,176.9,T*20
2025-07-03 13:20:41,184 - [SERIAL] $GPMDA,30.228,I,1.0236,B,,C,,C,,,,C,,T,,M,,N,,M*00
2025-07-03 13:20:41,186 - [SERIAL] $IIMMB,30.228,I,1.0236,B*44
2025-07-03 13:20:42,152 - [SERIAL] $GPRMC,105355,A,4805.81067,N,00142.51583,W,000.0,176.9,030725,,,A*63
2025-07-03 13:20:42,163 - [SERIAL] $GPGGA,105355,4805.81067,N,00142.51583,W,1,09,,74.000,M,,M,,*51
2025-07-03 13:20:42,183 - [SERIAL] $HCHDG,176.1,,,000.8,E*20
2025-07-03 13:20:42,184 - [SERIAL] $HCHDT,176.9,T*20
2025-07-03 13:20:42,187 - [SERIAL] $GPMDA,30.228,I,1.0236,B,,C,,C,,,,C,,T,,M,,N,,M*00
2025-07-03 13:20:42,189 - [SERIAL] $IIMMB,30.228,I,1.0236,B*44
2025-07-03 13:20:43,164 - [SERIAL] $GPRMC,105355,A,4805.81067,N,00142.51583,W,000.0,176.9,030725,,,A*63
2025-07-03 13:20:43,174 - [SERIAL] $GPGGA,105355,4805.81067,N,00142.51583,W,1,09,,74.000,M,,M,,*51
2025-07-03 13:20:43,195 - [SERIAL] $HCHDG,176.2,,,000.8,E*23
2025-07-03 13:20:43,196 - [SERIAL] $HCHDT,176.9,T*20
2025-07-03 13:20:43,198 - [SERIAL] $GPMDA,30.228,I,1.0236,B,,C,,C,,,,C,,T,,M,,N,,M*00
2025-07-03 13:20:43,200 - [SERIAL] $IIMMB,30.228,I,1.0236,B*44
2025-07-03 13:20:48,267 - [SERIAL] $GPRMC,105355,A,4805.81067,N,00142.51583,W,000.0,176.9,030725,,,A*63
2025-07-03 13:20:48,279 - [SERIAL] $GPGGA,105355,4805.81067,N,00142.51583,W,1,09,,74.000,M,,M,,*51
2025-07-03 13:20:48,316 - [SERIAL] $HCHDG,176.2,,,000.8,E*23
2025-07-03 13:20:48,317 - [SERIAL] $HCHDT,176.9,T*20
2025-07-03 13:20:48,319 - [SERIAL] $GPMDA,30.228,I,1.0236,B,,C,,C,,,,C,,T,,M,,N,,M*00
2025-07-03 13:20:48,320 - [SERIAL] $IIMMB,30.228,I,1.0236,B*44
2025-07-03 13:20:49,267 - [SERIAL] $GPRMC,105355,A,4805.81067,N,00142.51583,W,000.0,176.9,030725,,,A*63
2025-07-03 13:20:49,283 - [SERIAL] $GPGGA,105355,4805.81067,N,00142.51583,W,1,09,,74.000,M,,M,,*51
2025-07-03 13:20:49,313 - [SERIAL] $HCHDG,176.1,,,000.8,E*20
2025-07-03 13:20:49,314 - [SERIAL] $HCHDT,176.9,T*20
2025-07-03 13:20:49,316 - [SERIAL] $GPMDA,30.228,I,1.0236,B,,C,,C,,,,C,,T,,M,,N,,M*00
2025-07-03 13:20:49,318 - [SERIAL] $IIMMB,30.228,I,1.0236,B*44
2025-07-03 13:20:50,291 - [SERIAL] $GPRMC,105355,A,4805.81067,N,00142.51583,W,000.0,176.9,030725,,,A*63
2025-07-03 13:20:50,307 - [SERIAL] $GPGGA,105355,4805.81067,N,00142.51583,W,1,09,,74.000,M,,M,,*51
2025-07-03 13:20:50,345 - [SERIAL] $HCHDG,176.2,,,000.8,E*23
2025-07-03 13:20:50,347 - [SERIAL] $HCHDT,176.9,T*20
2025-07-03 13:20:50,349 - [SERIAL] $GPMDA,30.228,I,1.0236,B,,C,,C,,,,C,,T,,M,,N,,M*00
2025-07-03 13:20:50,350 - [SERIAL] $IIMMB,30.228,I,1.0236,B*44
2025-07-03 13:20:51,292 - [SERIAL] $GPRMC,105355,A,4805.81067,N,00142.51583,W,000.0,176.9,030725,,,A*63
2025-07-03 13:20:51,303 - [SERIAL] $GPGGA,105355,4805.81067,N,00142.51583,W,1,09,,74.000,M,,M,,*51
2025-07-03 13:20:51,328 - [SERIAL] $HCHDG,176.1,,,000.8,E*20
2025-07-03 13:20:51,330 - [SERIAL] $HCHDT,176.9,T*20
2025-07-03 13:20:51,332 - [SERIAL] $GPMDA,30.228,I,1.0236,B,,C,,C,,,,C,,T,,M,,N,,M*00
2025-07-03 13:20:51,334 - [SERIAL] $IIMMB,30.228,I,1.0236,B*44
2025-07-03 13:20:52,308 - [SERIAL] $GPRMC,105355,A,4805.81067,N,00142.51583,W,000.0,176.9,030725,,,A*63
2025-07-03 13:20:52,328 - [SERIAL] $GPGGA,105355,4805.81067,N,00142.51583,W,1,09,,74.000,M,,M,,*51
2025-07-03 13:20:52,366 - [SERIAL] $HCHDG,176.2,,,000.8,E*23
2025-07-03 13:20:52,368 - [SERIAL] $HCHDT,176.9,T*20
2025-07-03 13:20:52,370 - [SERIAL] $GPMDA,30.228,I,1.0236,B,,C,,C,,,,C,,T,,M,,N,,M*00
2025-07-03 13:20:52,371 - [SERIAL] $IIMMB,30.228,I,1.0236,B*44
2025-07-03 13:20:53,316 - [SERIAL] $GPRMC,105355,A,4805.81067,N,00142.51583,W,000.0,176.9,030725,,,A*63
2025-07-03 13:20:53,331 - [SERIAL] $GPGGA,105355,4805.81067,N,00142.51583,W,1,09,,74.000,M,,M,,*51
2025-07-03 13:20:53,355 - [SERIAL] $HCHDG,176.2,,,000.8,E*23
2025-07-03 13:20:53,356 - [SERIAL] $HCHDT,176.9,T*20
2025-07-03 13:20:53,358 - [SERIAL] $GPMDA,30.227,I,1.0236,B,,C,,C,,,,C,,T,,M,,N,,M*0F
2025-07-03 13:20:53,360 - [SERIAL] $IIMMB,30.227,I,1.0236,B*4B
2025-07-03 13:20:54,339 - [SERIAL] $GPRMC,105355,A,4805.81067,N,00142.51583,W,000.0,176.9,030725,,,A*63
2025-07-03 13:20:54,353 - [SERIAL] $GPGGA,105355,4805.81067,N,00142.51583,W,1,09,,74.000,M,,M,,*51
2025-07-03 13:20:54,391 - [SERIAL] $HCHDG,176.1,,,000.8,E*20
2025-07-03 13:20:54,392 - [SERIAL] $HCHDT,176.9,T*20
2025-07-03 13:20:54,395 - [SERIAL] $GPMDA,30.227,I,1.0236,B,,C,,C,,,,C,,T,,M,,N,,M*0F
2025-07-03 13:20:54,396 - [SERIAL] $IIMMB,30.227,I,1.0236,B*4B
2025-07-03 13:20:55,347 - [SERIAL] $GPRMC,105355,A,4805.81067,N,00142.51583,W,000.0,176.9,030725,,,A*63
2025-07-03 13:20:55,371 - [SERIAL] $GPGGA,105355,4805.81067,N,00142.51583,W,1,09,,74.000,M,,M,,*51
2025-07-03 13:20:55,413 - [SERIAL] $HCHDG,176.1,,,000.8,E*20
2025-07-03 13:20:55,414 - [SERIAL] $HCHDT,176.9,T*20
2025-07-03 13:20:55,418 - [SERIAL] $GPMDA,30.227,I,1.0236,B,,C,,C,,,,C,,T,,M,,N,,M*0F
2025-07-03 13:20:55,419 - [SERIAL] $IIMMB,30.227,I,1.0236,B*4B
2025-07-03 13:20:56,355 - [SERIAL] $GPRMC,105355,A,4805.81067,N,00142.51583,W,000.0,176.9,030725,,,A*63
2025-07-03 13:20:56,361 - [SERIAL] $GPGGA,105355,4805.81067,N,00142.51583,W,1,09,,74.000,M,,M,,*51
2025-07-03 13:20:56,382 - [SERIAL] $HCHDG,176.1,,,000.8,E*20
2025-07-03 13:20:56,383 - [SERIAL] $HCHDT,176.9,T*20
2025-07-03 13:20:56,386 - [SERIAL] $GPMDA,30.227,I,1.0236,B,,C,,C,,,,C,,T,,M,,N,,M*0F
2025-07-03 13:20:56,387 - [SERIAL] $IIMMB,30.227,I,1.0236,B*4B
2025-07-03 13:20:57,373 - [SERIAL] $GPRMC,105355,A,4805.81067,N,00142.51583,W,000.0,176.9,030725,,,A*63
2025-07-03 13:20:57,389 - [SERIAL] $GPGGA,105355,4805.81067,N,00142.51583,W,1,09,,74.000,M,,M,,*51
2025-07-03 13:20:57,429 - [SERIAL] $HCHDG,176.1,,,000.8,E*20
2025-07-03 13:20:57,430 - [SERIAL] $HCHDT,176.9,T*20
2025-07-03 13:20:57,432 - [SERIAL] $GPMDA,30.227,I,1.0236,B,,C,,C,,,,C,,T,,M,,N,,M*0F
2025-07-03 13:20:57,434 - [SERIAL] $IIMMB,30.227,I,1.0236,B*4B
2025-07-03 13:20:58,374 - [SERIAL] $GPRMC,105355,A,4805.81067,N,00142.51583,W,000.0,176.9,030725,,,A*63
2025-07-03 13:20:58,377 - [SERIAL] $GPGGA,105355,4805.81067,N,00142.51583,W,1,09,,74.000,M,,M,,*51
2025-07-03 13:20:58,398 - [SERIAL] $HCHDG,176.1,,,000.8,E*20
2025-07-03 13:20:58,399 - [SERIAL] $HCHDT,176.9,T*20
2025-07-03 13:20:58,402 - [SERIAL] $GPMDA,30.227,I,1.0236,B,,C,,C,,,,C,,T,,M,,N,,M*0F
2025-07-03 13:20:58,403 - [SERIAL] $IIMMB,30.227,I,1.0236,B*4B
2025-07-03 13:20:59,390 - [SERIAL] $GPRMC,105355,A,4805.81067,N,00142.51583,W,000.0,176.9,030725,,,A*63
2025-07-03 13:20:59,403 - [SERIAL] $GPGGA,105355,4805.81067,N,00142.51583,W,1,09,,74.000,M,,M,,*51
2025-07-03 13:20:59,443 - [SERIAL] $HCHDG,176.1,,,000.8,E*20
2025-07-03 13:20:59,444 - [SERIAL] $HCHDT,176.9,T*20
2025-07-03 13:20:59,447 - [SERIAL] $GPMDA,30.227,I,1.0236,B,,C,,C,,,,C,,T,,M,,N,,M*0F
2025-07-03 13:20:59,448 - [SERIAL] $IIMMB,30.227,I,1.0236,B*4B
2025-07-03 13:21:00,397 - [SERIAL] $GPRMC,105355,A,4805.81067,N,00142.51583,W,000.0,176.9,030725,,,A*63
2025-07-03 13:21:00,406 - [SERIAL] $GPGGA,105355,4805.81067,N,00142.51583,W,1,09,,74.000,M,,M,,*51
2025-07-03 13:21:00,426 - [SERIAL] $HCHDG,176.2,,,000.8,E*23
2025-07-03 13:21:00,427 - [SERIAL] $HCHDT,176.9,T*20
2025-07-03 13:21:00,430 - [SERIAL] $GPMDA,30.227,I,1.0236,B,,C,,C,,,,C,,T,,M,,N,,M*0F
2025-07-03 13:21:00,431 - [SERIAL] $IIMMB,30.227,I,1.0236,B*4B
2025-07-03 13:21:01,406 - [SERIAL] $GPRMC,105355,A,4805.81067,N,00142.51583,W,000.0,176.9,030725,,,A*63
2025-07-03 13:21:01,420 - [SERIAL] $GPGGA,105355,4805.81067,N,00142.51583,W,1,09,,74.000,M,,M,,*51
2025-07-03 13:21:01,459 - [SERIAL] $HCHDG,176.1,,,000.8,E*20
2025-07-03 13:21:01,460 - [SERIAL] $HCHDT,176.9,T*20
2025-07-03 13:21:01,462 - [SERIAL] $GPMDA,30.227,I,1.0236,B,,C,,C,,,,C,,T,,M,,N,,M*0F
2025-07-03 13:21:01,464 - [SERIAL] $IIMMB,30.227,I,1.0236,B*4B
2025-07-03 13:21:02,419 - [SERIAL] $GPRMC,105355,A,4805.81067,N,00142.51583,W,000.0,176.9,030725,,,A*63
2025-07-03 13:21:02,428 - [SERIAL] $GPGGA,105355,4805.81067,N,00142.51583,W,1,09,,74.000,M,,M,,*51
2025-07-03 13:21:02,449 - [SERIAL] $HCHDG,176.1,,,000.8,E*20
2025-07-03 13:21:02,451 - [SERIAL] $HCHDT,176.9,T*20
2025-07-03 13:21:02,454 - [SERIAL] $GPMDA,30.227,I,1.0236,B,,C,,C,,,,C,,T,,M,,N,,M*0F
2025-07-03 13:21:02,456 - [SERIAL] $IIMMB,30.227,I,1.0236,B*4B
2025-07-03 13:21:03,430 - [SERIAL] $GPRMC,105355,A,4805.81067,N,00142.51583,W,000.0,176.9,030725,,,A*63
2025-07-03 13:21:03,439 - [SERIAL] $GPGGA,105355,4805.81067,N,00142.51583,W,1,09,,74.000,M,,M,,*51
2025-07-03 13:21:03,459 - [SERIAL] $HCHDG,176.1,,,000.8,E*20
2025-07-03 13:21:03,460 - [SERIAL] $HCHDT,176.9,T*20
2025-07-03 13:21:03,462 - [SERIAL] $GPMDA,30.227,I,1.0236,B,,C,,C,,,,C,,T,,M,,N,,M*0F
2025-07-03 13:21:03,464 - [SERIAL] $IIMMB,30.227,I,1.0236,B*4B
2025-07-03 13:21:04,440 - [SERIAL] $GPRMC,105355,A,4805.81067,N,00142.51583,W,000.0,176.9,030725,,,A*63
2025-07-03 13:21:04,457 - [SERIAL] $GPGGA,105355,4805.81067,N,00142.51583,W,1,09,,74.000,M,,M,,*51
2025-07-03 13:21:04,493 - [SERIAL] $HCHDG,176.1,,,000.8,E*20
2025-07-03 13:21:04,494 - [SERIAL] $HCHDT,176.9,T*20
2025-07-03 13:21:04,496 - [SERIAL] $GPMDA,30.227,I,1.0236,B,,C,,C,,,,C,,T,,M,,N,,M*0F
2025-07-03 13:21:04,498 - [SERIAL] $IIMMB,30.227,I,1.0236,B*4B
2025-07-03 13:21:05,457 - [SERIAL] $GPRMC,105355,A,4805.81067,N,00142.51583,W,000.0,176.9,030725,,,A*63
2025-07-03 13:21:05,465 - [SERIAL] $GPGGA,105355,4805.81067,N,00142.51583,W,1,09,,74.000,M,,M,,*51
2025-07-03 13:21:05,485 - [SERIAL] $HCHDG,176.2,,,000.8,E*23
2025-07-03 13:21:05,486 - [SERIAL] $HCHDT,176.9,T*20
2025-07-03 13:21:05,488 - [SERIAL] $GPMDA,30.227,I,1.0236,B,,C,,C,,,,C,,T,,M,,N,,M*0F
2025-07-03 13:21:05,490 - [SERIAL] $IIMMB,30.227,I,1.0236,B*4B
2025-07-03 13:21:06,459 - [SERIAL] $GPRMC,105355,A,4805.81067,N,00142.51583,W,000.0,176.9,030725,,,A*63
2025-07-03 13:21:06,470 - [SERIAL] $GPGGA,105355,4805.81067,N,00142.51583,W,1,09,,74.000,M,,M,,*51
2025-07-03 13:21:06,498 - [SERIAL] $HCHDG,176.1,,,000.8,E*20
2025-07-03 13:21:06,500 - [SERIAL] $HCHDT,176.9,T*20
2025-07-03 13:21:06,502 - [SERIAL] $GPMDA,30.227,I,1.0236,B,,C,,C,,,,C,,T,,M,,N,,M*0F
2025-07-03 13:21:06,504 - [SERIAL] $IIMMB,30.227,I,1.0236,B*4B
2025-07-03 13:21:07,482 - [SERIAL] $GPRMC,105355,A,4805.81067,N,00142.51583,W,000.0,176.9,030725,,,A*63
2025-07-03 13:21:07,490 - [SERIAL] $GPGGA,105355,4805.81067,N,00142.51583,W,1,09,,74.000,M,,M,,*51
2025-07-03 13:21:07,511 - [SERIAL] $HCHDG,176.1,,,000.8,E*20
2025-07-03 13:21:07,513 - [SERIAL] $HCHDT,176.9,T*20
2025-07-03 13:21:07,515 - [SERIAL] $GPMDA,30.227,I,1.0236,B,,C,,C,,,,C,,T,,M,,N,,M*0F
2025-07-03 13:21:07,517 - [SERIAL] $IIMMB,30.227,I,1.0236,B*4B
2025-07-03 13:21:08,485 - [SERIAL] $GPRMC,105355,A,4805.81067,N,00142.51583,W,000.0,176.9,030725,,,A*63
2025-07-03 13:21:08,496 - [SERIAL] $GPGGA,105355,4805.81067,N,00142.51583,W,1,09,,74.000,M,,M,,*51
2025-07-03 13:21:08,518 - [SERIAL] $HCHDG,176.2,,,000.8,E*23
2025-07-03 13:21:08,520 - [SERIAL] $HCHDT,176.9,T*20
2025-07-03 13:21:08,522 - [SERIAL] $GPMDA,30.227,I,1.0236,B,,C,,C,,,,C,,T,,M,,N,,M*0F
2025-07-03 13:21:08,524 - [SERIAL] $IIMMB,30.227,I,1.0236,B*4B
2025-07-03 13:21:09,498 - [SERIAL] $GPRMC,105355,A,4805.81067,N,00142.51583,W,000.0,176.9,030725,,,A*63
2025-07-03 13:21:09,505 - [SERIAL] $GPGGA,105355,4805.81067,N,00142.51583,W,1,09,,74.000,M,,M,,*51
2025-07-03 13:21:09,526 - [SERIAL] $HCHDG,176.2,,,000.8,E*23
2025-07-03 13:21:09,528 - [SERIAL] $HCHDT,176.9,T*20
2025-07-03 13:21:09,531 - [SERIAL] $GPMDA,30.227,I,1.0236,B,,C,,C,,,,C,,T,,M,,N,,M*0F
2025-07-03 13:21:09,532 - [SERIAL] $IIMMB,30.227,I,1.0236,B*4B
2025-07-03 13:21:10,511 - [SERIAL] $GPRMC,105355,A,4805.81067,N,00142.51583,W,000.0,176.9,030725,,,A*63
2025-07-03 13:21:10,529 - [SERIAL] $GPGGA,105355,4805.81067,N,00142.51583,W,1,09,,74.000,M,,M,,*51
2025-07-03 13:21:10,557 - [SERIAL] $HCHDG,176.1,,,000.8,E*20
2025-07-03 13:21:10,558 - [SERIAL] $HCHDT,176.9,T*20
2025-07-03 13:21:10,561 - [SERIAL] $GPMDA,30.227,I,1.0236,B,,C,,C,,,,C,,T,,M,,N,,M*0F
2025-07-03 13:21:10,563 - [SERIAL] $IIMMB,30.227,I,1.0236,B*4B
2025-07-03 13:21:11,521 - [SERIAL] $GPRMC,105355,A,4805.81067,N,00142.51583,W,000.0,176.9,030725,,,A*63
2025-07-03 13:21:11,533 - [SERIAL] $GPGGA,105355,4805.81067,N,00142.51583,W,1,09,,74.000,M,,M,,*51
2025-07-03 13:21:11,559 - [SERIAL] $HCHDG,176.1,,,000.8,E*20
2025-07-03 13:21:11,560 - [SERIAL] $HCHDT,176.9,T*20
2025-07-03 13:21:11,563 - [SERIAL] $GPMDA,30.227,I,1.0236,B,,C,,C,,,,C,,T,,M,,N,,M*0F
2025-07-03 13:21:11,564 - [SERIAL] $IIMMB,30.227,I,1.0236,B*4B
2025-07-03 13:21:12,538 - [SERIAL] $GPRMC,105355,A,4805.81067,N,00142.51583,W,000.0,176.9,030725,,,A*63
2025-07-03 13:21:12,546 - [SERIAL] $GPGGA,105355,4805.81067,N,00142.51583,W,1,09,,74.000,M,,M,,*51
2025-07-03 13:21:12,568 - [SERIAL] $HCHDG,176.1,,,000.8,E*20
2025-07-03 13:21:12,570 - [SERIAL] $HCHDT,176.9,T*20
2025-07-03 13:21:12,573 - [SERIAL] $GPMDA,30.227,I,1.0236,B,,C,,C,,,,C,,T,,M,,N,,M*0F
2025-07-03 13:21:12,575 - [SERIAL] $IIMMB,30.227,I,1.0236,B*4B
2025-07-03 13:21:13,558 - [SERIAL] $GPRMC,105355,A,4805.81067,N,00142.51583,W,000.0,176.9,030725,,,A*63
2025-07-03 13:21:13,577 - [SERIAL] $GPGGA,105355,4805.81067,N,00142.51583,W,1,09,,74.000,M,,M,,*51
2025-07-03 13:21:13,612 - [SERIAL] $HCHDG,176.2,,,000.8,E*23
2025-07-03 13:21:13,614 - [SERIAL] $HCHDT,176.9,T*20
2025-07-03 13:21:13,617 - [SERIAL] $GPMDA,30.227,I,1.0236,B,,C,,C,,,,C,,T,,M,,N,,M*0F
2025-07-03 13:21:13,618 - [SERIAL] $IIMMB,30.227,I,1.0236,B*4B
2025-07-03 13:21:14,573 - [SERIAL] $GPRMC,105355,A,4805.81067,N,00142.51583,W,000.0,176.9,030725,,,A*63
2025-07-03 13:21:14,587 - [SERIAL] $GPGGA,105355,4805.81067,N,00142.51583,W,1,09,,74.000,M,,M,,*51
2025-07-03 13:21:14,622 - [SERIAL] $HCHDG,176.1,,,000.8,E*20
2025-07-03 13:21:14,624 - [SERIAL] $HCHDT,176.9,T*20
2025-07-03 13:21:14,626 - [SERIAL] $GPMDA,30.227,I,1.0236,B,,C,,C,,,,C,,T,,M,,N,,M*0F
2025-07-03 13:21:14,628 - [SERIAL] $IIMMB,30.227,I,1.0236,B*4B
2025-07-03 13:21:15,622 - [SERIAL] $GPRMC,105355,A,4805.81067,N,00142.51583,W,000.0,176.9,030725,,,A*63
2025-07-03 13:21:15,636 - [SERIAL] $GPGGA,105355,4805.81067,N,00142.51583,W,1,09,,74.000,M,,M,,*51
2025-07-03 13:21:15,670 - [SERIAL] $HCHDG,176.2,,,000.8,E*23
2025-07-03 13:21:15,671 - [SERIAL] $HCHDT,176.9,T*20
2025-07-03 13:21:15,674 - [SERIAL] $GPMDA,30.227,I,1.0236,B,,C,,C,,,,C,,T,,M,,N,,M*0F
2025-07-03 13:21:15,675 - [SERIAL] $IIMMB,30.227,I,1.0236,B*4B
2025-07-03 13:21:16,585 - [SERIAL] $GPRMC,105355,A,4805.81067,N,00142.51583,W,000.0,176.9,030725,,,A*63
2025-07-03 13:21:16,594 - [SERIAL] $GPGGA,105355,4805.81067,N,00142.51583,W,1,09,,74.000,M,,M,,*51
2025-07-03 13:21:16,614 - [SERIAL] $HCHDG,176.2,,,000.8,E*23
2025-07-03 13:21:16,615 - [SERIAL] $HCHDT,176.9,T*20
2025-07-03 13:21:16,618 - [SERIAL] $GPMDA,30.227,I,1.0236,B,,C,,C,,,,C,,T,,M,,N,,M*0F
2025-07-03 13:21:16,619 - [SERIAL] $IIMMB,30.227,I,1.0236,B*4B
2025-07-03 13:21:17,601 - [SERIAL] $GPRMC,105355,A,4805.81067,N,00142.51583,W,000.0,176.9,030725,,,A*63
2025-07-03 13:21:17,616 - [SERIAL] $GPGGA,105355,4805.81067,N,00142.51583,W,1,09,,74.000,M,,M,,*51
2025-07-03 13:21:17,651 - [SERIAL] $HCHDG,176.1,,,000.8,E*20
2025-07-03 13:21:17,653 - [SERIAL] $HCHDT,176.9,T*20
2025-07-03 13:21:17,655 - [SERIAL] $GPMDA,30.227,I,1.0236,B,,C,,C,,,,C,,T,,M,,N,,M*0F
2025-07-03 13:21:17,657 - [SERIAL] $IIMMB,30.227,I,1.0236,B*4B
2025-07-03 13:21:18,603 - [SERIAL] $GPRMC,105355,A,4805.81067,N,00142.51583,W,000.0,176.9,030725,,,A*63
2025-07-03 13:21:18,609 - [SERIAL] $GPGGA,105355,4805.81067,N,00142.51583,W,1,09,,74.000,M,,M,,*51
2025-07-03 13:21:18,638 - [SERIAL] $HCHDG,176.2,,,000.8,E*23
2025-07-03 13:21:18,639 - [SERIAL] $HCHDT,176.9,T*20
2025-07-03 13:21:18,641 - [SERIAL] $GPMDA,30.227,I,1.0236,B,,C,,C,,,,C,,T,,M,,N,,M*0F
2025-07-03 13:21:18,643 - [SERIAL] $IIMMB,30.227,I,1.0236,B*4B
2025-07-03 13:21:19,611 - [SERIAL] $GPRMC,105355,A,4805.81067,N,00142.51583,W,000.0,176.9,030725,,,A*63
2025-07-03 13:21:19,619 - [SERIAL] $GPGGA,105355,4805.81067,N,00142.51583,W,1,09,,74.000,M,,M,,*51
2025-07-03 13:21:19,639 - [SERIAL] $HCHDG,176.2,,,000.8,E*23
2025-07-03 13:21:19,640 - [SERIAL] $HCHDT,176.9,T*20
2025-07-03 13:21:19,643 - [SERIAL] $GPMDA,30.227,I,1.0236,B,,C,,C,,,,C,,T,,M,,N,,M*0F
2025-07-03 13:21:19,644 - [SERIAL] $IIMMB,30.227,I,1.0236,B*4B
2025-07-03 13:21:20,619 - [SERIAL] $GPRMC,105355,A,4805.81067,N,00142.51583,W,000.0,176.9,030725,,,A*63
2025-07-03 13:21:20,628 - [SERIAL] $GPGGA,105355,4805.81067,N,00142.51583,W,1,09,,74.000,M,,M,,*51
2025-07-03 13:21:20,651 - [SERIAL] $HCHDG,176.1,,,000.8,E*20
2025-07-03 13:21:20,652 - [SERIAL] $HCHDT,176.9,T*20
2025-07-03 13:21:20,654 - [SERIAL] $GPMDA,30.227,I,1.0236,B,,C,,C,,,,C,,T,,M,,N,,M*0F
2025-07-03 13:21:20,656 - [SERIAL] $IIMMB,30.227,I,1.0236,B*4B
2025-07-03 13:21:21,639 - [SERIAL] $GPRMC,105355,A,4805.81067,N,00142.51583,W,000.0,176.9,030725,,,A*63
2025-07-03 13:21:21,651 - [SERIAL] $GPGGA,105355,4805.81067,N,00142.51583,W,1,09,,74.000,M,,M,,*51
2025-07-03 13:21:21,683 - [SERIAL] $HCHDG,176.2,,,000.8,E*23
2025-07-03 13:21:21,684 - [SERIAL] $HCHDT,176.9,T*20
2025-07-03 13:21:21,687 - [SERIAL] $GPMDA,30.227,I,1.0236,B,,C,,C,,,,C,,T,,M,,N,,M*0F
2025-07-03 13:21:21,688 - [SERIAL] $IIMMB,30.227,I,1.0236,B*4B
2025-07-03 13:21:22,651 - [SERIAL] $GPRMC,105355,A,4805.81067,N,00142.51583,W,000.0,176.9,030725,,,A*63
2025-07-03 13:21:22,666 - [SERIAL] $GPGGA,105355,4805.81067,N,00142.51583,W,1,09,,74.000,M,,M,,*51
2025-07-03 13:21:22,700 - [SERIAL] $HCHDG,176.2,,,000.8,E*23
2025-07-03 13:21:22,701 - [SERIAL] $HCHDT,176.9,T*20
2025-07-03 13:21:22,703 - [SERIAL] $GPMDA,30.227,I,1.0236,B,,C,,C,,,,C,,T,,M,,N,,M*0F
2025-07-03 13:21:22,705 - [SERIAL] $IIMMB,30.227,I,1.0236,B*4B
2025-07-03 13:21:23,669 - [SERIAL] $GPRMC,105355,A,4805.81067,N,00142.51583,W,000.0,176.9,030725,,,A*63
2025-07-03 13:21:23,673 - [SERIAL] $GPGGA,105355,4805.81067,N,00142.51583,W,1,09,,74.000,M,,M,,*51
2025-07-03 13:21:23,693 - [SERIAL] $HCHDG,176.1,,,000.8,E*20
2025-07-03 13:21:23,695 - [SERIAL] $HCHDT,176.9,T*20
2025-07-03 13:21:23,697 - [SERIAL] $GPMDA,30.227,I,1.0236,B,,C,,C,,,,C,,T,,M,,N,,M*0F
2025-07-03 13:21:23,698 - [SERIAL] $IIMMB,30.227,I,1.0236,B*4B
2025-07-03 13:21:24,667 - [SERIAL] $GPRMC,105355,A,4805.81067,N,00142.51583,W,000.0,176.9,030725,,,A*63
2025-07-03 13:21:24,676 - [SERIAL] $GPGGA,105355,4805.81067,N,00142.51583,W,1,09,,74.000,M,,M,,*51
2025-07-03 13:21:24,703 - [SERIAL] $HCHDG,176.1,,,000.8,E*20
2025-07-03 13:21:24,705 - [SERIAL] $HCHDT,176.9,T*20
2025-07-03 13:21:24,707 - [SERIAL] $GPMDA,30.227,I,1.0236,B,,C,,C,,,,C,,T,,M,,N,,M*0F
2025-07-03 13:21:24,709 - [SERIAL] $IIMMB,30.227,I,1.0236,B*4B
2025-07-03 13:21:25,686 - [SERIAL] $GPRMC,105355,A,4805.81067,N,00142.51583,W,000.0,176.9,030725,,,A*63
2025-07-03 13:21:25,709 - [SERIAL] $GPGGA,105355,4805.81067,N,00142.51583,W,1,09,,74.000,M,,M,,*51
2025-07-03 13:21:25,744 - [SERIAL] $HCHDG,176.1,,,000.8,E*20
2025-07-03 13:21:25,746 - [SERIAL] $HCHDT,176.9,T*20
2025-07-03 13:21:25,748 - [SERIAL] $GPMDA,30.227,I,1.0236,B,,C,,C,,,,C,,T,,M,,N,,M*0F
2025-07-03 13:21:25,750 - [SERIAL] $IIMMB,30.227,I,1.0236,B*4B
2025-07-03 13:21:26,699 - [SERIAL] $GPRMC,105355,A,4805.81067,N,00142.51583,W,000.0,176.9,030725,,,A*63
2025-07-03 13:21:26,717 - [SERIAL] $GPGGA,105355,4805.81067,N,00142.51583,W,1,09,,74.000,M,,M,,*51
2025-07-03 13:21:26,750 - [SERIAL] $HCHDG,176.2,,,000.8,E*23
2025-07-03 13:21:26,751 - [SERIAL] $HCHDT,176.9,T*20
2025-07-03 13:21:26,754 - [SERIAL] $GPMDA,30.227,I,1.0236,B,,C,,C,,,,C,,T,,M,,N,,M*0F
2025-07-03 13:21:26,755 - [SERIAL] $IIMMB,30.227,I,1.0236,B*4B
2025-07-03 13:21:27,701 - [SERIAL] $GPRMC,105355,A,4805.81067,N,00142.51583,W,000.0,176.9,030725,,,A*63
2025-07-03 13:21:27,717 - [SERIAL] $GPGGA,105355,4805.81067,N,00142.51583,W,1,09,,74.000,M,,M,,*51
2025-07-03 13:21:27,738 - [SERIAL] $HCHDG,176.1,,,000.8,E*20
2025-07-03 13:21:27,739 - [SERIAL] $HCHDT,176.9,T*20
2025-07-03 13:21:27,742 - [SERIAL] $GPMDA,30.227,I,1.0236,B,,C,,C,,,,C,,T,,M,,N,,M*0F
2025-07-03 13:21:27,744 - [SERIAL] $IIMMB,30.227,I,1.0236,B*4B
2025-07-03 13:21:28,723 - [SERIAL] $GPRMC,105355,A,4805.81067,N,00142.51583,W,000.0,176.9,030725,,,A*63
2025-07-03 13:21:28,732 - [SERIAL] $GPGGA,105355,4805.81067,N,00142.51583,W,1,09,,74.000,M,,M,,*51
2025-07-03 13:21:28,754 - [SERIAL] $HCHDG,176.2,,,000.8,E*23
2025-07-03 13:21:28,755 - [SERIAL] $HCHDT,176.9,T*20
2025-07-03 13:21:28,758 - [SERIAL] $GPMDA,30.227,I,1.0236,B,,C,,C,,,,C,,T,,M,,N,,M*0F
2025-07-03 13:21:28,759 - [SERIAL] $IIMMB,30.227,I,1.0236,B*4B
2025-07-03 13:21:29,736 - [SERIAL] $GPRMC,105355,A,4805.81067,N,00142.51583,W,000.0,176.9,030725,,,A*63
2025-07-03 13:21:29,746 - [SERIAL] $GPGGA,105355,4805.81067,N,00142.51583,W,1,09,,74.000,M,,M,,*51
2025-07-03 13:21:29,774 - [SERIAL] $HCHDG,176.2,,,000.8,E*23
2025-07-03 13:21:29,776 - [SERIAL] $HCHDT,176.9,T*20
2025-07-03 13:21:29,780 - [SERIAL] $GPMDA,30.227,I,1.0236,B,,C,,C,,,,C,,T,,M,,N,,M*0F
2025-07-03 13:21:29,782 - [SERIAL] $IIMMB,30.227,I,1.0236,B*4B
2025-07-03 13:21:30,741 - [SERIAL] $GPRMC,105355,A,4805.81067,N,00142.51583,W,000.0,176.9,030725,,,A*63
2025-07-03 13:21:30,755 - [SERIAL] $GPGGA,105355,4805.81067,N,00142.51583,W,1,09,,74.000,M,,M,,*51
2025-07-03 13:21:30,789 - [SERIAL] $HCHDG,176.1,,,000.8,E*20
2025-07-03 13:21:30,790 - [SERIAL] $HCHDT,176.9,T*20
2025-07-03 13:21:30,792 - [SERIAL] $GPMDA,30.227,I,1.0236,B,,C,,C,,,,C,,T,,M,,N,,M*0F
2025-07-03 13:21:30,794 - [SERIAL] $IIMMB,30.227,I,1.0236,B*4B
2025-07-03 13:21:31,747 - [SERIAL] $GPRMC,105355,A,4805.81067,N,00142.51583,W,000.0,176.9,030725,,,A*63
2025-07-03 13:21:31,761 - [SERIAL] $GPGGA,105355,4805.81067,N,00142.51583,W,1,09,,74.000,M,,M,,*51
2025-07-03 13:21:31,782 - [SERIAL] $HCHDG,176.2,,,000.8,E*23
2025-07-03 13:21:31,783 - [SERIAL] $HCHDT,176.9,T*20
2025-07-03 13:21:31,787 - [SERIAL] $GPMDA,30.227,I,1.0236,B,,C,,C,,,,C,,T,,M,,N,,M*0F
2025-07-03 13:21:31,788 - [SERIAL] $IIMMB,30.227,I,1.0236,B*4B
2025-07-03 13:21:32,766 - [SERIAL] $GPRMC,105355,A,4805.81067,N,00142.51583,W,000.0,176.9,030725,,,A*63
2025-07-03 13:21:32,771 - [SERIAL] $GPGGA,105355,4805.81067,N,00142.51583,W,1,09,,74.000,M,,M,,*51
2025-07-03 13:21:32,792 - [SERIAL] $HCHDG,176.1,,,000.8,E*20
2025-07-03 13:21:32,793 - [SERIAL] $HCHDT,176.9,T*20
2025-07-03 13:21:32,796 - [SERIAL] $GPMDA,30.227,I,1.0236,B,,C,,C,,,,C,,T,,M,,N,,M*0F
2025-07-03 13:21:32,797 - [SERIAL] $IIMMB,30.227,I,1.0236,B*4B
2025-07-03 13:21:33,773 - [SERIAL] $GPRMC,105355,A,4805.81067,N,00142.51583,W,000.0,176.9,030725,,,A*63
2025-07-03 13:21:33,785 - [SERIAL] $GPGGA,105355,4805.81067,N,00142.51583,W,1,09,,74.000,M,,M,,*51
2025-07-03 13:21:33,808 - [SERIAL] $HCHDG,176.1,,,000.8,E*20
2025-07-03 13:21:33,810 - [SERIAL] $HCHDT,176.9,T*20
2025-07-03 13:21:33,813 - [SERIAL] $GPMDA,30.227,I,1.0236,B,,C,,C,,,,C,,T,,M,,N,,M*0F
2025-07-03 13:21:33,814 - [SERIAL] $IIMMB,30.227,I,1.0236,B*4B
2025-07-03 13:21:34,786 - [SERIAL] $GPRMC,105355,A,4805.81067,N,00142.51583,W,000.0,176.9,030725,,,A*63
2025-07-03 13:21:34,795 - [SERIAL] $GPGGA,105355,4805.81067,N,00142.51583,W,1,09,,74.000,M,,M,,*51
2025-07-03 13:21:34,819 - [SERIAL] $HCHDG,176.2,,,000.8,E*23
2025-07-03 13:21:34,821 - [SERIAL] $HCHDT,176.9,T*20
2025-07-03 13:21:34,823 - [SERIAL] $GPMDA,30.227,I,1.0236,B,,C,,C,,,,C,,T,,M,,N,,M*0F
2025-07-03 13:21:34,825 - [SERIAL] $IIMMB,30.227,I,1.0236,B*4B
2025-07-03 13:21:35,793 - [SERIAL] $GPRMC,105355,A,4805.81067,N,00142.51583,W,000.0,176.9,030725,,,A*63
2025-07-03 13:21:35,803 - [SERIAL] $GPGGA,105355,4805.81067,N,00142.51583,W,1,09,,74.000,M,,M,,*51
2025-07-03 13:21:35,829 - [SERIAL] $HCHDG,176.1,,,000.8,E*20
2025-07-03 13:21:35,830 - [SERIAL] $HCHDT,176.9,T*20
2025-07-03 13:21:35,833 - [SERIAL] $GPMDA,30.227,I,1.0236,B,,C,,C,,,,C,,T,,M,,N,,M*0F
2025-07-03 13:21:35,835 - [SERIAL] $IIMMB,30.227,I,1.0236,B*4B
2025-07-03 13:21:36,815 - [SERIAL] $GPRMC,105355,A,4805.81067,N,00142.51583,W,000.0,176.9,030725,,,A*63
2025-07-03 13:21:36,833 - [SERIAL] $GPGGA,105355,4805.81067,N,00142.51583,W,1,09,,74.000,M,,M,,*51
2025-07-03 13:21:36,863 - [SERIAL] $HCHDG,176.1,,,000.8,E*20
2025-07-03 13:21:36,865 - [SERIAL] $HCHDT,176.9,T*20
2025-07-03 13:21:36,867 - [SERIAL] $GPMDA,30.227,I,1.0236,B,,C,,C,,,,C,,T,,M,,N,,M*0F
2025-07-03 13:21:36,869 - [SERIAL] $IIMMB,30.227,I,1.0236,B*4B
2025-07-03 13:21:37,821 - [SERIAL] $GPRMC,105355,A,4805.81067,N,00142.51583,W,000.0,176.9,030725,,,A*63
2025-07-03 13:21:37,826 - [SERIAL] $GPGGA,105355,4805.81067,N,00142.51583,W,1,09,,74.000,M,,M,,*51
2025-07-03 13:21:37,848 - [SERIAL] $HCHDG,176.2,,,000.8,E*23
2025-07-03 13:21:37,849 - [SERIAL] $HCHDT,176.9,T*20
2025-07-03 13:21:37,851 - [SERIAL] $GPMDA,30.227,I,1.0236,B,,C,,C,,,,C,,T,,M,,N,,M*0F
2025-07-03 13:21:37,853 - [SERIAL] $IIMMB,30.227,I,1.0236,B*4B
2025-07-03 13:21:38,838 - [SERIAL] $GPRMC,105355,A,4805.81067,N,00142.51583,W,000.0,176.9,030725,,,A*63
2025-07-03 13:21:38,858 - [SERIAL] $GPGGA,105355,4805.81067,N,00142.51583,W,1,09,,74.000,M,,M,,*51
2025-07-03 13:21:38,889 - [SERIAL] $HCHDG,176.1,,,000.8,E*20
2025-07-03 13:21:38,890 - [SERIAL] $HCHDT,176.9,T*20
2025-07-03 13:21:38,893 - [SERIAL] $GPMDA,30.227,I,1.0236,B,,C,,C,,,,C,,T,,M,,N,,M*0F
2025-07-03 13:21:38,894 - [SERIAL] $IIMMB,30.227,I,1.0236,B*4B
2025-07-03 13:21:39,850 - [SERIAL] $GPRMC,105355,A,4805.81067,N,00142.51583,W,000.0,176.9,030725,,,A*63
2025-07-03 13:21:39,866 - [SERIAL] $GPGGA,105355,4805.81067,N,00142.51583,W,1,09,,74.000,M,,M,,*51
2025-07-03 13:21:39,903 - [SERIAL] $HCHDG,176.2,,,000.8,E*23
2025-07-03 13:21:39,905 - [SERIAL] $HCHDT,176.9,T*20
2025-07-03 13:21:39,907 - [SERIAL] $GPMDA,30.227,I,1.0236,B,,C,,C,,,,C,,T,,M,,N,,M*0F
2025-07-03 13:21:39,909 - [SERIAL] $IIMMB,30.227,I,1.0236,B*4B
2025-07-03 13:21:40,855 - [SERIAL] $GPRMC,105355,A,4805.81067,N,00142.51583,W,000.0,176.9,030725,,,A*63
2025-07-03 13:21:40,859 - [SERIAL] $GPGGA,105355,4805.81067,N,00142.51583,W,1,09,,74.000,M,,M,,*51
2025-07-03 13:21:40,882 - [SERIAL] $HCHDG,176.1,,,000.8,E*20
2025-07-03 13:21:40,884 - [SERIAL] $HCHDT,176.9,T*20
2025-07-03 13:21:40,886 - [SERIAL] $GPMDA,30.227,I,1.0236,B,,C,,C,,,,C,,T,,M,,N,,M*0F
2025-07-03 13:21:40,888 - [SERIAL] $IIMMB,30.227,I,1.0236,B*4B
2025-07-03 13:21:41,867 - [SERIAL] $GPRMC,105355,A,4805.81067,N,00142.51583,W,000.0,176.9,030725,,,A*63
2025-07-03 13:21:41,880 - [SERIAL] $GPGGA,105355,4805.81067,N,00142.51583,W,1,09,,74.000,M,,M,,*51
2025-07-03 13:21:41,902 - [SERIAL] $HCHDG,176.1,,,000.8,E*20
2025-07-03 13:21:41,904 - [SERIAL] $HCHDT,176.9,T*20
2025-07-03 13:21:41,906 - [SERIAL] $GPMDA,30.227,I,1.0236,B,,C,,C,,,,C,,T,,M,,N,,M*0F
2025-07-03 13:21:41,907 - [SERIAL] $IIMMB,30.227,I,1.0236,B*4B
2025-07-03 13:21:42,882 - [SERIAL] $GPRMC,105355,A,4805.81067,N,00142.51583,W,000.0,176.9,030725,,,A*63
2025-07-03 13:21:42,892 - [SERIAL] $GPGGA,105355,4805.81067,N,00142.51583,W,1,09,,74.000,M,,M,,*51
2025-07-03 13:21:42,924 - [SERIAL] $HCHDG,176.1,,,000.8,E*20
2025-07-03 13:21:42,926 - [SERIAL] $HCHDT,176.9,T*20
2025-07-03 13:21:42,928 - [SERIAL] $GPMDA,30.227,I,1.0236,B,,C,,C,,,,C,,T,,M,,N,,M*0F
2025-07-03 13:21:42,930 - [SERIAL] $IIMMB,30.227,I,1.0236,B*4B
2025-07-03 13:21:43,896 - [SERIAL] $GPRMC,105355,A,4805.81067,N,00142.51583,W,000.0,176.9,030725,,,A*63
2025-07-03 13:21:43,908 - [SERIAL] $GPGGA,105355,4805.81067,N,00142.51583,W,1,09,,74.000,M,,M,,*51
2025-07-03 13:21:43,928 - [SERIAL] $HCHDG,176.1,,,000.8,E*20
2025-07-03 13:21:43,929 - [SERIAL] $HCHDT,176.9,T*20
2025-07-03 13:21:43,932 - [SERIAL] $GPMDA,30.227,I,1.0236,B,,C,,C,,,,C,,T,,M,,N,,M*0F
2025-07-03 13:21:43,934 - [SERIAL] $IIMMB,30.227,I,1.0236,B*4B
2025-07-03 13:21:44,918 - [SERIAL] $GPRMC,105355,A,4805.81067,N,00142.51583,W,000.0,176.9,030725,,,A*63
2025-07-03 13:21:44,932 - [SERIAL] $GPGGA,105355,4805.81067,N,00142.51583,W,1,09,,74.000,M,,M,,*51
2025-07-03 13:21:44,964 - [SERIAL] $HCHDG,176.1,,,000.8,E*20
2025-07-03 13:21:44,965 - [SERIAL] $HCHDT,176.9,T*20
2025-07-03 13:21:44,968 - [SERIAL] $GPMDA,30.227,I,1.0236,B,,C,,C,,,,C,,T,,M,,N,,M*0F
2025-07-03 13:21:44,969 - [SERIAL] $IIMMB,30.227,I,1.0236,B*4B
2025-07-03 13:21:45,923 - [SERIAL] $GPRMC,105355,A,4805.81067,N,00142.51583,W,000.0,176.9,030725,,,A*63
2025-07-03 13:21:45,935 - [SERIAL] $GPGGA,105355,4805.81067,N,00142.51583,W,1,09,,74.000,M,,M,,*51
2025-07-03 13:21:45,960 - [SERIAL] $HCHDG,176.1,,,000.8,E*20
2025-07-03 13:21:45,961 - [SERIAL] $HCHDT,176.9,T*20
2025-07-03 13:21:45,964 - [SERIAL] $GPMDA,30.227,I,1.0236,B,,C,,C,,,,C,,T,,M,,N,,M*0F
2025-07-03 13:21:45,965 - [SERIAL] $IIMMB,30.227,I,1.0236,B*4B
2025-07-03 13:21:46,940 - [SERIAL] $GPRMC,105355,A,4805.81067,N,00142.51583,W,000.0,176.9,030725,,,A*63
2025-07-03 13:21:46,953 - [SERIAL] $GPGGA,105355,4805.81067,N,00142.51583,W,1,09,,74.000,M,,M,,*51
2025-07-03 13:21:46,988 - [SERIAL] $HCHDG,176.2,,,000.8,E*23
2025-07-03 13:21:46,990 - [SERIAL] $HCHDT,176.9,T*20
2025-07-03 13:21:46,992 - [SERIAL] $GPMDA,30.227,I,1.0236,B,,C,,C,,,,C,,T,,M,,N,,M*0F
2025-07-03 13:21:46,993 - [SERIAL] $IIMMB,30.227,I,1.0236,B*4B
2025-07-03 13:21:47,950 - [SERIAL] $GPRMC,105355,A,4805.81067,N,00142.51583,W,000.0,176.9,030725,,,A*63
2025-07-03 13:21:47,962 - [SERIAL] $GPGGA,105355,4805.81067,N,00142.51583,W,1,09,,74.000,M,,M,,*51
2025-07-03 13:21:47,994 - [SERIAL] $HCHDG,176.1,,,000.8,E*20
2025-07-03 13:21:47,995 - [SERIAL] $HCHDT,176.9,T*20
2025-07-03 13:21:47,998 - [SERIAL] $GPMDA,30.227,I,1.0236,B,,C,,C,,,,C,,T,,M,,N,,M*0F
2025-07-03 13:21:47,999 - [SERIAL] $IIMMB,30.227,I,1.0236,B*4B
2025-07-03 13:21:48,950 - [SERIAL] $GPRMC,105355,A,4805.81067,N,00142.51583,W,000.0,176.9,030725,,,A*63
2025-07-03 13:21:48,955 - [SERIAL] $GPGGA,105355,4805.81067,N,00142.51583,W,1,09,,74.000,M,,M,,*51
2025-07-03 13:21:48,986 - [SERIAL] $HCHDG,176.2,,,000.8,E*23
2025-07-03 13:21:48,987 - [SERIAL] $HCHDT,176.9,T*20
2025-07-03 13:21:48,990 - [SERIAL] $GPMDA,30.227,I,1.0236,B,,C,,C,,,,C,,T,,M,,N,,M*0F
2025-07-03 13:21:48,991 - [SERIAL] $IIMMB,30.227,I,1.0236,B*4B
2025-07-03 13:21:49,971 - [SERIAL] $GPRMC,105355,A,4805.81067,N,00142.51583,W,000.0,176.9,030725,,,A*63
2025-07-03 13:21:49,981 - [SERIAL] $GPGGA,105355,4805.81067,N,00142.51583,W,1,09,,74.000,M,,M,,*51
2025-07-03 13:21:50,002 - [SERIAL] $HCHDG,176.2,,,000.8,E*23
2025-07-03 13:21:50,004 - [SERIAL] $HCHDT,176.9,T*20
2025-07-03 13:21:50,006 - [SERIAL] $GPMDA,30.227,I,1.0236,B,,C,,C,,,,C,,T,,M,,N,,M*0F
2025-07-03 13:21:50,007 - [SERIAL] $IIMMB,30.227,I,1.0236,B*4B
2025-07-03 13:21:50,973 - [SERIAL] $GPRMC,105355,A,4805.81067,N,00142.51583,W,000.0,176.9,030725,,,A*63
2025-07-03 13:21:50,983 - [SERIAL] $GPGGA,105355,4805.81067,N,00142.51583,W,1,09,,74.000,M,,M,,*51
2025-07-03 13:21:51,005 - [SERIAL] $HCHDG,176.1,,,000.8,E*20
2025-07-03 13:21:51,007 - [SERIAL] $HCHDT,176.9,T*20
2025-07-03 13:21:51,009 - [SERIAL] $GPMDA,30.227,I,1.0236,B,,C,,C,,,,C,,T,,M,,N,,M*0F
2025-07-03 13:21:51,010 - [SERIAL] $IIMMB,30.227,I,1.0236,B*4B
2025-07-03 13:21:51,995 - [SERIAL] $GPRMC,105355,A,4805.81067,N,00142.51583,W,000.0,176.9,030725,,,A*63
2025-07-03 13:21:52,008 - [SERIAL] $GPGGA,105355,4805.81067,N,00142.51583,W,1,09,,74.000,M,,M,,*51
2025-07-03 13:21:52,036 - [SERIAL] $HCHDG,176.2,,,000.8,E*23
2025-07-03 13:21:52,038 - [SERIAL] $HCHDT,176.9,T*20
2025-07-03 13:21:52,040 - [SERIAL] $GPMDA,30.227,I,1.0236,B,,C,,C,,,,C,,T,,M,,N,,M*0F
2025-07-03 13:21:52,042 - [SERIAL] $IIMMB,30.227,I,1.0236,B*4B
2025-07-03 13:21:53,003 - [SERIAL] $GPRMC,105355,A,4805.81067,N,00142.51583,W,000.0,176.9,030725,,,A*63
2025-07-03 13:21:53,022 - [SERIAL] $GPGGA,105355,4805.81067,N,00142.51583,W,1,09,,74.000,M,,M,,*51
2025-07-03 13:21:53,056 - [SERIAL] $HCHDG,176.1,,,000.8,E*20
2025-07-03 13:21:53,057 - [SERIAL] $HCHDT,176.9,T*20
2025-07-03 13:21:53,060 - [SERIAL] $GPMDA,30.227,I,1.0236,B,,C,,C,,,,C,,T,,M,,N,,M*0F
2025-07-03 13:21:53,061 - [SERIAL] $IIMMB,30.227,I,1.0236,B*4B
2025-07-03 13:21:54,009 - [SERIAL] $GPRMC,105355,A,4805.81067,N,00142.51583,W,000.0,176.9,030725,,,A*63
2025-07-03 13:21:54,019 - [SERIAL] $GPGGA,105355,4805.81067,N,00142.51583,W,1,09,,74.000,M,,M,,*51
2025-07-03 13:21:54,043 - [SERIAL] $HCHDG,176.1,,,000.8,E*20
2025-07-03 13:21:54,045 - [SERIAL] $HCHDT,176.9,T*20
2025-07-03 13:21:54,047 - [SERIAL] $GPMDA,30.227,I,1.0236,B,,C,,C,,,,C,,T,,M,,N,,M*0F
2025-07-03 13:21:54,049 - [SERIAL] $IIMMB,30.227,I,1.0236,B*4B
2025-07-03 13:21:55,022 - [SERIAL] $GPRMC,105355,A,4805.81067,N,00142.51583,W,000.0,176.9,030725,,,A*63
2025-07-03 13:21:55,037 - [SERIAL] $GPGGA,105355,4805.81067,N,00142.51583,W,1,09,,74.000,M,,M,,*51
2025-07-03 13:21:55,071 - [SERIAL] $HCHDG,176.2,,,000.8,E*23
2025-07-03 13:21:55,073 - [SERIAL] $HCHDT,176.9,T*20
2025-07-03 13:21:55,075 - [SERIAL] $GPMDA,30.226,I,1.0236,B,,C,,C,,,,C,,T,,M,,N,,M*0E
2025-07-03 13:21:55,077 - [SERIAL] $IIMMB,30.226,I,1.0236,B*4A
2025-07-03 13:21:56,026 - [SERIAL] $GPRMC,105355,A,4805.81067,N,00142.51583,W,000.0,176.9,030725,,,A*63
2025-07-03 13:21:56,039 - [SERIAL] $GPGGA,105355,4805.81067,N,00142.51583,W,1,09,,74.000,M,,M,,*51
2025-07-03 13:21:56,083 - [SERIAL] $HCHDG,176.1,,,000.8,E*20
2025-07-03 13:21:56,084 - [SERIAL] $HCHDT,176.9,T*20
2025-07-03 13:21:56,087 - [SERIAL] $GPMDA,30.226,I,1.0236,B,,C,,C,,,,C,,T,,M,,N,,M*0E
2025-07-03 13:21:56,088 - [SERIAL] $IIMMB,30.226,I,1.0236,B*4A
2025-07-03 13:21:57,027 - [SERIAL] $GPRMC,105355,A,4805.81067,N,00142.51583,W,000.0,176.9,030725,,,A*63
2025-07-03 13:21:57,035 - [SERIAL] $GPGGA,105355,4805.81067,N,00142.51583,W,1,09,,74.000,M,,M,,*51
2025-07-03 13:21:57,055 - [SERIAL] $HCHDG,176.1,,,000.8,E*20
2025-07-03 13:21:57,057 - [SERIAL] $HCHDT,176.9,T*20
2025-07-03 13:21:57,059 - [SERIAL] $GPMDA,30.227,I,1.0236,B,,C,,C,,,,C,,T,,M,,N,,M*0F
2025-07-03 13:21:57,060 - [SERIAL] $IIMMB,30.227,I,1.0236,B*4B
2025-07-03 13:21:58,048 - [SERIAL] $GPRMC,105355,A,4805.81067,N,00142.51583,W,000.0,176.9,030725,,,A*63
2025-07-03 13:21:58,062 - [SERIAL] $GPGGA,105355,4805.81067,N,00142.51583,W,1,09,,74.000,M,,M,,*51
2025-07-03 13:21:58,095 - [SERIAL] $HCHDG,176.1,,,000.8,E*20
2025-07-03 13:21:58,096 - [SERIAL] $HCHDT,176.9,T*20
2025-07-03 13:21:58,099 - [SERIAL] $GPMDA,30.227,I,1.0236,B,,C,,C,,,,C,,T,,M,,N,,M*0F
2025-07-03 13:21:58,100 - [SERIAL] $IIMMB,30.227,I,1.0236,B*4B
2025-07-03 13:21:59,048 - [SERIAL] $GPRMC,105355,A,4805.81067,N,00142.51583,W,000.0,176.9,030725,,,A*63
2025-07-03 13:21:59,062 - [SERIAL] $GPGGA,105355,4805.81067,N,00142.51583,W,1,09,,74.000,M,,M,,*51
2025-07-03 13:21:59,092 - [SERIAL] $HCHDG,176.1,,,000.8,E*20
2025-07-03 13:21:59,093 - [SERIAL] $HCHDT,176.9,T*20
2025-07-03 13:21:59,096 - [SERIAL] $GPMDA,30.227,I,1.0236,B,,C,,C,,,,C,,T,,M,,N,,M*0F
2025-07-03 13:21:59,097 - [SERIAL] $IIMMB,30.227,I,1.0236,B*4B
2025-07-03 13:22:00,062 - [SERIAL] $GPRMC,105355,A,4805.81067,N,00142.51583,W,000.0,176.9,030725,,,A*63
2025-07-03 13:22:00,071 - [SERIAL] $GPGGA,105355,4805.81067,N,00142.51583,W,1,09,,74.000,M,,M,,*51
2025-07-03 13:22:00,090 - [SERIAL] $HCHDG,176.2,,,000.8,E*23
2025-07-03 13:22:00,092 - [SERIAL] $HCHDT,176.9,T*20
2025-07-03 13:22:00,094 - [SERIAL] $GPMDA,30.227,I,1.0236,B,,C,,C,,,,C,,T,,M,,N,,M*0F
2025-07-03 13:22:00,095 - [SERIAL] $IIMMB,30.227,I,1.0236,B*4B
2025-07-03 13:22:01,077 - [SERIAL] $GPRMC,105355,A,4805.81067,N,00142.51583,W,000.0,176.9,030725,,,A*63
2025-07-03 13:22:01,087 - [SERIAL] $GPGGA,105355,4805.81067,N,00142.51583,W,1,09,,74.000,M,,M,,*51
2025-07-03 13:22:01,111 - [SERIAL] $HCHDG,176.2,,,000.8,E*23
2025-07-03 13:22:01,112 - [SERIAL] $HCHDT,176.9,T*20
2025-07-03 13:22:01,115 - [SERIAL] $GPMDA,30.227,I,1.0236,B,,C,,C,,,,C,,T,,M,,N,,M*0F
2025-07-03 13:22:01,117 - [SERIAL] $IIMMB,30.227,I,1.0236,B*4B
2025-07-03 13:22:02,089 - [SERIAL] $GPRMC,105355,A,4805.81067,N,00142.51583,W,000.0,176.9,030725,,,A*63
2025-07-03 13:22:02,096 - [SERIAL] $GPGGA,105355,4805.81067,N,00142.51583,W,1,09,,74.000,M,,M,,*51
2025-07-03 13:22:02,119 - [SERIAL] $HCHDG,176.1,,,000.8,E*20
2025-07-03 13:22:02,120 - [SERIAL] $HCHDT,176.9,T*20
2025-07-03 13:22:02,122 - [SERIAL] $GPMDA,30.227,I,1.0236,B,,C,,C,,,,C,,T,,M,,N,,M*0F
2025-07-03 13:22:02,124 - [SERIAL] $IIMMB,30.227,I,1.0236,B*4B
2025-07-03 13:22:03,107 - [SERIAL] $GPRMC,105355,A,4805.81067,N,00142.51583,W,000.0,176.9,030725,,,A*63
2025-07-03 13:22:03,120 - [SERIAL] $GPGGA,105355,4805.81067,N,00142.51583,W,1,09,,74.000,M,,M,,*51
2025-07-03 13:22:03,149 - [SERIAL] $HCHDG,176.2,,,000.8,E*23
2025-07-03 13:22:03,151 - [SERIAL] $HCHDT,176.9,T*20
2025-07-03 13:22:03,153 - [SERIAL] $GPMDA,30.227,I,1.0236,B,,C,,C,,,,C,,T,,M,,N,,M*0F
2025-07-03 13:22:03,155 - [SERIAL] $IIMMB,30.227,I,1.0236,B*4B
2025-07-03 13:22:04,118 - [SERIAL] $GPRMC,105355,A,4805.81067,N,00142.51583,W,000.0,176.9,030725,,,A*63
2025-07-03 13:22:04,133 - [SERIAL] $GPGGA,105355,4805.81067,N,00142.51583,W,1,09,,74.000,M,,M,,*51
2025-07-03 13:22:04,166 - [SERIAL] $HCHDG,176.1,,,000.8,E*20
2025-07-03 13:22:04,167 - [SERIAL] $HCHDT,176.9,T*20
2025-07-03 13:22:04,170 - [SERIAL] $GPMDA,30.227,I,1.0236,B,,C,,C,,,,C,,T,,M,,N,,M*0F
2025-07-03 13:22:04,172 - [SERIAL] $IIMMB,30.227,I,1.0236,B*4B
2025-07-03 13:22:05,126 - [SERIAL] $GPRMC,105355,A,4805.81067,N,00142.51583,W,000.0,176.9,030725,,,A*63
2025-07-03 13:22:05,140 - [SERIAL] $GPGGA,105355,4805.81067,N,00142.51583,W,1,09,,74.000,M,,M,,*51
2025-07-03 13:22:05,178 - [SERIAL] $HCHDG,176.1,,,000.8,E*20
2025-07-03 13:22:05,180 - [SERIAL] $HCHDT,176.9,T*20
2025-07-03 13:22:05,182 - [SERIAL] $GPMDA,30.227,I,1.0236,B,,C,,C,,,,C,,T,,M,,N,,M*0F
2025-07-03 13:22:05,184 - [SERIAL] $IIMMB,30.227,I,1.0236,B*4B
2025-07-03 13:22:06,129 - [SERIAL] $GPRMC,105355,A,4805.81067,N,00142.51583,W,000.0,176.9,030725,,,A*63
2025-07-03 13:22:06,140 - [SERIAL] $GPGGA,105355,4805.81067,N,00142.51583,W,1,09,,74.000,M,,M,,*51
2025-07-03 13:22:06,171 - [SERIAL] $HCHDG,176.2,,,000.8,E*23
2025-07-03 13:22:06,172 - [SERIAL] $HCHDT,176.9,T*20
2025-07-03 13:22:06,176 - [SERIAL] $GPMDA,30.227,I,1.0236,B,,C,,C,,,,C,,T,,M,,N,,M*0F
2025-07-03 13:22:06,178 - [SERIAL] $IIMMB,30.227,I,1.0236,B*4B
2025-07-03 13:22:07,142 - [SERIAL] $GPRMC,105355,A,4805.81067,N,00142.51583,W,000.0,176.9,030725,,,A*63
2025-07-03 13:22:07,159 - [SERIAL] $GPGGA,105355,4805.81067,N,00142.51583,W,1,09,,74.000,M,,M,,*51
2025-07-03 13:22:07,192 - [SERIAL] $HCHDG,176.1,,,000.8,E*20
2025-07-03 13:22:07,193 - [SERIAL] $HCHDT,176.9,T*20
2025-07-03 13:22:07,196 - [SERIAL] $GPMDA,30.227,I,1.0236,B,,C,,C,,,,C,,T,,M,,N,,M*0F
2025-07-03 13:22:07,197 - [SERIAL] $IIMMB,30.227,I,1.0236,B*4B
2025-07-03 13:22:08,150 - [SERIAL] $GPRMC,105355,A,4805.81067,N,00142.51583,W,000.0,176.9,030725,,,A*63
2025-07-03 13:22:08,163 - [SERIAL] $GPGGA,105355,4805.81067,N,00142.51583,W,1,09,,74.000,M,,M,,*51
2025-07-03 13:22:08,185 - [SERIAL] $HCHDG,176.1,,,000.8,E*20
2025-07-03 13:22:08,186 - [SERIAL] $HCHDT,176.9,T*20
2025-07-03 13:22:08,189 - [SERIAL] $GPMDA,30.227,I,1.0236,B,,C,,C,,,,C,,T,,M,,N,,M*0F
2025-07-03 13:22:08,191 - [SERIAL] $IIMMB,30.227,I,1.0236,B*4B
2025-07-03 13:22:09,181 - [SERIAL] $GPRMC,105355,A,4805.81067,N,00142.51583,W,000.0,176.9,030725,,,A*63
2025-07-03 13:22:09,189 - [SERIAL] $GPGGA,105355,4805.81067,N,00142.51583,W,1,09,,74.000,M,,M,,*51
2025-07-03 13:22:09,213 - [SERIAL] $HCHDG,176.1,,,000.8,E*20
2025-07-03 13:22:09,214 - [SERIAL] $HCHDT,176.9,T*20
2025-07-03 13:22:09,217 - [SERIAL] $GPMDA,30.227,I,1.0236,B,,C,,C,,,,C,,T,,M,,N,,M*0F
2025-07-03 13:22:09,218 - [SERIAL] $IIMMB,30.227,I,1.0236,B*4B
2025-07-03 13:22:10,178 - [SERIAL] $GPRMC,105355,A,4805.81067,N,00142.51583,W,000.0,176.9,030725,,,A*63
2025-07-03 13:22:10,192 - [SERIAL] $GPGGA,105355,4805.81067,N,00142.51583,W,1,09,,74.000,M,,M,,*51
2025-07-03 13:22:10,227 - [SERIAL] $HCHDG,176.2,,,000.8,E*23
2025-07-03 13:22:10,228 - [SERIAL] $HCHDT,176.9,T*20
2025-07-03 13:22:10,231 - [SERIAL] $GPMDA,30.227,I,1.0236,B,,C,,C,,,,C,,T,,M,,N,,M*0F
2025-07-03 13:22:10,233 - [SERIAL] $IIMMB,30.227,I,1.0236,B*4B
2025-07-03 13:22:11,186 - [SERIAL] $GPRMC,105355,A,4805.81067,N,00142.51583,W,000.0,176.9,030725,,,A*63
2025-07-03 13:22:11,196 - [SERIAL] $GPGGA,105355,4805.81067,N,00142.51583,W,1,09,,74.000,M,,M,,*51
2025-07-03 13:22:11,220 - [SERIAL] $HCHDG,176.1,,,000.8,E*20
2025-07-03 13:22:11,221 - [SERIAL] $HCHDT,176.9,T*20
2025-07-03 13:22:11,223 - [SERIAL] $GPMDA,30.227,I,1.0236,B,,C,,C,,,,C,,T,,M,,N,,M*0F
2025-07-03 13:22:11,225 - [SERIAL] $IIMMB,30.227,I,1.0236,B*4B
2025-07-03 13:22:12,199 - [SERIAL] $GPRMC,105355,A,4805.81067,N,00142.51583,W,000.0,176.9,030725,,,A*63
2025-07-03 13:22:12,209 - [SERIAL] $GPGGA,105355,4805.81067,N,00142.51583,W,1,09,,74.000,M,,M,,*51
2025-07-03 13:22:12,231 - [SERIAL] $HCHDG,176.1,,,000.8,E*20
2025-07-03 13:22:12,232 - [SERIAL] $HCHDT,176.9,T*20
2025-07-03 13:22:12,235 - [SERIAL] $GPMDA,30.227,I,1.0236,B,,C,,C,,,,C,,T,,M,,N,,M*0F
2025-07-03 13:22:12,236 - [SERIAL] $IIMMB,30.227,I,1.0236,B*4B
2025-07-03 13:22:13,213 - [SERIAL] $GPRMC,105355,A,4805.81067,N,00142.51583,W,000.0,176.9,030725,,,A*63
2025-07-03 13:22:13,219 - [SERIAL] $GPGGA,105355,4805.81067,N,00142.51583,W,1,09,,74.000,M,,M,,*51
2025-07-03 13:22:13,239 - [SERIAL] $HCHDG,176.2,,,000.8,E*23
2025-07-03 13:22:13,241 - [SERIAL] $HCHDT,176.9,T*20
2025-07-03 13:22:13,243 - [SERIAL] $GPMDA,30.227,I,1.0236,B,,C,,C,,,,C,,T,,M,,N,,M*0F
2025-07-03 13:22:13,245 - [SERIAL] $IIMMB,30.227,I,1.0236,B*4B
2025-07-03 13:22:14,217 - [SERIAL] $GPRMC,105355,A,4805.81067,N,00142.51583,W,000.0,176.9,030725,,,A*63
2025-07-03 13:22:14,236 - [SERIAL] $GPGGA,105355,4805.81067,N,00142.51583,W,1,09,,74.000,M,,M,,*51
2025-07-03 13:22:14,280 - [SERIAL] $HCHDG,176.1,,,000.8,E*20
2025-07-03 13:22:14,281 - [SERIAL] $HCHDT,176.9,T*20
2025-07-03 13:22:14,284 - [SERIAL] $GPMDA,30.227,I,1.0236,B,,C,,C,,,,C,,T,,M,,N,,M*0F
2025-07-03 13:22:14,285 - [SERIAL] $IIMMB,30.227,I,1.0236,B*4B
2025-07-03 13:22:15,229 - [SERIAL] $GPRMC,105355,A,4805.81067,N,00142.51583,W,000.0,176.9,030725,,,A*63
2025-07-03 13:22:15,235 - [SERIAL] $GPGGA,105355,4805.81067,N,00142.51583,W,1,09,,74.000,M,,M,,*51
2025-07-03 13:22:15,257 - [SERIAL] $HCHDG,176.1,,,000.8,E*20
2025-07-03 13:22:15,258 - [SERIAL] $HCHDT,176.9,T*20
2025-07-03 13:22:15,261 - [SERIAL] $GPMDA,30.227,I,1.0236,B,,C,,C,,,,C,,T,,M,,N,,M*0F
2025-07-03 13:22:15,263 - [SERIAL] $IIMMB,30.227,I,1.0236,B*4B
2025-07-03 13:22:16,235 - [SERIAL] $GPRMC,105355,A,4805.81067,N,00142.51583,W,000.0,176.9,030725,,,A*63
2025-07-03 13:22:16,241 - [SERIAL] $GPGGA,105355,4805.81067,N,00142.51583,W,1,09,,74.000,M,,M,,*51
2025-07-03 13:22:16,262 - [SERIAL] $HCHDG,176.2,,,000.8,E*23
2025-07-03 13:22:16,264 - [SERIAL] $HCHDT,176.9,T*20
