2025-07-03 12:09:57,332 - [NMEA][UDP] $PSSGR,GSA,A,3,131,,,,,,,,,,,,6.8,3.0,6.0,3,7*70
2025-07-03 12:09:57,333 - [NMEA][UDP] $PSSGR,GSA,A,3,131,,,,,,,,,,,,6.8,3.0,6.0,3,1*76
2025-07-03 12:09:57,333 - [NMEA][UDP] $PSSGR,GSA,A,3,131,,,,,,,,,,,,6.8,3.0,6.0,3,1*76
2025-07-03 12:09:57,333 - [NMEA][UDP] $PSSGR,GSA,A,3,131,,,,,,,,,,,,6.8,3.0,6.0,3,1*76
2025-07-03 12:09:57,334 - [NMEA][UDP] $PSSGR,GSA,A,3,131,,,,,,,,,,,,6.8,3.0,6.0,3,1*76
2025-07-03 12:09:57,334 - [NMEA][UDP] $PSSGR,GSA,A,3,131,,,,,,,,,,,,6.8,3.0,6.0,3,1*76
2025-07-03 12:09:57,334 - [NMEA][UDP] $PSSGR,GSA,A,3,131,,,,,,,,,,,,6.8,3.0,6.0,3,1*76
2025-07-03 12:09:57,334 - [NMEA][UDP] $PSSGR,GSA,A,3,131,,,,,,,,,,,,6.8,3.0,6.0,3,1*76
2025-07-03 12:09:57,334 - [NMEA][UDP] $PSSGR,GSA,A,3,131,,,,,,,,,,,,6.8,3.0,6.0,3,1*76
2025-07-03 12:09:57,335 - [NMEA][UDP] $GNRMC,100957.000,A,4805.8103,N,00142.5152,W,0.0,,030725,,,A*42
2025-07-03 12:09:57,335 - [NMEA][UDP] $GNRMC,100957.000,A,4805.8103,N,00142.5152,W,0.0,,030725,,,A*42
2025-07-03 12:09:57,335 - [NMEA][UDP] $GNRMC,100957.000,A,4805.8103,N,00142.5152,W,0.0,,030725,,,A*42
2025-07-03 12:09:57,335 - [NMEA][UDP] $GNRMC,100957.000,A,4805.8103,N,00142.5152,W,0.0,,030725,,,A*42
2025-07-03 12:09:57,335 - [NMEA][UDP] $GNRMC,100957.000,A,4805.8103,N,00142.5152,W,0.0,,030725,,,A*42
2025-07-03 12:09:57,335 - [NMEA][UDP] $GNRMC,100957.000,A,4805.8103,N,00142.5152,W,0.0,,030725,,,A*42
2025-07-03 12:09:57,336 - [NMEA][UDP] $GNRMC,100957.000,A,4805.8103,N,00142.5152,W,0.0,,030725,,,A*42
2025-07-03 12:09:57,336 - [NMEA][UDP] $GNRMC,100957.000,A,4805.8103,N,00142.5152,W,0.0,,030725,,,A*42
2025-07-03 12:09:57,336 - [NMEA][UDP] $PSAMCLK,2373,38221500,11,20503,30244,382215000*7B
2025-07-03 12:09:57,336 - [NMEA][UDP] $PSAMCLK,2373,38221500,11,20503,30244,382215000*7B
2025-07-03 12:09:57,336 - [NMEA][UDP] $PSAMCLK,2373,38221500,11,20503,30244,382215000*7B
2025-07-03 12:09:57,336 - [NMEA][UDP] $PSAMCLK,2373,38221500,11,20503,30244,382215000*7B
2025-07-03 12:09:57,336 - [NMEA][UDP] $PSAMCLK,2373,38221500,11,20503,30244,382215000*7B
2025-07-03 12:09:57,336 - [NMEA][UDP] $PSAMCLK,2373,38221500,11,20503,30244,382215000*7B
2025-07-03 12:09:57,336 - [NMEA][UDP] $PSAMCLK,2373,38221500,11,20503,30244,382215000*7B
2025-07-03 12:09:57,337 - [NMEA][UDP] $PSAMCLK,2373,38221500,11,20503,30244,382215000*7B
2025-07-03 12:09:57,529 - [SERIAL] $GPRMC,083935,A,4805.8117,N,00142.52219,W,000.0,,030725,,,A*77
2025-07-03 12:09:57,540 - [SERIAL] $GPGGA,083935,4805.8117,N,00142.52219,W,1,00,,83.000,M,,M,,*63
2025-07-03 12:09:57,541 - [SERIAL] $HCHDG,132.9,,,000.8,E*28
2025-07-03 12:09:57,542 - [SERIAL] $HCHDT,133.7,T*2F
2025-07-03 12:09:57,543 - [SERIAL] $GPMDA,30.23,I,1.0237,B,,C,,C,,,,C,,T,,M,,N,,M*38
2025-07-03 12:09:57,543 - [SERIAL] $IIMMB,30.23,I,1.0237,B*7C
2025-07-03 12:09:58,332 - [NMEA][UDP] $PSAMAID,tPE*0E
2025-07-03 12:09:58,333 - [NMEA][UDP] $PSAMAID,tPE*0E
2025-07-03 12:09:58,333 - [NMEA][UDP] $PSAMAID,tPE*0E
2025-07-03 12:09:58,335 - [NMEA][UDP] $PSAMAID,tPE*0E
2025-07-03 12:09:58,335 - [NMEA][UDP] $PSAMAID,tPE*0E
2025-07-03 12:09:58,335 - [NMEA][UDP] $PSAMAID,tPE*0E
2025-07-03 12:09:58,336 - [NMEA][UDP] $PSAMAID,tPE*0E
2025-07-03 12:09:58,336 - [NMEA][UDP] $PSAMAID,tPE*0E
2025-07-03 12:09:58,337 - [NMEA][UDP] $GNGGA,100958.000,4805.8103,N,00142.5152,W,1,11,3.0,31.7,M,48.3,M,,*6B
2025-07-03 12:09:58,337 - [NMEA][UDP] $GNGGA,100958.000,4805.8103,N,00142.5152,W,1,11,3.0,31.7,M,48.3,M,,*6B
2025-07-03 12:09:58,337 - [NMEA][UDP] $GNGGA,100958.000,4805.8103,N,00142.5152,W,1,11,3.0,31.7,M,48.3,M,,*6B
2025-07-03 12:09:58,338 - [NMEA][UDP] $GNGGA,100958.000,4805.8103,N,00142.5152,W,1,11,3.0,31.7,M,48.3,M,,*6B
2025-07-03 12:09:58,339 - [NMEA][UDP] $GNGGA,100958.000,4805.8103,N,00142.5152,W,1,11,3.0,31.7,M,48.3,M,,*6B
2025-07-03 12:09:58,339 - [NMEA][UDP] $GNGGA,100958.000,4805.8103,N,00142.5152,W,1,11,3.0,31.7,M,48.3,M,,*6B
2025-07-03 12:09:58,340 - [NMEA][UDP] $GNGGA,100958.000,4805.8103,N,00142.5152,W,1,11,3.0,31.7,M,48.3,M,,*6B
2025-07-03 12:09:58,341 - [NMEA][UDP] $GNGGA,100958.000,4805.8103,N,00142.5152,W,1,11,3.0,31.7,M,48.3,M,,*6B
2025-07-03 12:09:58,342 - [NMEA][UDP] $PSAMSA,100958.000,4805.8103,N,00142.5152,W,1,M,,0*48
2025-07-03 12:09:58,343 - [NMEA][UDP] $PSAMSA,100958.000,4805.8103,N,00142.5152,W,1,M,,0*48
2025-07-03 12:09:58,343 - [NMEA][UDP] $PSAMSA,100958.000,4805.8103,N,00142.5152,W,1,M,,0*48
2025-07-03 12:09:58,344 - [NMEA][UDP] $PSAMSA,100958.000,4805.8103,N,00142.5152,W,1,M,,0*48
2025-07-03 12:09:58,344 - [NMEA][UDP] $PSAMSA,100958.000,4805.8103,N,00142.5152,W,1,M,,0*48
2025-07-03 12:09:58,344 - [NMEA][UDP] $PSAMSA,100958.000,4805.8103,N,00142.5152,W,1,M,,0*48
2025-07-03 12:09:58,345 - [NMEA][UDP] $PSAMSA,100958.000,4805.8103,N,00142.5152,W,1,M,,0*48
2025-07-03 12:09:58,345 - [NMEA][UDP] $PSAMSA,100958.000,4805.8103,N,00142.5152,W,1,M,,0*48
2025-07-03 12:09:58,346 - [NMEA][UDP] $GNGLL,4805.8103,N,00142.5152,W,100958.000,A,A*57
2025-07-03 12:09:58,347 - [NMEA][UDP] $GNGLL,4805.8103,N,00142.5152,W,100958.000,A,A*57
2025-07-03 12:09:58,348 - [NMEA][UDP] $GNGLL,4805.8103,N,00142.5152,W,100958.000,A,A*57
2025-07-03 12:09:58,348 - [NMEA][UDP] $GNGLL,4805.8103,N,00142.5152,W,100958.000,A,A*57
2025-07-03 12:09:58,348 - [NMEA][UDP] $GNGLL,4805.8103,N,00142.5152,W,100958.000,A,A*57
2025-07-03 12:09:58,348 - [NMEA][UDP] $GNGLL,4805.8103,N,00142.5152,W,100958.000,A,A*57
2025-07-03 12:09:58,349 - [NMEA][UDP] $GNGLL,4805.8103,N,00142.5152,W,100958.000,A,A*57
2025-07-03 12:09:58,349 - [NMEA][UDP] $GNGLL,4805.8103,N,00142.5152,W,100958.000,A,A*57
2025-07-03 12:09:58,350 - [NMEA][UDP] $GNVTG,305.1,T,,M,0.0,N,0.0,K,A*14
2025-07-03 12:09:58,350 - [NMEA][UDP] $GNVTG,305.1,T,,M,0.0,N,0.0,K,A*14
2025-07-03 12:09:58,350 - [NMEA][UDP] $GNVTG,305.1,T,,M,0.0,N,0.0,K,A*14
2025-07-03 12:09:58,350 - [NMEA][UDP] $GNVTG,305.1,T,,M,0.0,N,0.0,K,A*14
2025-07-03 12:09:58,351 - [NMEA][UDP] $GNVTG,305.1,T,,M,0.0,N,0.0,K,A*14
2025-07-03 12:09:58,351 - [NMEA][UDP] $GNVTG,305.1,T,,M,0.0,N,0.0,K,A*14
2025-07-03 12:09:58,351 - [NMEA][UDP] $GNVTG,305.1,T,,M,0.0,N,0.0,K,A*14
2025-07-03 12:09:58,351 - [NMEA][UDP] $GNVTG,305.1,T,,M,0.0,N,0.0,K,A*14
2025-07-03 12:09:58,355 - [NMEA][UDP] $PSSGR,GSA,A,3,01,02,03,27,,,,,,,,,6.8,3.0,6.0,1,1*42
2025-07-03 12:09:58,356 - [NMEA][UDP] $PSSGR,GSA,A,3,01,02,03,27,,,,,,,,,6.8,3.0,6.0,1,1*42
2025-07-03 12:09:58,356 - [NMEA][UDP] $PSSGR,GSA,A,3,01,02,03,27,,,,,,,,,6.8,3.0,6.0,1,1*42
2025-07-03 12:09:58,357 - [NMEA][UDP] $PSSGR,GSA,A,3,01,02,03,27,,,,,,,,,6.8,3.0,6.0,1,1*42
2025-07-03 12:09:58,357 - [NMEA][UDP] $PSSGR,GSA,A,3,01,02,03,27,,,,,,,,,6.8,3.0,6.0,1,1*42
2025-07-03 12:09:58,357 - [NMEA][UDP] $PSSGR,GSA,A,3,01,02,03,27,,,,,,,,,6.8,3.0,6.0,1,1*42
2025-07-03 12:09:58,358 - [NMEA][UDP] $PSSGR,GSA,A,3,01,02,03,27,,,,,,,,,6.8,3.0,6.0,1,1*42
2025-07-03 12:09:58,358 - [NMEA][UDP] $PSSGR,GSA,A,3,01,02,03,27,,,,,,,,,6.8,3.0,6.0,1,1*42
2025-07-03 12:09:58,359 - [NMEA][UDP] $PSSGR,GSA,A,3,01,03,27,,,,,,,,,,6.8,3.0,6.0,1,8*49
2025-07-03 12:09:58,359 - [NMEA][UDP] $PSSGR,GSA,A,3,01,03,27,,,,,,,,,,6.8,3.0,6.0,1,8*49
2025-07-03 12:09:58,359 - [NMEA][UDP] $PSSGR,GSA,A,3,01,03,27,,,,,,,,,,6.8,3.0,6.0,1,8*49
2025-07-03 12:09:58,359 - [NMEA][UDP] $PSSGR,GSA,A,3,01,03,27,,,,,,,,,,6.8,3.0,6.0,1,8*49
2025-07-03 12:09:58,359 - [NMEA][UDP] $PSSGR,GSA,A,3,01,03,27,,,,,,,,,,6.8,3.0,6.0,1,8*49
2025-07-03 12:09:58,360 - [NMEA][UDP] $PSSGR,GSA,A,3,01,03,27,,,,,,,,,,6.8,3.0,6.0,1,8*49
2025-07-03 12:09:58,360 - [NMEA][UDP] $PSSGR,GSA,A,3,01,03,27,,,,,,,,,,6.8,3.0,6.0,1,8*49
2025-07-03 12:09:58,360 - [NMEA][UDP] $PSSGR,GSA,A,3,01,03,27,,,,,,,,,,6.8,3.0,6.0,1,8*49
2025-07-03 12:09:58,360 - [NMEA][UDP] $PSSGR,GSA,A,3,68,83,,,,,,,,,,,6.8,3.0,6.0,2,1*41
2025-07-03 12:09:58,361 - [NMEA][UDP] $PSSGR,GSA,A,3,68,83,,,,,,,,,,,6.8,3.0,6.0,2,1*41
2025-07-03 12:09:58,361 - [NMEA][UDP] $PSSGR,GSA,A,3,68,83,,,,,,,,,,,6.8,3.0,6.0,2,1*41
2025-07-03 12:09:58,361 - [NMEA][UDP] $PSSGR,GSA,A,3,68,83,,,,,,,,,,,6.8,3.0,6.0,2,1*41
2025-07-03 12:09:58,362 - [NMEA][UDP] $PSSGR,GSA,A,3,68,83,,,,,,,,,,,6.8,3.0,6.0,2,1*41
2025-07-03 12:09:58,362 - [NMEA][UDP] $PSSGR,GSA,A,3,68,83,,,,,,,,,,,6.8,3.0,6.0,2,1*41
2025-07-03 12:09:58,362 - [NMEA][UDP] $PSSGR,GSA,A,3,68,83,,,,,,,,,,,6.8,3.0,6.0,2,1*41
2025-07-03 12:09:58,362 - [NMEA][UDP] $PSSGR,GSA,A,3,68,83,,,,,,,,,,,6.8,3.0,6.0,2,1*41
2025-07-03 12:09:58,363 - [NMEA][UDP] $PSSGR,GSA,A,3,131,,,,,,,,,,,,6.8,3.0,6.0,3,7*70
2025-07-03 12:09:58,363 - [NMEA][UDP] $PSSGR,GSA,A,3,131,,,,,,,,,,,,6.8,3.0,6.0,3,7*70
2025-07-03 12:09:58,363 - [NMEA][UDP] $PSSGR,GSA,A,3,131,,,,,,,,,,,,6.8,3.0,6.0,3,7*70
2025-07-03 12:09:58,363 - [NMEA][UDP] $PSSGR,GSA,A,3,131,,,,,,,,,,,,6.8,3.0,6.0,3,7*70
2025-07-03 12:09:58,363 - [NMEA][UDP] $PSSGR,GSA,A,3,131,,,,,,,,,,,,6.8,3.0,6.0,3,7*70
2025-07-03 12:09:58,364 - [NMEA][UDP] $PSSGR,GSA,A,3,131,,,,,,,,,,,,6.8,3.0,6.0,3,7*70
2025-07-03 12:09:58,364 - [NMEA][UDP] $PSSGR,GSA,A,3,131,,,,,,,,,,,,6.8,3.0,6.0,3,7*70
2025-07-03 12:09:58,364 - [NMEA][UDP] $PSSGR,GSA,A,3,131,,,,,,,,,,,,6.8,3.0,6.0,3,7*70
2025-07-03 12:09:58,365 - [NMEA][UDP] $PSSGR,GSA,A,3,131,,,,,,,,,,,,6.8,3.0,6.0,3,1*76
2025-07-03 12:09:58,365 - [NMEA][UDP] $PSSGR,GSA,A,3,131,,,,,,,,,,,,6.8,3.0,6.0,3,1*76
2025-07-03 12:09:58,365 - [NMEA][UDP] $PSSGR,GSA,A,3,131,,,,,,,,,,,,6.8,3.0,6.0,3,1*76
2025-07-03 12:09:58,365 - [NMEA][UDP] $PSSGR,GSA,A,3,131,,,,,,,,,,,,6.8,3.0,6.0,3,1*76
2025-07-03 12:09:58,365 - [NMEA][UDP] $PSSGR,GSA,A,3,131,,,,,,,,,,,,6.8,3.0,6.0,3,1*76
2025-07-03 12:09:58,366 - [NMEA][UDP] $PSSGR,GSA,A,3,131,,,,,,,,,,,,6.8,3.0,6.0,3,1*76
2025-07-03 12:09:58,366 - [NMEA][UDP] $PSSGR,GSA,A,3,131,,,,,,,,,,,,6.8,3.0,6.0,3,1*76
2025-07-03 12:09:58,366 - [NMEA][UDP] $PSSGR,GSA,A,3,131,,,,,,,,,,,,6.8,3.0,6.0,3,1*76
2025-07-03 12:09:58,366 - [NMEA][UDP] $GNRMC,100958.000,A,4805.8103,N,00142.5152,W,0.0,,030725,,,A*4D
2025-07-03 12:09:58,366 - [NMEA][UDP] $GNRMC,100958.000,A,4805.8103,N,00142.5152,W,0.0,,030725,,,A*4D
2025-07-03 12:09:58,367 - [NMEA][UDP] $GNRMC,100958.000,A,4805.8103,N,00142.5152,W,0.0,,030725,,,A*4D
2025-07-03 12:09:58,367 - [NMEA][UDP] $GNRMC,100958.000,A,4805.8103,N,00142.5152,W,0.0,,030725,,,A*4D
2025-07-03 12:09:58,367 - [NMEA][UDP] $GNRMC,100958.000,A,4805.8103,N,00142.5152,W,0.0,,030725,,,A*4D
2025-07-03 12:09:58,367 - [NMEA][UDP] $GNRMC,100958.000,A,4805.8103,N,00142.5152,W,0.0,,030725,,,A*4D
2025-07-03 12:09:58,367 - [NMEA][UDP] $GNRMC,100958.000,A,4805.8103,N,00142.5152,W,0.0,,030725,,,A*4D
2025-07-03 12:09:58,368 - [NMEA][UDP] $GNRMC,100958.000,A,4805.8103,N,00142.5152,W,0.0,,030725,,,A*4D
2025-07-03 12:09:58,368 - [NMEA][UDP] $PSAMCLK,2373,38221600,11,20297,30374,382216000*73
2025-07-03 12:09:58,368 - [NMEA][UDP] $PSAMCLK,2373,38221600,11,20297,30374,382216000*73
2025-07-03 12:09:58,368 - [NMEA][UDP] $PSAMCLK,2373,38221600,11,20297,30374,382216000*73
2025-07-03 12:09:58,368 - [NMEA][UDP] $PSAMCLK,2373,38221600,11,20297,30374,382216000*73
2025-07-03 12:09:58,369 - [NMEA][UDP] $PSAMCLK,2373,38221600,11,20297,30374,382216000*73
2025-07-03 12:09:58,369 - [NMEA][UDP] $PSAMCLK,2373,38221600,11,20297,30374,382216000*73
2025-07-03 12:09:58,369 - [NMEA][UDP] $PSAMCLK,2373,38221600,11,20297,30374,382216000*73
2025-07-03 12:09:58,369 - [NMEA][UDP] $PSAMCLK,2373,38221600,11,20297,30374,382216000*73
2025-07-03 12:09:58,536 - [SERIAL] $GPRMC,083935,A,4805.8117,N,00142.52219,W,000.0,,030725,,,A*77
2025-07-03 12:09:58,544 - [SERIAL] $GPGGA,083935,4805.8117,N,00142.52219,W,1,00,,83.000,M,,M,,*63
2025-07-03 12:09:58,545 - [SERIAL] $HCHDG,132.9,,,000.8,E*28
2025-07-03 12:09:58,546 - [SERIAL] $HCHDT,133.7,T*2F
2025-07-03 12:09:58,546 - [SERIAL] $GPMDA,30.23,I,1.0237,B,,C,,C,,,,C,,T,,M,,N,,M*38
2025-07-03 12:09:58,547 - [SERIAL] $IIMMB,30.23,I,1.0237,B*7C
2025-07-03 12:09:59,252 - [NMEA][UDP] $PSAMAID,tPE*0E
2025-07-03 12:09:59,253 - [NMEA][UDP] $PSAMAID,tPE*0E
2025-07-03 12:09:59,254 - [NMEA][UDP] $PSAMAID,tPE*0E
2025-07-03 12:09:59,255 - [NMEA][UDP] $PSAMAID,tPE*0E
2025-07-03 12:09:59,255 - [NMEA][UDP] $PSAMAID,tPE*0E
2025-07-03 12:09:59,256 - [NMEA][UDP] $PSAMAID,tPE*0E
2025-07-03 12:09:59,256 - [NMEA][UDP] $PSAMAID,tPE*0E
2025-07-03 12:09:59,257 - [NMEA][UDP] $PSAMAID,tPE*0E
2025-07-03 12:09:59,257 - [NMEA][UDP] $GNGGA,100959.000,4805.8103,N,00142.5152,W,1,11,1.8,31.7,M,48.3,M,,*60
2025-07-03 12:09:59,258 - [NMEA][UDP] $GNGGA,100959.000,4805.8103,N,00142.5152,W,1,11,1.8,31.7,M,48.3,M,,*60
2025-07-03 12:09:59,258 - [NMEA][UDP] $GNGGA,100959.000,4805.8103,N,00142.5152,W,1,11,1.8,31.7,M,48.3,M,,*60
2025-07-03 12:09:59,259 - [NMEA][UDP] $GNGGA,100959.000,4805.8103,N,00142.5152,W,1,11,1.8,31.7,M,48.3,M,,*60
2025-07-03 12:09:59,260 - [NMEA][UDP] $GNGGA,100959.000,4805.8103,N,00142.5152,W,1,11,1.8,31.7,M,48.3,M,,*60
2025-07-03 12:09:59,261 - [NMEA][UDP] $GNGGA,100959.000,4805.8103,N,00142.5152,W,1,11,1.8,31.7,M,48.3,M,,*60
2025-07-03 12:09:59,261 - [NMEA][UDP] $GNGGA,100959.000,4805.8103,N,00142.5152,W,1,11,1.8,31.7,M,48.3,M,,*60
2025-07-03 12:09:59,262 - [NMEA][UDP] $GNGGA,100959.000,4805.8103,N,00142.5152,W,1,11,1.8,31.7,M,48.3,M,,*60
2025-07-03 12:09:59,262 - [NMEA][UDP] $PSAMSA,100959.000,4805.8103,N,00142.5152,W,1,M,,0*49
2025-07-03 12:09:59,263 - [NMEA][UDP] $PSAMSA,100959.000,4805.8103,N,00142.5152,W,1,M,,0*49
2025-07-03 12:09:59,263 - [NMEA][UDP] $PSAMSA,100959.000,4805.8103,N,00142.5152,W,1,M,,0*49
2025-07-03 12:09:59,264 - [NMEA][UDP] $PSAMSA,100959.000,4805.8103,N,00142.5152,W,1,M,,0*49
2025-07-03 12:09:59,265 - [NMEA][UDP] $PSAMSA,100959.000,4805.8103,N,00142.5152,W,1,M,,0*49
2025-07-03 12:09:59,265 - [NMEA][UDP] $PSAMSA,100959.000,4805.8103,N,00142.5152,W,1,M,,0*49
2025-07-03 12:09:59,266 - [NMEA][UDP] $PSAMSA,100959.000,4805.8103,N,00142.5152,W,1,M,,0*49
2025-07-03 12:09:59,266 - [NMEA][UDP] $PSAMSA,100959.000,4805.8103,N,00142.5152,W,1,M,,0*49
2025-07-03 12:09:59,267 - [NMEA][UDP] $GNGLL,4805.8103,N,00142.5152,W,100959.000,A,A*56
2025-07-03 12:09:59,267 - [NMEA][UDP] $GNGLL,4805.8103,N,00142.5152,W,100959.000,A,A*56
2025-07-03 12:09:59,268 - [NMEA][UDP] $GNGLL,4805.8103,N,00142.5152,W,100959.000,A,A*56
2025-07-03 12:09:59,268 - [NMEA][UDP] $GNGLL,4805.8103,N,00142.5152,W,100959.000,A,A*56
2025-07-03 12:09:59,269 - [NMEA][UDP] $GNGLL,4805.8103,N,00142.5152,W,100959.000,A,A*56
2025-07-03 12:09:59,269 - [NMEA][UDP] $GNGLL,4805.8103,N,00142.5152,W,100959.000,A,A*56
2025-07-03 12:09:59,270 - [NMEA][UDP] $GNGLL,4805.8103,N,00142.5152,W,100959.000,A,A*56
2025-07-03 12:09:59,270 - [NMEA][UDP] $GNGLL,4805.8103,N,00142.5152,W,100959.000,A,A*56
2025-07-03 12:09:59,270 - [NMEA][UDP] $GNVTG,305.1,T,,M,0.0,N,0.0,K,A*14
2025-07-03 12:09:59,271 - [NMEA][UDP] $GNVTG,305.1,T,,M,0.0,N,0.0,K,A*14
2025-07-03 12:09:59,271 - [NMEA][UDP] $GNVTG,305.1,T,,M,0.0,N,0.0,K,A*14
2025-07-03 12:09:59,271 - [NMEA][UDP] $GNVTG,305.1,T,,M,0.0,N,0.0,K,A*14
2025-07-03 12:09:59,272 - [NMEA][UDP] $GNVTG,305.1,T,,M,0.0,N,0.0,K,A*14
2025-07-03 12:09:59,272 - [NMEA][UDP] $GNVTG,305.1,T,,M,0.0,N,0.0,K,A*14
2025-07-03 12:09:59,272 - [NMEA][UDP] $GNVTG,305.1,T,,M,0.0,N,0.0,K,A*14
2025-07-03 12:09:59,273 - [NMEA][UDP] $GNVTG,305.1,T,,M,0.0,N,0.0,K,A*14
2025-07-03 12:09:59,278 - [NMEA][UDP] $PSSGR,GSA,A,3,01,02,03,27,,,,,,,,,3.6,1.8,3.2,1,1*44
2025-07-03 12:09:59,279 - [NMEA][UDP] $PSSGR,GSA,A,3,01,02,03,27,,,,,,,,,3.6,1.8,3.2,1,1*44
2025-07-03 12:09:59,279 - [NMEA][UDP] $PSSGR,GSA,A,3,01,02,03,27,,,,,,,,,3.6,1.8,3.2,1,1*44
2025-07-03 12:09:59,280 - [NMEA][UDP] $PSSGR,GSA,A,3,01,02,03,27,,,,,,,,,3.6,1.8,3.2,1,1*44
2025-07-03 12:09:59,280 - [NMEA][UDP] $PSSGR,GSA,A,3,01,02,03,27,,,,,,,,,3.6,1.8,3.2,1,1*44
2025-07-03 12:09:59,281 - [NMEA][UDP] $PSSGR,GSA,A,3,01,02,03,27,,,,,,,,,3.6,1.8,3.2,1,1*44
2025-07-03 12:09:59,281 - [NMEA][UDP] $PSSGR,GSA,A,3,01,02,03,27,,,,,,,,,3.6,1.8,3.2,1,1*44
2025-07-03 12:09:59,281 - [NMEA][UDP] $PSSGR,GSA,A,3,01,02,03,27,,,,,,,,,3.6,1.8,3.2,1,1*44
2025-07-03 12:09:59,281 - [NMEA][UDP] $PSSGR,GSA,A,3,01,03,08,27,,,,,,,,,3.6,1.8,3.2,1,8*47
2025-07-03 12:09:59,282 - [NMEA][UDP] $PSSGR,GSA,A,3,01,03,08,27,,,,,,,,,3.6,1.8,3.2,1,8*47
2025-07-03 12:09:59,282 - [NMEA][UDP] $PSSGR,GSA,A,3,01,03,08,27,,,,,,,,,3.6,1.8,3.2,1,8*47
2025-07-03 12:09:59,282 - [NMEA][UDP] $PSSGR,GSA,A,3,01,03,08,27,,,,,,,,,3.6,1.8,3.2,1,8*47
2025-07-03 12:09:59,282 - [NMEA][UDP] $PSSGR,GSA,A,3,01,03,08,27,,,,,,,,,3.6,1.8,3.2,1,8*47
2025-07-03 12:09:59,283 - [NMEA][UDP] $PSSGR,GSA,A,3,01,03,08,27,,,,,,,,,3.6,1.8,3.2,1,8*47
2025-07-03 12:09:59,283 - [NMEA][UDP] $PSSGR,GSA,A,3,01,03,08,27,,,,,,,,,3.6,1.8,3.2,1,8*47
2025-07-03 12:09:59,283 - [NMEA][UDP] $PSSGR,GSA,A,3,01,03,08,27,,,,,,,,,3.6,1.8,3.2,1,8*47
2025-07-03 12:09:59,284 - [NMEA][UDP] $PSSGR,GSA,A,3,68,83,,,,,,,,,,,3.6,1.8,3.2,2,1*47
2025-07-03 12:09:59,284 - [NMEA][UDP] $PSSGR,GSA,A,3,68,83,,,,,,,,,,,3.6,1.8,3.2,2,1*47
2025-07-03 12:09:59,284 - [NMEA][UDP] $PSSGR,GSA,A,3,68,83,,,,,,,,,,,3.6,1.8,3.2,2,1*47
2025-07-03 12:09:59,284 - [NMEA][UDP] $PSSGR,GSA,A,3,68,83,,,,,,,,,,,3.6,1.8,3.2,2,1*47
2025-07-03 12:09:59,285 - [NMEA][UDP] $PSSGR,GSA,A,3,68,83,,,,,,,,,,,3.6,1.8,3.2,2,1*47
2025-07-03 12:09:59,285 - [NMEA][UDP] $PSSGR,GSA,A,3,68,83,,,,,,,,,,,3.6,1.8,3.2,2,1*47
2025-07-03 12:09:59,285 - [NMEA][UDP] $PSSGR,GSA,A,3,68,83,,,,,,,,,,,3.6,1.8,3.2,2,1*47
2025-07-03 12:09:59,285 - [NMEA][UDP] $PSSGR,GSA,A,3,68,83,,,,,,,,,,,3.6,1.8,3.2,2,1*47
2025-07-03 12:09:59,285 - [NMEA][UDP] $PSSGR,GSA,A,3,131,,,,,,,,,,,,3.6,1.8,3.2,3,7*76
2025-07-03 12:09:59,286 - [NMEA][UDP] $PSSGR,GSA,A,3,131,,,,,,,,,,,,3.6,1.8,3.2,3,7*76
2025-07-03 12:09:59,286 - [NMEA][UDP] $PSSGR,GSA,A,3,131,,,,,,,,,,,,3.6,1.8,3.2,3,7*76
2025-07-03 12:09:59,287 - [NMEA][UDP] $PSSGR,GSA,A,3,131,,,,,,,,,,,,3.6,1.8,3.2,3,7*76
2025-07-03 12:09:59,287 - [NMEA][UDP] $PSSGR,GSA,A,3,131,,,,,,,,,,,,3.6,1.8,3.2,3,7*76
2025-07-03 12:09:59,287 - [NMEA][UDP] $PSSGR,GSA,A,3,131,,,,,,,,,,,,3.6,1.8,3.2,3,7*76
2025-07-03 12:09:59,287 - [NMEA][UDP] $PSSGR,GSA,A,3,131,,,,,,,,,,,,3.6,1.8,3.2,3,7*76
2025-07-03 12:09:59,287 - [NMEA][UDP] $PSSGR,GSA,A,3,131,,,,,,,,,,,,3.6,1.8,3.2,3,7*76
2025-07-03 12:09:59,288 - [NMEA][UDP] $GNRMC,100959.000,A,4805.8103,N,00142.5152,W,0.0,,030725,,,A*4C
2025-07-03 12:09:59,288 - [NMEA][UDP] $GNRMC,100959.000,A,4805.8103,N,00142.5152,W,0.0,,030725,,,A*4C
2025-07-03 12:09:59,288 - [NMEA][UDP] $GNRMC,100959.000,A,4805.8103,N,00142.5152,W,0.0,,030725,,,A*4C
2025-07-03 12:09:59,288 - [NMEA][UDP] $GNRMC,100959.000,A,4805.8103,N,00142.5152,W,0.0,,030725,,,A*4C
2025-07-03 12:09:59,288 - [NMEA][UDP] $GNRMC,100959.000,A,4805.8103,N,00142.5152,W,0.0,,030725,,,A*4C
2025-07-03 12:09:59,289 - [NMEA][UDP] $GNRMC,100959.000,A,4805.8103,N,00142.5152,W,0.0,,030725,,,A*4C
2025-07-03 12:09:59,289 - [NMEA][UDP] $GNRMC,100959.000,A,4805.8103,N,00142.5152,W,0.0,,030725,,,A*4C
2025-07-03 12:09:59,289 - [NMEA][UDP] $GNRMC,100959.000,A,4805.8103,N,00142.5152,W,0.0,,030725,,,A*4C
2025-07-03 12:09:59,289 - [NMEA][UDP] $PSAMCLK,2373,38221700,11,20157,30502,382217000*7B
2025-07-03 12:09:59,289 - [NMEA][UDP] $PSAMCLK,2373,38221700,11,20157,30502,382217000*7B
2025-07-03 12:09:59,290 - [NMEA][UDP] $PSAMCLK,2373,38221700,11,20157,30502,382217000*7B
2025-07-03 12:09:59,290 - [NMEA][UDP] $PSAMCLK,2373,38221700,11,20157,30502,382217000*7B
2025-07-03 12:09:59,290 - [NMEA][UDP] $PSAMCLK,2373,38221700,11,20157,30502,382217000*7B
2025-07-03 12:09:59,290 - [NMEA][UDP] $PSAMCLK,2373,38221700,11,20157,30502,382217000*7B
2025-07-03 12:09:59,290 - [NMEA][UDP] $PSAMCLK,2373,38221700,11,20157,30502,382217000*7B
2025-07-03 12:09:59,291 - [NMEA][UDP] $PSAMCLK,2373,38221700,11,20157,30502,382217000*7B
2025-07-03 12:09:59,545 - [SERIAL] $GPRMC,083935,A,4805.8117,N,00142.52219,W,000.0,,030725,,,A*77
2025-07-03 12:09:59,552 - [SERIAL] $GPGGA,083935,4805.8117,N,00142.52219,W,1,00,,83.000,M,,M,,*63
2025-07-03 12:09:59,554 - [SERIAL] $HCHDG,132.9,,,000.8,E*28
2025-07-03 12:09:59,555 - [SERIAL] $HCHDT,133.7,T*2F
2025-07-03 12:09:59,555 - [SERIAL] $GPMDA,30.23,I,1.0237,B,,C,,C,,,,C,,T,,M,,N,,M*38
2025-07-03 12:09:59,556 - [SERIAL] $IIMMB,30.23,I,1.0237,B*7C
2025-07-03 12:10:00,175 - [NMEA][UDP] $PSAMAID,tPE*0E
2025-07-03 12:10:00,176 - [NMEA][UDP] $PSAMAID,tPE*0E
2025-07-03 12:10:00,176 - [NMEA][UDP] $PSAMAID,tPE*0E
2025-07-03 12:10:00,177 - [NMEA][UDP] $PSAMAID,tPE*0E
2025-07-03 12:10:00,177 - [NMEA][UDP] $PSAMAID,tPE*0E
2025-07-03 12:10:00,178 - [NMEA][UDP] $PSAMAID,tPE*0E
2025-07-03 12:10:00,179 - [NMEA][UDP] $PSAMAID,tPE*0E
2025-07-03 12:10:00,180 - [NMEA][UDP] $PSAMAID,tPE*0E
2025-07-03 12:10:00,180 - [NMEA][UDP] $GNGGA,101000.000,4805.8103,N,00142.5152,W,1,11,1.8,31.7,M,48.3,M,,*64
2025-07-03 12:10:00,181 - [NMEA][UDP] $GNGGA,101000.000,4805.8103,N,00142.5152,W,1,11,1.8,31.7,M,48.3,M,,*64
2025-07-03 12:10:00,182 - [NMEA][UDP] $GNGGA,101000.000,4805.8103,N,00142.5152,W,1,11,1.8,31.7,M,48.3,M,,*64
2025-07-03 12:10:00,183 - [NMEA][UDP] $GNGGA,101000.000,4805.8103,N,00142.5152,W,1,11,1.8,31.7,M,48.3,M,,*64
2025-07-03 12:10:00,183 - [NMEA][UDP] $GNGGA,101000.000,4805.8103,N,00142.5152,W,1,11,1.8,31.7,M,48.3,M,,*64
2025-07-03 12:10:00,184 - [NMEA][UDP] $GNGGA,101000.000,4805.8103,N,00142.5152,W,1,11,1.8,31.7,M,48.3,M,,*64
2025-07-03 12:10:00,184 - [NMEA][UDP] $GNGGA,101000.000,4805.8103,N,00142.5152,W,1,11,1.8,31.7,M,48.3,M,,*64
2025-07-03 12:10:00,185 - [NMEA][UDP] $GNGGA,101000.000,4805.8103,N,00142.5152,W,1,11,1.8,31.7,M,48.3,M,,*64
2025-07-03 12:10:00,185 - [NMEA][UDP] $PSAMSA,101000.000,4805.8103,N,00142.5152,W,1,M,,0*4D
2025-07-03 12:10:00,186 - [NMEA][UDP] $PSAMSA,101000.000,4805.8103,N,00142.5152,W,1,M,,0*4D
2025-07-03 12:10:00,187 - [NMEA][UDP] $PSAMSA,101000.000,4805.8103,N,00142.5152,W,1,M,,0*4D
2025-07-03 12:10:00,187 - [NMEA][UDP] $PSAMSA,101000.000,4805.8103,N,00142.5152,W,1,M,,0*4D
2025-07-03 12:10:00,188 - [NMEA][UDP] $PSAMSA,101000.000,4805.8103,N,00142.5152,W,1,M,,0*4D
2025-07-03 12:10:00,188 - [NMEA][UDP] $PSAMSA,101000.000,4805.8103,N,00142.5152,W,1,M,,0*4D
2025-07-03 12:10:00,188 - [NMEA][UDP] $PSAMSA,101000.000,4805.8103,N,00142.5152,W,1,M,,0*4D
2025-07-03 12:10:00,189 - [NMEA][UDP] $PSAMSA,101000.000,4805.8103,N,00142.5152,W,1,M,,0*4D
2025-07-03 12:10:00,189 - [NMEA][UDP] $GNGLL,4805.8103,N,00142.5152,W,101000.000,A,A*52
2025-07-03 12:10:00,189 - [NMEA][UDP] $GNGLL,4805.8103,N,00142.5152,W,101000.000,A,A*52
2025-07-03 12:10:00,190 - [NMEA][UDP] $GNGLL,4805.8103,N,00142.5152,W,101000.000,A,A*52
2025-07-03 12:10:00,190 - [NMEA][UDP] $GNGLL,4805.8103,N,00142.5152,W,101000.000,A,A*52
2025-07-03 12:10:00,191 - [NMEA][UDP] $GNGLL,4805.8103,N,00142.5152,W,101000.000,A,A*52
2025-07-03 12:10:00,192 - [NMEA][UDP] $GNGLL,4805.8103,N,00142.5152,W,101000.000,A,A*52
2025-07-03 12:10:00,193 - [NMEA][UDP] $GNGLL,4805.8103,N,00142.5152,W,101000.000,A,A*52
2025-07-03 12:10:00,193 - [NMEA][UDP] $GNGLL,4805.8103,N,00142.5152,W,101000.000,A,A*52
2025-07-03 12:10:00,194 - [NMEA][UDP] $GNVTG,305.1,T,,M,0.0,N,0.0,K,A*14
2025-07-03 12:10:00,194 - [NMEA][UDP] $GNVTG,305.1,T,,M,0.0,N,0.0,K,A*14
2025-07-03 12:10:00,194 - [NMEA][UDP] $GNVTG,305.1,T,,M,0.0,N,0.0,K,A*14
2025-07-03 12:10:00,195 - [NMEA][UDP] $GNVTG,305.1,T,,M,0.0,N,0.0,K,A*14
2025-07-03 12:10:00,196 - [NMEA][UDP] $GNVTG,305.1,T,,M,0.0,N,0.0,K,A*14
2025-07-03 12:10:00,197 - [NMEA][UDP] $GNVTG,305.1,T,,M,0.0,N,0.0,K,A*14
2025-07-03 12:10:00,197 - [NMEA][UDP] $GNVTG,305.1,T,,M,0.0,N,0.0,K,A*14
2025-07-03 12:10:00,198 - [NMEA][UDP] $GNVTG,305.1,T,,M,0.0,N,0.0,K,A*14
2025-07-03 12:10:00,204 - [NMEA][UDP] $PSSGR,GSA,A,3,01,02,03,27,,,,,,,,,3.6,1.8,3.2,1,1*44
2025-07-03 12:10:00,206 - [NMEA][UDP] $PSSGR,GSA,A,3,01,02,03,27,,,,,,,,,3.6,1.8,3.2,1,1*44
2025-07-03 12:10:00,207 - [NMEA][UDP] $PSSGR,GSA,A,3,01,02,03,27,,,,,,,,,3.6,1.8,3.2,1,1*44
2025-07-03 12:10:00,208 - [NMEA][UDP] $PSSGR,GSA,A,3,01,02,03,27,,,,,,,,,3.6,1.8,3.2,1,1*44
2025-07-03 12:10:00,208 - [NMEA][UDP] $PSSGR,GSA,A,3,01,02,03,27,,,,,,,,,3.6,1.8,3.2,1,1*44
2025-07-03 12:10:00,209 - [NMEA][UDP] $PSSGR,GSA,A,3,01,02,03,27,,,,,,,,,3.6,1.8,3.2,1,1*44
2025-07-03 12:10:00,210 - [NMEA][UDP] $PSSGR,GSA,A,3,01,02,03,27,,,,,,,,,3.6,1.8,3.2,1,1*44
2025-07-03 12:10:00,210 - [NMEA][UDP] $PSSGR,GSA,A,3,01,02,03,27,,,,,,,,,3.6,1.8,3.2,1,1*44
2025-07-03 12:10:00,210 - [NMEA][UDP] $PSSGR,GSA,A,3,01,03,08,27,,,,,,,,,3.6,1.8,3.2,1,8*47
2025-07-03 12:10:00,211 - [NMEA][UDP] $PSSGR,GSA,A,3,01,03,08,27,,,,,,,,,3.6,1.8,3.2,1,8*47
2025-07-03 12:10:00,211 - [NMEA][UDP] $PSSGR,GSA,A,3,01,03,08,27,,,,,,,,,3.6,1.8,3.2,1,8*47
2025-07-03 12:10:00,212 - [NMEA][UDP] $PSSGR,GSA,A,3,01,03,08,27,,,,,,,,,3.6,1.8,3.2,1,8*47
2025-07-03 12:10:00,212 - [NMEA][UDP] $PSSGR,GSA,A,3,01,03,08,27,,,,,,,,,3.6,1.8,3.2,1,8*47
2025-07-03 12:10:00,212 - [NMEA][UDP] $PSSGR,GSA,A,3,01,03,08,27,,,,,,,,,3.6,1.8,3.2,1,8*47
2025-07-03 12:10:00,213 - [NMEA][UDP] $PSSGR,GSA,A,3,01,03,08,27,,,,,,,,,3.6,1.8,3.2,1,8*47
2025-07-03 12:10:00,213 - [NMEA][UDP] $PSSGR,GSA,A,3,01,03,08,27,,,,,,,,,3.6,1.8,3.2,1,8*47
2025-07-03 12:10:00,214 - [NMEA][UDP] $PSSGR,GSA,A,3,68,83,,,,,,,,,,,3.6,1.8,3.2,2,1*47
2025-07-03 12:10:00,215 - [NMEA][UDP] $PSSGR,GSA,A,3,68,83,,,,,,,,,,,3.6,1.8,3.2,2,1*47
2025-07-03 12:10:00,216 - [NMEA][UDP] $PSSGR,GSA,A,3,68,83,,,,,,,,,,,3.6,1.8,3.2,2,1*47
2025-07-03 12:10:00,217 - [NMEA][UDP] $PSSGR,GSA,A,3,68,83,,,,,,,,,,,3.6,1.8,3.2,2,1*47
2025-07-03 12:10:00,217 - [NMEA][UDP] $PSSGR,GSA,A,3,68,83,,,,,,,,,,,3.6,1.8,3.2,2,1*47
2025-07-03 12:10:00,218 - [NMEA][UDP] $PSSGR,GSA,A,3,68,83,,,,,,,,,,,3.6,1.8,3.2,2,1*47
2025-07-03 12:10:00,219 - [NMEA][UDP] $PSSGR,GSA,A,3,68,83,,,,,,,,,,,3.6,1.8,3.2,2,1*47
2025-07-03 12:10:00,219 - [NMEA][UDP] $PSSGR,GSA,A,3,68,83,,,,,,,,,,,3.6,1.8,3.2,2,1*47
2025-07-03 12:10:00,219 - [NMEA][UDP] $PSSGR,GSA,A,3,131,,,,,,,,,,,,3.6,1.8,3.2,3,7*76
2025-07-03 12:10:00,220 - [NMEA][UDP] $PSSGR,GSA,A,3,131,,,,,,,,,,,,3.6,1.8,3.2,3,7*76
2025-07-03 12:10:00,220 - [NMEA][UDP] $PSSGR,GSA,A,3,131,,,,,,,,,,,,3.6,1.8,3.2,3,7*76
2025-07-03 12:10:00,220 - [NMEA][UDP] $PSSGR,GSA,A,3,131,,,,,,,,,,,,3.6,1.8,3.2,3,7*76
2025-07-03 12:10:00,221 - [NMEA][UDP] $PSSGR,GSA,A,3,131,,,,,,,,,,,,3.6,1.8,3.2,3,7*76
2025-07-03 12:10:00,221 - [NMEA][UDP] $PSSGR,GSA,A,3,131,,,,,,,,,,,,3.6,1.8,3.2,3,7*76
2025-07-03 12:10:00,221 - [NMEA][UDP] $PSSGR,GSA,A,3,131,,,,,,,,,,,,3.6,1.8,3.2,3,7*76
2025-07-03 12:10:00,221 - [NMEA][UDP] $PSSGR,GSA,A,3,131,,,,,,,,,,,,3.6,1.8,3.2,3,7*76
2025-07-03 12:10:00,222 - [NMEA][UDP] $GNRMC,101000.000,A,4805.8103,N,00142.5152,W,0.0,,030725,,,A*48
2025-07-03 12:10:00,222 - [NMEA][UDP] $GNRMC,101000.000,A,4805.8103,N,00142.5152,W,0.0,,030725,,,A*48
2025-07-03 12:10:00,222 - [NMEA][UDP] $GNRMC,101000.000,A,4805.8103,N,00142.5152,W,0.0,,030725,,,A*48
2025-07-03 12:10:00,222 - [NMEA][UDP] $GNRMC,101000.000,A,4805.8103,N,00142.5152,W,0.0,,030725,,,A*48
2025-07-03 12:10:00,223 - [NMEA][UDP] $GNRMC,101000.000,A,4805.8103,N,00142.5152,W,0.0,,030725,,,A*48
2025-07-03 12:10:00,223 - [NMEA][UDP] $GNRMC,101000.000,A,4805.8103,N,00142.5152,W,0.0,,030725,,,A*48
2025-07-03 12:10:00,223 - [NMEA][UDP] $GNRMC,101000.000,A,4805.8103,N,00142.5152,W,0.0,,030725,,,A*48
2025-07-03 12:10:00,224 - [NMEA][UDP] $GNRMC,101000.000,A,4805.8103,N,00142.5152,W,0.0,,030725,,,A*48
2025-07-03 12:10:00,224 - [NMEA][UDP] $PSAMCLK,2373,38221800,11,20045,30629,382218000*73
2025-07-03 12:10:00,224 - [NMEA][UDP] $PSAMCLK,2373,38221800,11,20045,30629,382218000*73
2025-07-03 12:10:00,225 - [NMEA][UDP] $PSAMCLK,2373,38221800,11,20045,30629,382218000*73
2025-07-03 12:10:00,225 - [NMEA][UDP] $PSAMCLK,2373,38221800,11,20045,30629,382218000*73
2025-07-03 12:10:00,225 - [NMEA][UDP] $PSAMCLK,2373,38221800,11,20045,30629,382218000*73
2025-07-03 12:10:00,225 - [NMEA][UDP] $PSAMCLK,2373,38221800,11,20045,30629,382218000*73
2025-07-03 12:10:00,226 - [NMEA][UDP] $PSAMCLK,2373,38221800,11,20045,30629,382218000*73
2025-07-03 12:10:00,226 - [NMEA][UDP] $PSAMCLK,2373,38221800,11,20045,30629,382218000*73
2025-07-03 12:10:00,553 - [SERIAL] $GPRMC,083935,A,4805.8117,N,00142.52219,W,000.0,,030725,,,A*77
2025-07-03 12:10:00,564 - [SERIAL] $GPGGA,083935,4805.8117,N,00142.52219,W,1,00,,83.000,M,,M,,*63
2025-07-03 12:10:00,570 - [SERIAL] $HCHDG,132.9,,,000.8,E*28
2025-07-03 12:10:00,572 - [SERIAL] $HCHDT,133.7,T*2F
2025-07-03 12:10:00,575 - [SERIAL] $GPMDA,30.23,I,1.0237,B,,C,,C,,,,C,,T,,M,,N,,M*38
2025-07-03 12:10:00,577 - [SERIAL] $IIMMB,30.23,I,1.0237,B*7C
2025-07-03 12:10:01,096 - [NMEA][UDP] $PSAMAID,tPE*0E
2025-07-03 12:10:01,097 - [NMEA][UDP] $PSAMAID,tPE*0E
2025-07-03 12:10:01,097 - [NMEA][UDP] $PSAMAID,tPE*0E
2025-07-03 12:10:01,098 - [NMEA][UDP] $PSAMAID,tPE*0E
2025-07-03 12:10:01,099 - [NMEA][UDP] $PSAMAID,tPE*0E
2025-07-03 12:10:01,099 - [NMEA][UDP] $PSAMAID,tPE*0E
2025-07-03 12:10:01,100 - [NMEA][UDP] $PSAMAID,tPE*0E
2025-07-03 12:10:01,100 - [NMEA][UDP] $PSAMAID,tPE*0E
2025-07-03 12:10:01,101 - [NMEA][UDP] $GNGGA,101001.000,4805.8103,N,00142.5152,W,1,12,1.6,31.7,M,48.3,M,,*68
2025-07-03 12:10:01,102 - [NMEA][UDP] $GNGGA,101001.000,4805.8103,N,00142.5152,W,1,12,1.6,31.7,M,48.3,M,,*68
2025-07-03 12:10:01,102 - [NMEA][UDP] $GNGGA,101001.000,4805.8103,N,00142.5152,W,1,12,1.6,31.7,M,48.3,M,,*68
2025-07-03 12:10:01,103 - [NMEA][UDP] $GNGGA,101001.000,4805.8103,N,00142.5152,W,1,12,1.6,31.7,M,48.3,M,,*68
2025-07-03 12:10:01,103 - [NMEA][UDP] $GNGGA,101001.000,4805.8103,N,00142.5152,W,1,12,1.6,31.7,M,48.3,M,,*68
2025-07-03 12:10:01,104 - [NMEA][UDP] $GNGGA,101001.000,4805.8103,N,00142.5152,W,1,12,1.6,31.7,M,48.3,M,,*68
2025-07-03 12:10:01,104 - [NMEA][UDP] $GNGGA,101001.000,4805.8103,N,00142.5152,W,1,12,1.6,31.7,M,48.3,M,,*68
2025-07-03 12:10:01,104 - [NMEA][UDP] $GNGGA,101001.000,4805.8103,N,00142.5152,W,1,12,1.6,31.7,M,48.3,M,,*68
2025-07-03 12:10:01,105 - [NMEA][UDP] $PSAMSA,101001.000,4805.8103,N,00142.5152,W,1,M,,0*4C
2025-07-03 12:10:01,105 - [NMEA][UDP] $PSAMSA,101001.000,4805.8103,N,00142.5152,W,1,M,,0*4C
2025-07-03 12:10:01,105 - [NMEA][UDP] $PSAMSA,101001.000,4805.8103,N,00142.5152,W,1,M,,0*4C
2025-07-03 12:10:01,106 - [NMEA][UDP] $PSAMSA,101001.000,4805.8103,N,00142.5152,W,1,M,,0*4C
2025-07-03 12:10:01,106 - [NMEA][UDP] $PSAMSA,101001.000,4805.8103,N,00142.5152,W,1,M,,0*4C
2025-07-03 12:10:01,107 - [NMEA][UDP] $PSAMSA,101001.000,4805.8103,N,00142.5152,W,1,M,,0*4C
2025-07-03 12:10:01,107 - [NMEA][UDP] $PSAMSA,101001.000,4805.8103,N,00142.5152,W,1,M,,0*4C
2025-07-03 12:10:01,108 - [NMEA][UDP] $PSAMSA,101001.000,4805.8103,N,00142.5152,W,1,M,,0*4C
2025-07-03 12:10:01,109 - [NMEA][UDP] $GNGLL,4805.8103,N,00142.5152,W,101001.000,A,A*53
2025-07-03 12:10:01,109 - [NMEA][UDP] $GNGLL,4805.8103,N,00142.5152,W,101001.000,A,A*53
2025-07-03 12:10:01,109 - [NMEA][UDP] $GNGLL,4805.8103,N,00142.5152,W,101001.000,A,A*53
2025-07-03 12:10:01,110 - [NMEA][UDP] $GNGLL,4805.8103,N,00142.5152,W,101001.000,A,A*53
2025-07-03 12:10:01,110 - [NMEA][UDP] $GNGLL,4805.8103,N,00142.5152,W,101001.000,A,A*53
2025-07-03 12:10:01,111 - [NMEA][UDP] $GNGLL,4805.8103,N,00142.5152,W,101001.000,A,A*53
2025-07-03 12:10:01,111 - [NMEA][UDP] $GNGLL,4805.8103,N,00142.5152,W,101001.000,A,A*53
2025-07-03 12:10:01,111 - [NMEA][UDP] $GNGLL,4805.8103,N,00142.5152,W,101001.000,A,A*53
2025-07-03 12:10:01,114 - [NMEA][UDP] $GNVTG,305.1,T,,M,0.0,N,0.0,K,A*14
2025-07-03 12:10:01,115 - [NMEA][UDP] $GNVTG,305.1,T,,M,0.0,N,0.0,K,A*14
2025-07-03 12:10:01,116 - [NMEA][UDP] $GNVTG,305.1,T,,M,0.0,N,0.0,K,A*14
2025-07-03 12:10:01,116 - [NMEA][UDP] $GNVTG,305.1,T,,M,0.0,N,0.0,K,A*14
2025-07-03 12:10:01,117 - [NMEA][UDP] $GNVTG,305.1,T,,M,0.0,N,0.0,K,A*14
2025-07-03 12:10:01,117 - [NMEA][UDP] $GNVTG,305.1,T,,M,0.0,N,0.0,K,A*14
2025-07-03 12:10:01,118 - [NMEA][UDP] $GNVTG,305.1,T,,M,0.0,N,0.0,K,A*14
2025-07-03 12:10:01,118 - [NMEA][UDP] $GNVTG,305.1,T,,M,0.0,N,0.0,K,A*14
2025-07-03 12:10:01,125 - [NMEA][UDP] $PSSGR,GSA,A,3,01,02,03,27,,,,,,,,,3.6,1.6,3.2,1,1*4A
2025-07-03 12:10:01,126 - [NMEA][UDP] $PSSGR,GSA,A,3,01,02,03,27,,,,,,,,,3.6,1.6,3.2,1,1*4A
2025-07-03 12:10:01,126 - [NMEA][UDP] $PSSGR,GSA,A,3,01,02,03,27,,,,,,,,,3.6,1.6,3.2,1,1*4A
2025-07-03 12:10:01,127 - [NMEA][UDP] $PSSGR,GSA,A,3,01,02,03,27,,,,,,,,,3.6,1.6,3.2,1,1*4A
2025-07-03 12:10:01,127 - [NMEA][UDP] $PSSGR,GSA,A,3,01,02,03,27,,,,,,,,,3.6,1.6,3.2,1,1*4A
2025-07-03 12:10:01,127 - [NMEA][UDP] $PSSGR,GSA,A,3,01,02,03,27,,,,,,,,,3.6,1.6,3.2,1,1*4A
2025-07-03 12:10:01,128 - [NMEA][UDP] $PSSGR,GSA,A,3,01,02,03,27,,,,,,,,,3.6,1.6,3.2,1,1*4A
2025-07-03 12:10:01,129 - [NMEA][UDP] $PSSGR,GSA,A,3,01,02,03,27,,,,,,,,,3.6,1.6,3.2,1,1*4A
2025-07-03 12:10:01,129 - [NMEA][UDP] $PSSGR,GSA,A,3,01,03,08,27,,,,,,,,,3.6,1.6,3.2,1,8*49
2025-07-03 12:10:01,131 - [NMEA][UDP] $PSSGR,GSA,A,3,01,03,08,27,,,,,,,,,3.6,1.6,3.2,1,8*49
2025-07-03 12:10:01,132 - [NMEA][UDP] $PSSGR,GSA,A,3,01,03,08,27,,,,,,,,,3.6,1.6,3.2,1,8*49
2025-07-03 12:10:01,132 - [NMEA][UDP] $PSSGR,GSA,A,3,01,03,08,27,,,,,,,,,3.6,1.6,3.2,1,8*49
2025-07-03 12:10:01,133 - [NMEA][UDP] $PSSGR,GSA,A,3,01,03,08,27,,,,,,,,,3.6,1.6,3.2,1,8*49
2025-07-03 12:10:01,134 - [NMEA][UDP] $PSSGR,GSA,A,3,01,03,08,27,,,,,,,,,3.6,1.6,3.2,1,8*49
2025-07-03 12:10:01,134 - [NMEA][UDP] $PSSGR,GSA,A,3,01,03,08,27,,,,,,,,,3.6,1.6,3.2,1,8*49
2025-07-03 12:10:01,135 - [NMEA][UDP] $PSSGR,GSA,A,3,01,03,08,27,,,,,,,,,3.6,1.6,3.2,1,8*49
2025-07-03 12:10:01,135 - [NMEA][UDP] $PSSGR,GSA,A,3,68,83,,,,,,,,,,,3.6,1.6,3.2,2,1*49
2025-07-03 12:10:01,136 - [NMEA][UDP] $PSSGR,GSA,A,3,68,83,,,,,,,,,,,3.6,1.6,3.2,2,1*49
2025-07-03 12:10:01,136 - [NMEA][UDP] $PSSGR,GSA,A,3,68,83,,,,,,,,,,,3.6,1.6,3.2,2,1*49
2025-07-03 12:10:01,137 - [NMEA][UDP] $PSSGR,GSA,A,3,68,83,,,,,,,,,,,3.6,1.6,3.2,2,1*49
2025-07-03 12:10:01,137 - [NMEA][UDP] $PSSGR,GSA,A,3,68,83,,,,,,,,,,,3.6,1.6,3.2,2,1*49
2025-07-03 12:10:01,137 - [NMEA][UDP] $PSSGR,GSA,A,3,68,83,,,,,,,,,,,3.6,1.6,3.2,2,1*49
2025-07-03 12:10:01,138 - [NMEA][UDP] $PSSGR,GSA,A,3,68,83,,,,,,,,,,,3.6,1.6,3.2,2,1*49
2025-07-03 12:10:01,138 - [NMEA][UDP] $PSSGR,GSA,A,3,68,83,,,,,,,,,,,3.6,1.6,3.2,2,1*49
2025-07-03 12:10:01,139 - [NMEA][UDP] $PSSGR,GSA,A,3,131,,,,,,,,,,,,3.6,1.6,3.2,3,7*78
2025-07-03 12:10:01,139 - [NMEA][UDP] $PSSGR,GSA,A,3,131,,,,,,,,,,,,3.6,1.6,3.2,3,7*78
2025-07-03 12:10:01,140 - [NMEA][UDP] $PSSGR,GSA,A,3,131,,,,,,,,,,,,3.6,1.6,3.2,3,7*78
2025-07-03 12:10:01,141 - [NMEA][UDP] $PSSGR,GSA,A,3,131,,,,,,,,,,,,3.6,1.6,3.2,3,7*78
2025-07-03 12:10:01,141 - [NMEA][UDP] $PSSGR,GSA,A,3,131,,,,,,,,,,,,3.6,1.6,3.2,3,7*78
2025-07-03 12:10:01,142 - [NMEA][UDP] $PSSGR,GSA,A,3,131,,,,,,,,,,,,3.6,1.6,3.2,3,7*78
2025-07-03 12:10:01,142 - [NMEA][UDP] $PSSGR,GSA,A,3,131,,,,,,,,,,,,3.6,1.6,3.2,3,7*78
2025-07-03 12:10:01,142 - [NMEA][UDP] $PSSGR,GSA,A,3,131,,,,,,,,,,,,3.6,1.6,3.2,3,7*78
2025-07-03 12:10:01,142 - [NMEA][UDP] $PSSGR,GSA,A,3,131,,,,,,,,,,,,3.6,1.6,3.2,3,1*7E
2025-07-03 12:10:01,143 - [NMEA][UDP] $PSSGR,GSA,A,3,131,,,,,,,,,,,,3.6,1.6,3.2,3,1*7E
2025-07-03 12:10:01,143 - [NMEA][UDP] $PSSGR,GSA,A,3,131,,,,,,,,,,,,3.6,1.6,3.2,3,1*7E
2025-07-03 12:10:01,143 - [NMEA][UDP] $PSSGR,GSA,A,3,131,,,,,,,,,,,,3.6,1.6,3.2,3,1*7E
2025-07-03 12:10:01,144 - [NMEA][UDP] $PSSGR,GSA,A,3,131,,,,,,,,,,,,3.6,1.6,3.2,3,1*7E
2025-07-03 12:10:01,144 - [NMEA][UDP] $PSSGR,GSA,A,3,131,,,,,,,,,,,,3.6,1.6,3.2,3,1*7E
2025-07-03 12:10:01,144 - [NMEA][UDP] $PSSGR,GSA,A,3,131,,,,,,,,,,,,3.6,1.6,3.2,3,1*7E
2025-07-03 12:10:01,144 - [NMEA][UDP] $PSSGR,GSA,A,3,131,,,,,,,,,,,,3.6,1.6,3.2,3,1*7E
2025-07-03 12:10:01,145 - [NMEA][UDP] $GNRMC,101001.000,A,4805.8103,N,00142.5152,W,0.0,,030725,,,A*49
2025-07-03 12:10:01,145 - [NMEA][UDP] $GNRMC,101001.000,A,4805.8103,N,00142.5152,W,0.0,,030725,,,A*49
2025-07-03 12:10:01,145 - [NMEA][UDP] $GNRMC,101001.000,A,4805.8103,N,00142.5152,W,0.0,,030725,,,A*49
2025-07-03 12:10:01,146 - [NMEA][UDP] $GNRMC,101001.000,A,4805.8103,N,00142.5152,W,0.0,,030725,,,A*49
2025-07-03 12:10:01,146 - [NMEA][UDP] $GNRMC,101001.000,A,4805.8103,N,00142.5152,W,0.0,,030725,,,A*49
2025-07-03 12:10:01,146 - [NMEA][UDP] $GNRMC,101001.000,A,4805.8103,N,00142.5152,W,0.0,,030725,,,A*49
2025-07-03 12:10:01,147 - [NMEA][UDP] $GNRMC,101001.000,A,4805.8103,N,00142.5152,W,0.0,,030725,,,A*49
2025-07-03 12:10:01,147 - [NMEA][UDP] $GNRMC,101001.000,A,4805.8103,N,00142.5152,W,0.0,,030725,,,A*49
2025-07-03 12:10:01,147 - [NMEA][UDP] $PSAMCLK,2373,38221900,12,19924,30756,382219000*7D
2025-07-03 12:10:01,147 - [NMEA][UDP] $PSAMCLK,2373,38221900,12,19924,30756,382219000*7D
2025-07-03 12:10:01,147 - [NMEA][UDP] $PSAMCLK,2373,38221900,12,19924,30756,382219000*7D
2025-07-03 12:10:01,147 - [NMEA][UDP] $PSAMCLK,2373,38221900,12,19924,30756,382219000*7D
2025-07-03 12:10:01,148 - [NMEA][UDP] $PSAMCLK,2373,38221900,12,19924,30756,382219000*7D
2025-07-03 12:10:01,148 - [NMEA][UDP] $PSAMCLK,2373,38221900,12,19924,30756,382219000*7D
2025-07-03 12:10:01,148 - [NMEA][UDP] $PSAMCLK,2373,38221900,12,19924,30756,382219000*7D
2025-07-03 12:10:01,148 - [NMEA][UDP] $PSAMCLK,2373,38221900,12,19924,30756,382219000*7D
2025-07-03 12:10:01,562 - [SERIAL] $GPRMC,083935,A,4805.8117,N,00142.52219,W,000.0,,030725,,,A*77
2025-07-03 12:10:01,568 - [SERIAL] $GPGGA,083935,4805.8117,N,00142.52219,W,1,00,,83.000,M,,M,,*63
2025-07-03 12:10:01,573 - [SERIAL] $HCHDG,132.9,,,000.8,E*28
2025-07-03 12:10:01,576 - [SERIAL] $HCHDT,133.7,T*2F
2025-07-03 12:10:01,578 - [SERIAL] $GPMDA,30.229,I,1.0237,B,,C,,C,,,,C,,T,,M,,N,,M*00
2025-07-03 12:10:01,580 - [SERIAL] $IIMMB,30.229,I,1.0237,B*44
2025-07-03 12:10:02,121 - [NMEA][UDP] $PSAMAID,tPE*0E
2025-07-03 12:10:02,122 - [NMEA][UDP] $PSAMAID,tPE*0E
2025-07-03 12:10:02,122 - [NMEA][UDP] $PSAMAID,tPE*0E
2025-07-03 12:10:02,123 - [NMEA][UDP] $PSAMAID,tPE*0E
2025-07-03 12:10:02,124 - [NMEA][UDP] $PSAMAID,tPE*0E
2025-07-03 12:10:02,125 - [NMEA][UDP] $PSAMAID,tPE*0E
2025-07-03 12:10:02,126 - [NMEA][UDP] $PSAMAID,tPE*0E
2025-07-03 12:10:02,127 - [NMEA][UDP] $PSAMAID,tPE*0E
2025-07-03 12:10:02,128 - [NMEA][UDP] $GNGGA,101002.000,4805.8103,N,00142.5152,W,1,12,1.6,31.7,M,48.3,M,,*6B
2025-07-03 12:10:02,129 - [NMEA][UDP] $GNGGA,101002.000,4805.8103,N,00142.5152,W,1,12,1.6,31.7,M,48.3,M,,*6B
2025-07-03 12:10:02,131 - [NMEA][UDP] $GNGGA,101002.000,4805.8103,N,00142.5152,W,1,12,1.6,31.7,M,48.3,M,,*6B
2025-07-03 12:10:02,132 - [NMEA][UDP] $GNGGA,101002.000,4805.8103,N,00142.5152,W,1,12,1.6,31.7,M,48.3,M,,*6B
2025-07-03 12:10:02,132 - [NMEA][UDP] $GNGGA,101002.000,4805.8103,N,00142.5152,W,1,12,1.6,31.7,M,48.3,M,,*6B
2025-07-03 12:10:02,133 - [NMEA][UDP] $GNGGA,101002.000,4805.8103,N,00142.5152,W,1,12,1.6,31.7,M,48.3,M,,*6B
2025-07-03 12:10:02,133 - [NMEA][UDP] $GNGGA,101002.000,4805.8103,N,00142.5152,W,1,12,1.6,31.7,M,48.3,M,,*6B
2025-07-03 12:10:02,133 - [NMEA][UDP] $GNGGA,101002.000,4805.8103,N,00142.5152,W,1,12,1.6,31.7,M,48.3,M,,*6B
2025-07-03 12:10:02,133 - [NMEA][UDP] $PSAMSA,101002.000,4805.8103,N,00142.5152,W,1,M,,0*4F
2025-07-03 12:10:02,133 - [NMEA][UDP] $PSAMSA,101002.000,4805.8103,N,00142.5152,W,1,M,,0*4F
2025-07-03 12:10:02,134 - [NMEA][UDP] $PSAMSA,101002.000,4805.8103,N,00142.5152,W,1,M,,0*4F
2025-07-03 12:10:02,134 - [NMEA][UDP] $PSAMSA,101002.000,4805.8103,N,00142.5152,W,1,M,,0*4F
2025-07-03 12:10:02,134 - [NMEA][UDP] $PSAMSA,101002.000,4805.8103,N,00142.5152,W,1,M,,0*4F
2025-07-03 12:10:02,134 - [NMEA][UDP] $PSAMSA,101002.000,4805.8103,N,00142.5152,W,1,M,,0*4F
2025-07-03 12:10:02,134 - [NMEA][UDP] $PSAMSA,101002.000,4805.8103,N,00142.5152,W,1,M,,0*4F
2025-07-03 12:10:02,134 - [NMEA][UDP] $PSAMSA,101002.000,4805.8103,N,00142.5152,W,1,M,,0*4F
2025-07-03 12:10:02,135 - [NMEA][UDP] $GNGLL,4805.8103,N,00142.5152,W,101002.000,A,A*50
2025-07-03 12:10:02,135 - [NMEA][UDP] $GNGLL,4805.8103,N,00142.5152,W,101002.000,A,A*50
2025-07-03 12:10:02,135 - [NMEA][UDP] $GNGLL,4805.8103,N,00142.5152,W,101002.000,A,A*50
2025-07-03 12:10:02,135 - [NMEA][UDP] $GNGLL,4805.8103,N,00142.5152,W,101002.000,A,A*50
2025-07-03 12:10:02,135 - [NMEA][UDP] $GNGLL,4805.8103,N,00142.5152,W,101002.000,A,A*50
2025-07-03 12:10:02,135 - [NMEA][UDP] $GNGLL,4805.8103,N,00142.5152,W,101002.000,A,A*50
2025-07-03 12:10:02,135 - [NMEA][UDP] $GNGLL,4805.8103,N,00142.5152,W,101002.000,A,A*50
2025-07-03 12:10:02,136 - [NMEA][UDP] $GNGLL,4805.8103,N,00142.5152,W,101002.000,A,A*50
2025-07-03 12:10:02,136 - [NMEA][UDP] $GNVTG,305.1,T,,M,0.0,N,0.0,K,A*14
2025-07-03 12:10:02,136 - [NMEA][UDP] $GNVTG,305.1,T,,M,0.0,N,0.0,K,A*14
2025-07-03 12:10:02,136 - [NMEA][UDP] $GNVTG,305.1,T,,M,0.0,N,0.0,K,A*14
2025-07-03 12:10:02,136 - [NMEA][UDP] $GNVTG,305.1,T,,M,0.0,N,0.0,K,A*14
2025-07-03 12:10:02,136 - [NMEA][UDP] $GNVTG,305.1,T,,M,0.0,N,0.0,K,A*14
2025-07-03 12:10:02,136 - [NMEA][UDP] $GNVTG,305.1,T,,M,0.0,N,0.0,K,A*14
2025-07-03 12:10:02,136 - [NMEA][UDP] $GNVTG,305.1,T,,M,0.0,N,0.0,K,A*14
2025-07-03 12:10:02,136 - [NMEA][UDP] $GNVTG,305.1,T,,M,0.0,N,0.0,K,A*14
2025-07-03 12:10:02,138 - [NMEA][UDP] $PSSGR,GSA,A,3,01,02,03,27,,,,,,,,,3.6,1.6,3.2,1,1*4A
2025-07-03 12:10:02,138 - [NMEA][UDP] $PSSGR,GSA,A,3,01,02,03,27,,,,,,,,,3.6,1.6,3.2,1,1*4A
2025-07-03 12:10:02,138 - [NMEA][UDP] $PSSGR,GSA,A,3,01,02,03,27,,,,,,,,,3.6,1.6,3.2,1,1*4A
2025-07-03 12:10:02,139 - [NMEA][UDP] $PSSGR,GSA,A,3,01,02,03,27,,,,,,,,,3.6,1.6,3.2,1,1*4A
2025-07-03 12:10:02,139 - [NMEA][UDP] $PSSGR,GSA,A,3,01,02,03,27,,,,,,,,,3.6,1.6,3.2,1,1*4A
2025-07-03 12:10:02,139 - [NMEA][UDP] $PSSGR,GSA,A,3,01,02,03,27,,,,,,,,,3.6,1.6,3.2,1,1*4A
2025-07-03 12:10:02,139 - [NMEA][UDP] $PSSGR,GSA,A,3,01,02,03,27,,,,,,,,,3.6,1.6,3.2,1,1*4A
2025-07-03 12:10:02,139 - [NMEA][UDP] $PSSGR,GSA,A,3,01,02,03,27,,,,,,,,,3.6,1.6,3.2,1,1*4A
2025-07-03 12:10:02,139 - [NMEA][UDP] $PSSGR,GSA,A,3,01,03,08,27,,,,,,,,,3.6,1.6,3.2,1,8*49
2025-07-03 12:10:02,139 - [NMEA][UDP] $PSSGR,GSA,A,3,01,03,08,27,,,,,,,,,3.6,1.6,3.2,1,8*49
2025-07-03 12:10:02,140 - [NMEA][UDP] $PSSGR,GSA,A,3,01,03,08,27,,,,,,,,,3.6,1.6,3.2,1,8*49
2025-07-03 12:10:02,140 - [NMEA][UDP] $PSSGR,GSA,A,3,01,03,08,27,,,,,,,,,3.6,1.6,3.2,1,8*49
2025-07-03 12:10:02,140 - [NMEA][UDP] $PSSGR,GSA,A,3,01,03,08,27,,,,,,,,,3.6,1.6,3.2,1,8*49
2025-07-03 12:10:02,140 - [NMEA][UDP] $PSSGR,GSA,A,3,01,03,08,27,,,,,,,,,3.6,1.6,3.2,1,8*49
2025-07-03 12:10:02,140 - [NMEA][UDP] $PSSGR,GSA,A,3,01,03,08,27,,,,,,,,,3.6,1.6,3.2,1,8*49
2025-07-03 12:10:02,140 - [NMEA][UDP] $PSSGR,GSA,A,3,01,03,08,27,,,,,,,,,3.6,1.6,3.2,1,8*49
2025-07-03 12:10:02,140 - [NMEA][UDP] $PSSGR,GSA,A,3,68,83,,,,,,,,,,,3.6,1.6,3.2,2,1*49
2025-07-03 12:10:02,140 - [NMEA][UDP] $PSSGR,GSA,A,3,68,83,,,,,,,,,,,3.6,1.6,3.2,2,1*49
2025-07-03 12:10:02,141 - [NMEA][UDP] $PSSGR,GSA,A,3,68,83,,,,,,,,,,,3.6,1.6,3.2,2,1*49
2025-07-03 12:10:02,141 - [NMEA][UDP] $PSSGR,GSA,A,3,68,83,,,,,,,,,,,3.6,1.6,3.2,2,1*49
2025-07-03 12:10:02,141 - [NMEA][UDP] $PSSGR,GSA,A,3,68,83,,,,,,,,,,,3.6,1.6,3.2,2,1*49
2025-07-03 12:10:02,141 - [NMEA][UDP] $PSSGR,GSA,A,3,68,83,,,,,,,,,,,3.6,1.6,3.2,2,1*49
2025-07-03 12:10:02,141 - [NMEA][UDP] $PSSGR,GSA,A,3,68,83,,,,,,,,,,,3.6,1.6,3.2,2,1*49
2025-07-03 12:10:02,141 - [NMEA][UDP] $PSSGR,GSA,A,3,68,83,,,,,,,,,,,3.6,1.6,3.2,2,1*49
2025-07-03 12:10:02,141 - [NMEA][UDP] $PSSGR,GSA,A,3,131,,,,,,,,,,,,3.6,1.6,3.2,3,7*78
2025-07-03 12:10:02,141 - [NMEA][UDP] $PSSGR,GSA,A,3,131,,,,,,,,,,,,3.6,1.6,3.2,3,7*78
2025-07-03 12:10:02,141 - [NMEA][UDP] $PSSGR,GSA,A,3,131,,,,,,,,,,,,3.6,1.6,3.2,3,7*78
2025-07-03 12:10:02,142 - [NMEA][UDP] $PSSGR,GSA,A,3,131,,,,,,,,,,,,3.6,1.6,3.2,3,7*78
2025-07-03 12:10:02,142 - [NMEA][UDP] $PSSGR,GSA,A,3,131,,,,,,,,,,,,3.6,1.6,3.2,3,7*78
2025-07-03 12:10:02,142 - [NMEA][UDP] $PSSGR,GSA,A,3,131,,,,,,,,,,,,3.6,1.6,3.2,3,7*78
2025-07-03 12:10:02,142 - [NMEA][UDP] $PSSGR,GSA,A,3,131,,,,,,,,,,,,3.6,1.6,3.2,3,7*78
2025-07-03 12:10:02,142 - [NMEA][UDP] $PSSGR,GSA,A,3,131,,,,,,,,,,,,3.6,1.6,3.2,3,7*78
2025-07-03 12:10:02,142 - [NMEA][UDP] $PSSGR,GSA,A,3,131,,,,,,,,,,,,3.6,1.6,3.2,3,1*7E
2025-07-03 12:10:02,142 - [NMEA][UDP] $PSSGR,GSA,A,3,131,,,,,,,,,,,,3.6,1.6,3.2,3,1*7E
2025-07-03 12:10:02,142 - [NMEA][UDP] $PSSGR,GSA,A,3,131,,,,,,,,,,,,3.6,1.6,3.2,3,1*7E
2025-07-03 12:10:02,143 - [NMEA][UDP] $PSSGR,GSA,A,3,131,,,,,,,,,,,,3.6,1.6,3.2,3,1*7E
2025-07-03 12:10:02,143 - [NMEA][UDP] $PSSGR,GSA,A,3,131,,,,,,,,,,,,3.6,1.6,3.2,3,1*7E
2025-07-03 12:10:02,143 - [NMEA][UDP] $PSSGR,GSA,A,3,131,,,,,,,,,,,,3.6,1.6,3.2,3,1*7E
2025-07-03 12:10:02,143 - [NMEA][UDP] $PSSGR,GSA,A,3,131,,,,,,,,,,,,3.6,1.6,3.2,3,1*7E
2025-07-03 12:10:02,143 - [NMEA][UDP] $PSSGR,GSA,A,3,131,,,,,,,,,,,,3.6,1.6,3.2,3,1*7E
2025-07-03 12:10:02,144 - [NMEA][UDP] $GNRMC,101002.000,A,4805.8103,N,00142.5152,W,0.0,,030725,,,A*4A
2025-07-03 12:10:02,144 - [NMEA][UDP] $GNRMC,101002.000,A,4805.8103,N,00142.5152,W,0.0,,030725,,,A*4A
2025-07-03 12:10:02,144 - [NMEA][UDP] $GNRMC,101002.000,A,4805.8103,N,00142.5152,W,0.0,,030725,,,A*4A
2025-07-03 12:10:02,144 - [NMEA][UDP] $GNRMC,101002.000,A,4805.8103,N,00142.5152,W,0.0,,030725,,,A*4A
2025-07-03 12:10:02,144 - [NMEA][UDP] $GNRMC,101002.000,A,4805.8103,N,00142.5152,W,0.0,,030725,,,A*4A
2025-07-03 12:10:02,145 - [NMEA][UDP] $GNRMC,101002.000,A,4805.8103,N,00142.5152,W,0.0,,030725,,,A*4A
2025-07-03 12:10:02,145 - [NMEA][UDP] $GNRMC,101002.000,A,4805.8103,N,00142.5152,W,0.0,,030725,,,A*4A
2025-07-03 12:10:02,145 - [NMEA][UDP] $GNRMC,101002.000,A,4805.8103,N,00142.5152,W,0.0,,030725,,,A*4A
2025-07-03 12:10:02,145 - [NMEA][UDP] $PSAMCLK,2373,38222000,12,19771,30882,382220000*75
2025-07-03 12:10:02,145 - [NMEA][UDP] $PSAMCLK,2373,38222000,12,19771,30882,382220000*75
2025-07-03 12:10:02,145 - [NMEA][UDP] $PSAMCLK,2373,38222000,12,19771,30882,382220000*75
2025-07-03 12:10:02,146 - [NMEA][UDP] $PSAMCLK,2373,38222000,12,19771,30882,382220000*75
2025-07-03 12:10:02,146 - [NMEA][UDP] $PSAMCLK,2373,38222000,12,19771,30882,382220000*75
2025-07-03 12:10:02,146 - [NMEA][UDP] $PSAMCLK,2373,38222000,12,19771,30882,382220000*75
2025-07-03 12:10:02,146 - [NMEA][UDP] $PSAMCLK,2373,38222000,12,19771,30882,382220000*75
2025-07-03 12:10:02,146 - [NMEA][UDP] $PSAMCLK,2373,38222000,12,19771,30882,382220000*75
2025-07-03 12:10:02,570 - [SERIAL] $GPRMC,083935,A,4805.8117,N,00142.52219,W,000.0,,030725,,,A*77
2025-07-03 12:10:02,579 - [SERIAL] $GPGGA,083935,4805.8117,N,00142.52219,W,1,00,,83.000,M,,M,,*63
2025-07-03 12:10:02,585 - [SERIAL] $HCHDG,132.9,,,000.8,E*28
2025-07-03 12:10:02,587 - [SERIAL] $HCHDT,133.7,T*2F
2025-07-03 12:10:02,591 - [SERIAL] $GPMDA,30.229,I,1.0237,B,,C,,C,,,,C,,T,,M,,N,,M*00
2025-07-03 12:10:02,593 - [SERIAL] $IIMMB,30.229,I,1.0237,B*44
2025-07-03 12:10:03,248 - [NMEA][UDP] $PSAMAID,tPE*0E
2025-07-03 12:10:03,249 - [NMEA][UDP] $PSAMAID,tPE*0E
2025-07-03 12:10:03,250 - [NMEA][UDP] $PSAMAID,tPE*0E
2025-07-03 12:10:03,251 - [NMEA][UDP] $PSAMAID,tPE*0E
2025-07-03 12:10:03,251 - [NMEA][UDP] $PSAMAID,tPE*0E
2025-07-03 12:10:03,252 - [NMEA][UDP] $PSAMAID,tPE*0E
2025-07-03 12:10:03,252 - [NMEA][UDP] $PSAMAID,tPE*0E
2025-07-03 12:10:03,253 - [NMEA][UDP] $PSAMAID,tPE*0E
2025-07-03 12:10:03,253 - [NMEA][UDP] $GNGGA,101003.000,4805.8103,N,00142.5152,W,1,12,1.6,31.7,M,48.3,M,,*6A
2025-07-03 12:10:03,254 - [NMEA][UDP] $GNGGA,101003.000,4805.8103,N,00142.5152,W,1,12,1.6,31.7,M,48.3,M,,*6A
2025-07-03 12:10:03,254 - [NMEA][UDP] $GNGGA,101003.000,4805.8103,N,00142.5152,W,1,12,1.6,31.7,M,48.3,M,,*6A
2025-07-03 12:10:03,255 - [NMEA][UDP] $GNGGA,101003.000,4805.8103,N,00142.5152,W,1,12,1.6,31.7,M,48.3,M,,*6A
2025-07-03 12:10:03,255 - [NMEA][UDP] $GNGGA,101003.000,4805.8103,N,00142.5152,W,1,12,1.6,31.7,M,48.3,M,,*6A
2025-07-03 12:10:03,256 - [NMEA][UDP] $GNGGA,101003.000,4805.8103,N,00142.5152,W,1,12,1.6,31.7,M,48.3,M,,*6A
2025-07-03 12:10:03,257 - [NMEA][UDP] $GNGGA,101003.000,4805.8103,N,00142.5152,W,1,12,1.6,31.7,M,48.3,M,,*6A
2025-07-03 12:10:03,258 - [NMEA][UDP] $GNGGA,101003.000,4805.8103,N,00142.5152,W,1,12,1.6,31.7,M,48.3,M,,*6A
2025-07-03 12:10:03,258 - [NMEA][UDP] $PSAMSA,101003.000,4805.8103,N,00142.5152,W,1,M,,0*4E
2025-07-03 12:10:03,259 - [NMEA][UDP] $PSAMSA,101003.000,4805.8103,N,00142.5152,W,1,M,,0*4E
2025-07-03 12:10:03,260 - [NMEA][UDP] $PSAMSA,101003.000,4805.8103,N,00142.5152,W,1,M,,0*4E
2025-07-03 12:10:03,260 - [NMEA][UDP] $PSAMSA,101003.000,4805.8103,N,00142.5152,W,1,M,,0*4E
2025-07-03 12:10:03,261 - [NMEA][UDP] $PSAMSA,101003.000,4805.8103,N,00142.5152,W,1,M,,0*4E
2025-07-03 12:10:03,262 - [NMEA][UDP] $PSAMSA,101003.000,4805.8103,N,00142.5152,W,1,M,,0*4E
2025-07-03 12:10:03,262 - [NMEA][UDP] $PSAMSA,101003.000,4805.8103,N,00142.5152,W,1,M,,0*4E
2025-07-03 12:10:03,263 - [NMEA][UDP] $PSAMSA,101003.000,4805.8103,N,00142.5152,W,1,M,,0*4E
2025-07-03 12:10:03,264 - [NMEA][UDP] $GNGLL,4805.8103,N,00142.5152,W,101003.000,A,A*51
2025-07-03 12:10:03,264 - [NMEA][UDP] $GNGLL,4805.8103,N,00142.5152,W,101003.000,A,A*51
2025-07-03 12:10:03,265 - [NMEA][UDP] $GNGLL,4805.8103,N,00142.5152,W,101003.000,A,A*51
2025-07-03 12:10:03,266 - [NMEA][UDP] $GNGLL,4805.8103,N,00142.5152,W,101003.000,A,A*51
2025-07-03 12:10:03,266 - [NMEA][UDP] $GNGLL,4805.8103,N,00142.5152,W,101003.000,A,A*51
2025-07-03 12:10:03,266 - [NMEA][UDP] $GNGLL,4805.8103,N,00142.5152,W,101003.000,A,A*51
2025-07-03 12:10:03,267 - [NMEA][UDP] $GNGLL,4805.8103,N,00142.5152,W,101003.000,A,A*51
2025-07-03 12:10:03,267 - [NMEA][UDP] $GNGLL,4805.8103,N,00142.5152,W,101003.000,A,A*51
2025-07-03 12:10:03,267 - [NMEA][UDP] $GNVTG,305.1,T,,M,0.0,N,0.0,K,A*14
2025-07-03 12:10:03,268 - [NMEA][UDP] $GNVTG,305.1,T,,M,0.0,N,0.0,K,A*14
2025-07-03 12:10:03,268 - [NMEA][UDP] $GNVTG,305.1,T,,M,0.0,N,0.0,K,A*14
2025-07-03 12:10:03,268 - [NMEA][UDP] $GNVTG,305.1,T,,M,0.0,N,0.0,K,A*14
2025-07-03 12:10:03,268 - [NMEA][UDP] $GNVTG,305.1,T,,M,0.0,N,0.0,K,A*14
2025-07-03 12:10:03,269 - [NMEA][UDP] $GNVTG,305.1,T,,M,0.0,N,0.0,K,A*14
2025-07-03 12:10:03,269 - [NMEA][UDP] $GNVTG,305.1,T,,M,0.0,N,0.0,K,A*14
2025-07-03 12:10:03,270 - [NMEA][UDP] $GNVTG,305.1,T,,M,0.0,N,0.0,K,A*14
2025-07-03 12:10:03,277 - [NMEA][UDP] $PSSGR,GSA,A,3,01,02,03,27,,,,,,,,,3.6,1.6,3.2,1,1*4A
2025-07-03 12:10:03,279 - [NMEA][UDP] $PSSGR,GSA,A,3,01,02,03,27,,,,,,,,,3.6,1.6,3.2,1,1*4A
2025-07-03 12:10:03,280 - [NMEA][UDP] $PSSGR,GSA,A,3,01,02,03,27,,,,,,,,,3.6,1.6,3.2,1,1*4A
2025-07-03 12:10:03,280 - [NMEA][UDP] $PSSGR,GSA,A,3,01,02,03,27,,,,,,,,,3.6,1.6,3.2,1,1*4A
2025-07-03 12:10:03,280 - [NMEA][UDP] $PSSGR,GSA,A,3,01,02,03,27,,,,,,,,,3.6,1.6,3.2,1,1*4A
2025-07-03 12:10:03,281 - [NMEA][UDP] $PSSGR,GSA,A,3,01,02,03,27,,,,,,,,,3.6,1.6,3.2,1,1*4A
2025-07-03 12:10:03,282 - [NMEA][UDP] $PSSGR,GSA,A,3,01,02,03,27,,,,,,,,,3.6,1.6,3.2,1,1*4A
2025-07-03 12:10:03,282 - [NMEA][UDP] $PSSGR,GSA,A,3,01,02,03,27,,,,,,,,,3.6,1.6,3.2,1,1*4A
2025-07-03 12:10:03,283 - [NMEA][UDP] $PSSGR,GSA,A,3,01,03,08,27,,,,,,,,,3.6,1.6,3.2,1,8*49
2025-07-03 12:10:03,283 - [NMEA][UDP] $PSSGR,GSA,A,3,01,03,08,27,,,,,,,,,3.6,1.6,3.2,1,8*49
2025-07-03 12:10:03,283 - [NMEA][UDP] $PSSGR,GSA,A,3,01,03,08,27,,,,,,,,,3.6,1.6,3.2,1,8*49
2025-07-03 12:10:03,284 - [NMEA][UDP] $PSSGR,GSA,A,3,01,03,08,27,,,,,,,,,3.6,1.6,3.2,1,8*49
2025-07-03 12:10:03,285 - [NMEA][UDP] $PSSGR,GSA,A,3,01,03,08,27,,,,,,,,,3.6,1.6,3.2,1,8*49
2025-07-03 12:10:03,285 - [NMEA][UDP] $PSSGR,GSA,A,3,01,03,08,27,,,,,,,,,3.6,1.6,3.2,1,8*49
2025-07-03 12:10:03,286 - [NMEA][UDP] $PSSGR,GSA,A,3,01,03,08,27,,,,,,,,,3.6,1.6,3.2,1,8*49
2025-07-03 12:10:03,286 - [NMEA][UDP] $PSSGR,GSA,A,3,01,03,08,27,,,,,,,,,3.6,1.6,3.2,1,8*49
2025-07-03 12:10:03,287 - [NMEA][UDP] $PSSGR,GSA,A,3,68,83,,,,,,,,,,,3.6,1.6,3.2,2,1*49
2025-07-03 12:10:03,287 - [NMEA][UDP] $PSSGR,GSA,A,3,68,83,,,,,,,,,,,3.6,1.6,3.2,2,1*49
2025-07-03 12:10:03,288 - [NMEA][UDP] $PSSGR,GSA,A,3,68,83,,,,,,,,,,,3.6,1.6,3.2,2,1*49
2025-07-03 12:10:03,288 - [NMEA][UDP] $PSSGR,GSA,A,3,68,83,,,,,,,,,,,3.6,1.6,3.2,2,1*49
2025-07-03 12:10:03,288 - [NMEA][UDP] $PSSGR,GSA,A,3,68,83,,,,,,,,,,,3.6,1.6,3.2,2,1*49
2025-07-03 12:10:03,289 - [NMEA][UDP] $PSSGR,GSA,A,3,68,83,,,,,,,,,,,3.6,1.6,3.2,2,1*49
2025-07-03 12:10:03,289 - [NMEA][UDP] $PSSGR,GSA,A,3,68,83,,,,,,,,,,,3.6,1.6,3.2,2,1*49
2025-07-03 12:10:03,290 - [NMEA][UDP] $PSSGR,GSA,A,3,68,83,,,,,,,,,,,3.6,1.6,3.2,2,1*49
2025-07-03 12:10:03,290 - [NMEA][UDP] $PSSGR,GSA,A,3,131,,,,,,,,,,,,3.6,1.6,3.2,3,7*78
2025-07-03 12:10:03,291 - [NMEA][UDP] $PSSGR,GSA,A,3,131,,,,,,,,,,,,3.6,1.6,3.2,3,7*78
2025-07-03 12:10:03,291 - [NMEA][UDP] $PSSGR,GSA,A,3,131,,,,,,,,,,,,3.6,1.6,3.2,3,7*78
2025-07-03 12:10:03,291 - [NMEA][UDP] $PSSGR,GSA,A,3,131,,,,,,,,,,,,3.6,1.6,3.2,3,7*78
2025-07-03 12:10:03,291 - [NMEA][UDP] $PSSGR,GSA,A,3,131,,,,,,,,,,,,3.6,1.6,3.2,3,7*78
2025-07-03 12:10:03,292 - [NMEA][UDP] $PSSGR,GSA,A,3,131,,,,,,,,,,,,3.6,1.6,3.2,3,7*78
2025-07-03 12:10:03,292 - [NMEA][UDP] $PSSGR,GSA,A,3,131,,,,,,,,,,,,3.6,1.6,3.2,3,7*78
2025-07-03 12:10:03,292 - [NMEA][UDP] $PSSGR,GSA,A,3,131,,,,,,,,,,,,3.6,1.6,3.2,3,7*78
2025-07-03 12:10:03,292 - [NMEA][UDP] $PSSGR,GSA,A,3,131,,,,,,,,,,,,3.6,1.6,3.2,3,1*7E
2025-07-03 12:10:03,292 - [NMEA][UDP] $PSSGR,GSA,A,3,131,,,,,,,,,,,,3.6,1.6,3.2,3,1*7E
2025-07-03 12:10:03,293 - [NMEA][UDP] $PSSGR,GSA,A,3,131,,,,,,,,,,,,3.6,1.6,3.2,3,1*7E
2025-07-03 12:10:03,293 - [NMEA][UDP] $PSSGR,GSA,A,3,131,,,,,,,,,,,,3.6,1.6,3.2,3,1*7E
2025-07-03 12:10:03,293 - [NMEA][UDP] $PSSGR,GSA,A,3,131,,,,,,,,,,,,3.6,1.6,3.2,3,1*7E
2025-07-03 12:10:03,293 - [NMEA][UDP] $PSSGR,GSA,A,3,131,,,,,,,,,,,,3.6,1.6,3.2,3,1*7E
2025-07-03 12:10:03,294 - [NMEA][UDP] $PSSGR,GSA,A,3,131,,,,,,,,,,,,3.6,1.6,3.2,3,1*7E
2025-07-03 12:10:03,294 - [NMEA][UDP] $PSSGR,GSA,A,3,131,,,,,,,,,,,,3.6,1.6,3.2,3,1*7E
2025-07-03 12:10:03,294 - [NMEA][UDP] $GNRMC,101003.000,A,4805.8103,N,00142.5152,W,0.0,,030725,,,A*4B
2025-07-03 12:10:03,294 - [NMEA][UDP] $GNRMC,101003.000,A,4805.8103,N,00142.5152,W,0.0,,030725,,,A*4B
2025-07-03 12:10:03,294 - [NMEA][UDP] $GNRMC,101003.000,A,4805.8103,N,00142.5152,W,0.0,,030725,,,A*4B
2025-07-03 12:10:03,295 - [NMEA][UDP] $GNRMC,101003.000,A,4805.8103,N,00142.5152,W,0.0,,030725,,,A*4B
2025-07-03 12:10:03,295 - [NMEA][UDP] $GNRMC,101003.000,A,4805.8103,N,00142.5152,W,0.0,,030725,,,A*4B
2025-07-03 12:10:03,295 - [NMEA][UDP] $GNRMC,101003.000,A,4805.8103,N,00142.5152,W,0.0,,030725,,,A*4B
2025-07-03 12:10:03,295 - [NMEA][UDP] $GNRMC,101003.000,A,4805.8103,N,00142.5152,W,0.0,,030725,,,A*4B
2025-07-03 12:10:03,296 - [NMEA][UDP] $GNRMC,101003.000,A,4805.8103,N,00142.5152,W,0.0,,030725,,,A*4B
2025-07-03 12:10:03,296 - [NMEA][UDP] $PSAMCLK,2373,38222100,12,19716,31008,382221000*7F
2025-07-03 12:10:03,296 - [NMEA][UDP] $PSAMCLK,2373,38222100,12,19716,31008,382221000*7F
2025-07-03 12:10:03,296 - [NMEA][UDP] $PSAMCLK,2373,38222100,12,19716,31008,382221000*7F
2025-07-03 12:10:03,297 - [NMEA][UDP] $PSAMCLK,2373,38222100,12,19716,31008,382221000*7F
2025-07-03 12:10:03,297 - [NMEA][UDP] $PSAMCLK,2373,38222100,12,19716,31008,382221000*7F
2025-07-03 12:10:03,297 - [NMEA][UDP] $PSAMCLK,2373,38222100,12,19716,31008,382221000*7F
2025-07-03 12:10:03,297 - [NMEA][UDP] $PSAMCLK,2373,38222100,12,19716,31008,382221000*7F
2025-07-03 12:10:03,298 - [NMEA][UDP] $PSAMCLK,2373,38222100,12,19716,31008,382221000*7F
2025-07-03 12:10:03,587 - [SERIAL] $GPRMC,083935,A,4805.8117,N,00142.52219,W,000.0,,030725,,,A*77
2025-07-03 12:10:03,593 - [SERIAL] $GPGGA,083935,4805.8117,N,00142.52219,W,1,00,,83.000,M,,M,,*63
2025-07-03 12:10:03,598 - [SERIAL] $HCHDG,132.9,,,000.8,E*28
2025-07-03 12:10:03,600 - [SERIAL] $HCHDT,133.7,T*2F
2025-07-03 12:10:03,603 - [SERIAL] $GPMDA,30.229,I,1.0237,B,,C,,C,,,,C,,T,,M,,N,,M*00
2025-07-03 12:10:03,606 - [SERIAL] $IIMMB,30.229,I,1.0237,B*44
2025-07-03 12:10:04,169 - [NMEA][UDP] $PSAMAID,tPE*0E
2025-07-03 12:10:04,169 - [NMEA][UDP] $PSAMAID,tPE*0E
2025-07-03 12:10:04,169 - [NMEA][UDP] $PSAMAID,tPE*0E
2025-07-03 12:10:04,169 - [NMEA][UDP] $PSAMAID,tPE*0E
2025-07-03 12:10:04,169 - [NMEA][UDP] $PSAMAID,tPE*0E
2025-07-03 12:10:04,169 - [NMEA][UDP] $PSAMAID,tPE*0E
2025-07-03 12:10:04,169 - [NMEA][UDP] $PSAMAID,tPE*0E
2025-07-03 12:10:04,170 - [NMEA][UDP] $PSAMAID,tPE*0E
2025-07-03 12:10:04,170 - [NMEA][UDP] $GNGGA,101004.000,4805.8103,N,00142.5152,W,1,12,1.6,31.7,M,48.3,M,,*6D
2025-07-03 12:10:04,170 - [NMEA][UDP] $GNGGA,101004.000,4805.8103,N,00142.5152,W,1,12,1.6,31.7,M,48.3,M,,*6D
2025-07-03 12:10:04,170 - [NMEA][UDP] $GNGGA,101004.000,4805.8103,N,00142.5152,W,1,12,1.6,31.7,M,48.3,M,,*6D
2025-07-03 12:10:04,171 - [NMEA][UDP] $GNGGA,101004.000,4805.8103,N,00142.5152,W,1,12,1.6,31.7,M,48.3,M,,*6D
2025-07-03 12:10:04,171 - [NMEA][UDP] $GNGGA,101004.000,4805.8103,N,00142.5152,W,1,12,1.6,31.7,M,48.3,M,,*6D
2025-07-03 12:10:04,171 - [NMEA][UDP] $GNGGA,101004.000,4805.8103,N,00142.5152,W,1,12,1.6,31.7,M,48.3,M,,*6D
2025-07-03 12:10:04,171 - [NMEA][UDP] $GNGGA,101004.000,4805.8103,N,00142.5152,W,1,12,1.6,31.7,M,48.3,M,,*6D
2025-07-03 12:10:04,172 - [NMEA][UDP] $GNGGA,101004.000,4805.8103,N,00142.5152,W,1,12,1.6,31.7,M,48.3,M,,*6D
2025-07-03 12:10:04,172 - [NMEA][UDP] $PSAMSA,101004.000,4805.8103,N,00142.5152,W,1,M,,0*49
2025-07-03 12:10:04,172 - [NMEA][UDP] $PSAMSA,101004.000,4805.8103,N,00142.5152,W,1,M,,0*49
2025-07-03 12:10:04,172 - [NMEA][UDP] $PSAMSA,101004.000,4805.8103,N,00142.5152,W,1,M,,0*49
2025-07-03 12:10:04,172 - [NMEA][UDP] $PSAMSA,101004.000,4805.8103,N,00142.5152,W,1,M,,0*49
2025-07-03 12:10:04,172 - [NMEA][UDP] $PSAMSA,101004.000,4805.8103,N,00142.5152,W,1,M,,0*49
2025-07-03 12:10:04,173 - [NMEA][UDP] $PSAMSA,101004.000,4805.8103,N,00142.5152,W,1,M,,0*49
2025-07-03 12:10:04,173 - [NMEA][UDP] $PSAMSA,101004.000,4805.8103,N,00142.5152,W,1,M,,0*49
2025-07-03 12:10:04,173 - [NMEA][UDP] $PSAMSA,101004.000,4805.8103,N,00142.5152,W,1,M,,0*49
2025-07-03 12:10:04,173 - [NMEA][UDP] $GNGLL,4805.8103,N,00142.5152,W,101004.000,A,A*56
2025-07-03 12:10:04,173 - [NMEA][UDP] $GNGLL,4805.8103,N,00142.5152,W,101004.000,A,A*56
2025-07-03 12:10:04,173 - [NMEA][UDP] $GNGLL,4805.8103,N,00142.5152,W,101004.000,A,A*56
2025-07-03 12:10:04,174 - [NMEA][UDP] $GNGLL,4805.8103,N,00142.5152,W,101004.000,A,A*56
2025-07-03 12:10:04,174 - [NMEA][UDP] $GNGLL,4805.8103,N,00142.5152,W,101004.000,A,A*56
2025-07-03 12:10:04,174 - [NMEA][UDP] $GNGLL,4805.8103,N,00142.5152,W,101004.000,A,A*56
2025-07-03 12:10:04,174 - [NMEA][UDP] $GNGLL,4805.8103,N,00142.5152,W,101004.000,A,A*56
2025-07-03 12:10:04,174 - [NMEA][UDP] $GNGLL,4805.8103,N,00142.5152,W,101004.000,A,A*56
2025-07-03 12:10:04,175 - [NMEA][UDP] $GNVTG,305.1,T,,M,0.0,N,0.0,K,A*14
2025-07-03 12:10:04,175 - [NMEA][UDP] $GNVTG,305.1,T,,M,0.0,N,0.0,K,A*14
2025-07-03 12:10:04,175 - [NMEA][UDP] $GNVTG,305.1,T,,M,0.0,N,0.0,K,A*14
2025-07-03 12:10:04,175 - [NMEA][UDP] $GNVTG,305.1,T,,M,0.0,N,0.0,K,A*14
2025-07-03 12:10:04,175 - [NMEA][UDP] $GNVTG,305.1,T,,M,0.0,N,0.0,K,A*14
2025-07-03 12:10:04,175 - [NMEA][UDP] $GNVTG,305.1,T,,M,0.0,N,0.0,K,A*14
2025-07-03 12:10:04,175 - [NMEA][UDP] $GNVTG,305.1,T,,M,0.0,N,0.0,K,A*14
2025-07-03 12:10:04,176 - [NMEA][UDP] $GNVTG,305.1,T,,M,0.0,N,0.0,K,A*14
2025-07-03 12:10:04,181 - [NMEA][UDP] $PSSGR,GSA,A,3,01,02,03,27,,,,,,,,,3.6,1.6,3.2,1,1*4A
2025-07-03 12:10:04,182 - [NMEA][UDP] $PSSGR,GSA,A,3,01,02,03,27,,,,,,,,,3.6,1.6,3.2,1,1*4A
2025-07-03 12:10:04,182 - [NMEA][UDP] $PSSGR,GSA,A,3,01,02,03,27,,,,,,,,,3.6,1.6,3.2,1,1*4A
2025-07-03 12:10:04,182 - [NMEA][UDP] $PSSGR,GSA,A,3,01,02,03,27,,,,,,,,,3.6,1.6,3.2,1,1*4A
2025-07-03 12:10:04,183 - [NMEA][UDP] $PSSGR,GSA,A,3,01,02,03,27,,,,,,,,,3.6,1.6,3.2,1,1*4A
2025-07-03 12:10:04,183 - [NMEA][UDP] $PSSGR,GSA,A,3,01,02,03,27,,,,,,,,,3.6,1.6,3.2,1,1*4A
2025-07-03 12:10:04,183 - [NMEA][UDP] $PSSGR,GSA,A,3,01,02,03,27,,,,,,,,,3.6,1.6,3.2,1,1*4A
2025-07-03 12:10:04,183 - [NMEA][UDP] $PSSGR,GSA,A,3,01,02,03,27,,,,,,,,,3.6,1.6,3.2,1,1*4A
2025-07-03 12:10:04,183 - [NMEA][UDP] $PSSGR,GSA,A,3,01,03,08,27,,,,,,,,,3.6,1.6,3.2,1,8*49
2025-07-03 12:10:04,184 - [NMEA][UDP] $PSSGR,GSA,A,3,01,03,08,27,,,,,,,,,3.6,1.6,3.2,1,8*49
2025-07-03 12:10:04,184 - [NMEA][UDP] $PSSGR,GSA,A,3,01,03,08,27,,,,,,,,,3.6,1.6,3.2,1,8*49
2025-07-03 12:10:04,184 - [NMEA][UDP] $PSSGR,GSA,A,3,01,03,08,27,,,,,,,,,3.6,1.6,3.2,1,8*49
2025-07-03 12:10:04,184 - [NMEA][UDP] $PSSGR,GSA,A,3,01,03,08,27,,,,,,,,,3.6,1.6,3.2,1,8*49
2025-07-03 12:10:04,184 - [NMEA][UDP] $PSSGR,GSA,A,3,01,03,08,27,,,,,,,,,3.6,1.6,3.2,1,8*49
2025-07-03 12:10:04,184 - [NMEA][UDP] $PSSGR,GSA,A,3,01,03,08,27,,,,,,,,,3.6,1.6,3.2,1,8*49
2025-07-03 12:10:04,185 - [NMEA][UDP] $PSSGR,GSA,A,3,01,03,08,27,,,,,,,,,3.6,1.6,3.2,1,8*49
2025-07-03 12:10:04,185 - [NMEA][UDP] $PSSGR,GSA,A,3,68,83,,,,,,,,,,,3.6,1.6,3.2,2,1*49
2025-07-03 12:10:04,185 - [NMEA][UDP] $PSSGR,GSA,A,3,68,83,,,,,,,,,,,3.6,1.6,3.2,2,1*49
2025-07-03 12:10:04,185 - [NMEA][UDP] $PSSGR,GSA,A,3,68,83,,,,,,,,,,,3.6,1.6,3.2,2,1*49
2025-07-03 12:10:04,185 - [NMEA][UDP] $PSSGR,GSA,A,3,68,83,,,,,,,,,,,3.6,1.6,3.2,2,1*49
2025-07-03 12:10:04,185 - [NMEA][UDP] $PSSGR,GSA,A,3,68,83,,,,,,,,,,,3.6,1.6,3.2,2,1*49
2025-07-03 12:10:04,185 - [NMEA][UDP] $PSSGR,GSA,A,3,68,83,,,,,,,,,,,3.6,1.6,3.2,2,1*49
